t,x,x_pred,y,y_pred,z,z_pred,vx,vx_pred,vy,vy_pred,vz,vz_pred,roll,roll_pred,pitch,pitch_pred,yaw,yaw_pred,wx,wx_pred,wy,wy_pred,wz,wz_pred,thrust,torque_roll,torque_pitch,torque_yaw
0.009999999999999825,1.0127717330716675,1.0141677,-0.009640315684422598,-0.010544725,1.6331076760816574,1.6351289,-0.06595096383611296,-0.074400075,0.01167849101276005,0.010533964,0.18437699629314055,0.22433802,0.01889390599273911,0.016228672,-0.11796743565852902,-0.120734036,-0.010420430543808175,-0.008887572,0.030768014127136523,0.038839914,-0.5362741609030304,-0.48957366,-0.05614143290900683,-0.02137125,0.6608719029737229,0.0031261999768729502,0.023564110520835437,0.14223237598454497
0.019999999999999612,1.0127717330716675,1.0143588,-0.009640315684422598,-0.010010168,1.6371076760816574,1.6343336,-0.07295096383611296,-0.0862941,0.00967849101276005,0.009237199,0.20337699629314057,0.2594818,0.01909992029587143,0.018539617,-0.12354036781455949,-0.12272537,-0.013285634632169006,-0.009017117,0.05876801412713652,0.02389849,-0.3922741609030304,-0.5431089,-0.004141432909006835,-0.026650256,0.8990499757592573,0.004896246516889734,0.004322483909101255,0.38041044877007935
0.0299999999999994,1.0107717330716675,1.0147374,-0.009640315684422598,-0.010032919,1.6391076760816574,1.6384676,-0.08595096383611298,-0.09404268,0.00867849101276005,0.007674088,0.21437699629314055,0.27876243,0.01912174797915395,0.018527906,-0.12634014253808884,-0.1267102,-0.013314461103282585,-0.01141888,0.07176801412713651,0.05218861,-0.4252741609030304,-0.39910215,-0.021141432909006837,0.025349677,0.8990499757592573,0.004896246516889734,0.004322483909101255,0.38041044877007935
0.04000000000000008,1.0097717330716676,1.0103585,-0.009640315684422598,-0.010802264,1.6411076760816574,1.6406287,-0.09595096383611296,-0.10077365,0.00667849101276005,0.0071171243,0.22737699629314057,0.23855656,0.019165788331293166,0.019364096,-0.13194058264245886,-0.13077171,-0.013372414464514662,-0.012694629,0.11476801412713653,0.06532721,-0.4472741609030304,-0.43439895,-0.00014143290900683458,-0.026177038,0.566372780367482,0.005186167932926967,0.0008586859385511653,0.04773325337830403
0.049999999999999864,1.0087717330716675,1.0114615,-0.009640315684422598,-0.010246473,1.6411076760816574,1.6426125,-0.10695096383611297,-0.11812761,0.00467849101276005,0.0045106467,0.22737699629314057,0.30091113,0.022000445952967667,0.019364644,-0.13472257515655794,-0.13539141,-0.013587732286711389,-0.011265143,0.10576801412713652,0.107211754,-0.4452741609030304,-0.45022988,-0.028141432909006836,0.02821093,0.8880787390155326,0.0034771574804969667,0.009830990813808657,0.36943921202635466
0.05999999999999965,1.0067717330716675,1.0098107,-0.009640315684422598,-0.010714192,1.6451076760816574,1.6424282,-0.11995096383611298,-0.12776448,0.00267849101276005,0.0023722267,0.24237699629314058,0.29568687,0.022046896879651202,0.022461811,-0.14032475857719393,-0.13868588,-0.013654169148422313,-0.011653156,0.02876801412713652,0.097198576,-0.4832741609030304,-0.43317425,-0.034141432909006834,-0.007486753,0.813919892597588,0.0022106586630711647,0.0313919887538407,0.2952803656084101
0.06999999999999944,1.0047717330716674,1.0075763,-0.009640315684422598,-0.010602493,1.6471076760816574,1.6466616,-0.13395096383611296,-0.14181828,0.0006784910127600498,0.00032602297,0.2533769962931406,0.3106631,0.022093941738943502,0.021881515,-0.14592824517113706,-0.14500506,-0.013721039518898888,-0.011667388,0.03876801412713652,0.020158568,-0.5682741609030303,-0.4711613,-0.029141432909006837,-0.013486827,0.813919892597588,0.0022106586630711647,0.0313919887538407,0.2952803656084101
0.08000000000000011,1.0037717330716676,1.0050079,-0.009640315684422598,-0.010703786,1.6501076760816573,1.6489547,-0.14695096383611297,-0.15549399,-0.0033215089872399503,-0.0017268152,0.2633769962931406,0.31342041,0.022117686881284064,0.022496937,-0.14873048740146258,-0.15188305,-0.013754638540539571,-0.011748958,0.030768014127136523,0.030158883,-0.5842741609030303,-0.5857135,-0.00014143290900683458,-0.014437179,0.7565917473316995,0.0022106586630711647,-0.010921278965698472,0.23795222034252161
0.0899999999999999,1.0007717330716674,1.0039173,-0.009640315684422598,-0.010730082,1.6501076760816573,1.6520056,-0.16195096383611296,-0.1688747,-0.0063215089872399495,-0.0057076598,0.2583769962931406,0.32329267,0.022189828978656824,0.022362199,-0.15713927647642584,-0.15479442,-0.013856105537118989,-0.011493649,0.03876801412713652,0.022327263,-0.5162741609030304,-0.601698,0.006858567090993166,0.0145628,0.7565917473316995,0.0022106586630711647,-0.010921278965698472,0.23795222034252161
0.09999999999999969,0.9997717330716674,0.9992848,-0.010640315684422598,-0.011024555,1.6541076760816573,1.6524061,-0.17595096383611297,-0.17229633,-0.009321508987239949,-0.007620603,0.2763769962931406,0.23297444,0.022214180003269843,0.022207199,-0.15994292582318453,-0.16232172,-0.013890153804662677,-0.012807475,0.07076801412713651,0.03138777,-0.4612741609030304,-0.53920245,0.0048585670909931655,-0.023996035,0.3175133922542599,0.0036450067213606285,-0.01916115078991454,-0.20112613473491797
0.10999999999999947,0.9967717330716673,1.0008999,-0.010640315684422598,-0.01081071,1.6571076760816574,1.6563989,-0.19095096383611299,-0.20561574,-0.01132150898723995,-0.012574774,0.2913769962931406,0.36178046,0.025085650295426535,0.021657506,-0.16553178096175084,-0.1638153,-0.014188307046239804,-0.011566903,0.03776801412713652,0.06260771,-0.5052741609030303,-0.44831342,-0.034141432909006834,0.042337753,0.9760012231842974,0.0025768751885918775,0.03256693343988633,0.45736169619511946
0.12000000000000015,0.9947717330716673,0.9957476,-0.010640315684422598,-0.0118240025,1.6641076760816573,1.6595514,-0.20895096383611295,-0.21274655,-0.01532150898723995,-0.013743532,0.3183769962931406,0.33451223,0.025137444839181965,0.02547596,-0.1711415718192134,-0.17169887,-0.014265198091248535,-0.013126406,-0.0002319858728634795,0.029933885,-0.5692741609030303,-0.50000405,-0.057141432909006834,-0.028782347,0.6665482591192939,0.003324567261530003,0.021488883542884724,0.14790873213011602
0.12999999999999992,0.9917717330716674,0.9926017,-0.011640315684422597,-0.011907114,1.6651076760816574,1.6672136,-0.22495096383611296,-0.2269065,-0.01832150898723995,-0.017513614,0.3233769962931406,0.33118516,0.02518993429836292,0.025011929,-0.1767529385606799,-0.17788711,-0.014342585169945335,-0.014340295,-0.01423198587286348,-0.0075513194,-0.3892741609030304,-0.6206057,-0.03914143290900684,-0.0677937,0.5122490296998997,0.004270626619125181,-0.05961281783805675,-0.0063904972892782075
0.1399999999999997,0.9887717330716673,0.9900177,-0.011640315684422597,-0.012749745,1.6671076760816574,1.6683248,-0.24295096383611298,-0.24342313,-0.02032150898723995,-0.020535767,0.3283769962931406,0.33609056,0.02521644176096021,0.02440373,-0.1795591952711294,-0.18144187,-0.014381467092454686,-0.01396475,-0.0022319858728634795,-0.02137484,-0.4612741609030304,-0.44063973,-0.007141432909006835,-0.049793713,0.5122490296998997,0.004270626619125181,-0.05961281783805675,-0.0063904972892782075
0.1499999999999995,0.9857717330716674,0.9866899,-0.011640315684422597,-0.012816495,1.6721076760816573,1.6701403,-0.261950963836113,-0.2626002,-0.02332150898723995,-0.022468656,0.3453769962931406,0.34582695,0.02526998638587809,0.024609286,-0.18517299834703702,-0.18503557,-0.014459614192869502,-0.013906909,0.07676801412713652,-0.008496504,-0.4932741609030304,-0.4657155,0.028858567090993166,-0.015266695,0.5366024286470272,0.005354017173790627,0.0074811014417174165,0.017962901657849306
0.16000000000000017,0.9847717330716673,0.98324215,-0.011640315684422597,-0.01322017,1.6721076760816573,1.6751753,-0.26895096383611294,-0.27225214,-0.02432150898723995,-0.024499763,0.3393769962931406,0.30999172,0.025297026454871165,0.025842944,-0.18798053819832172,-0.19006959,-0.014498881879842052,-0.013297595,0.02476801412713652,0.06883675,-0.4742741609030304,-0.5109526,-0.011141432909006835,-0.007111015,0.26821149250603377,0.0026989473637654485,-0.011745266148120076,-0.2504280344831441
0.16999999999999996,0.9807717330716674,0.9821944,-0.012640315684422598,-0.013158252,1.6751076760816574,1.6752115,-0.29195096383611296,-0.27928102,-0.027321508987239947,-0.02554827,0.3493769962931406,0.30396554,0.025351642031718614,0.02532684,-0.19359686259534808,-0.1925797,-0.014577808504950697,-0.013754609,-0.02623198587286348,0.016637374,-0.4802741609030304,-0.4919956,-0.035141432909006835,-0.047110155,0.26821149250603377,0.0026989473637654485,-0.011745266148120076,-0.2504280344831441
0.17999999999999974,0.9767717330716674,0.9778286,-0.012640315684422598,-0.014100926,1.6771076760816575,1.6782472,-0.312950963836113,-0.30294102,-0.031321508987239954,-0.028554993,0.35537699629314057,0.31556445,0.025406981342154876,0.024855101,-0.1992149831783709,-0.19838656,-0.014657266850946513,-0.014107927,-0.01323198587286348,-0.031024057,-0.4832741609030304,-0.46679923,-0.017141432909006833,-0.070235975,0.2766344725930102,0.007642870458295091,0.03285685485592356,-0.24200505439616765
0.18999999999999953,0.9727717330716674,0.97364295,-0.013640315684422599,-0.014147944,1.6811076760816575,1.6802948,-0.33395096383611295,-0.32424423,-0.036321508987239945,-0.032531727,0.3673769962931406,0.3215065,0.02543492482637742,0.025012527,-0.20202470964997285,-0.20405637,-0.014697198082939475,-0.014012386,-0.03923198587286348,-0.017936382,-0.4192741609030304,-0.46980095,-0.021141432909006837,-0.05223632,0.2766344725930102,0.007642870458295091,0.03285685485592356,-0.24200505439616765
0.2000000000000002,0.9687717330716674,0.96949,-0.014640315684422596,-0.015197335,1.6851076760816575,1.6844019,-0.35395096383611296,-0.34275967,-0.03932150898723995,-0.03727945,0.3773769962931406,0.32076156,0.025491361892535043,0.024685996,-0.20764554893831408,-0.20587759,-0.014777469694086965,-0.0142716225,0.01176801412713652,-0.045475837,-0.4542741609030304,-0.4060943,0.014858567090993166,-0.0629676,0.21173785246636032,0.005445571305170805,0.032414343220919364,-0.3069016745228176
0.21,0.9647717330716674,0.965218,-0.015640315684422597,-0.016032062,1.6931076760816575,1.6886314,-0.374950963836113,-0.37024197,-0.04232150898723995,-0.041029368,0.3963769962931406,0.36555567,0.025519858870827687,0.02488767,-0.21045668711218699,-0.21257022,-0.014817813158699752,-0.013559413,0.04576801412713652,0.005878553,-0.4332741609030304,-0.45828736,-0.004141432909006835,-0.008501065,0.3897648609351175,0.005735492721208038,0.007908354054824915,-0.1288746660540604
0.21999999999999978,0.9627717330716674,0.9614252,-0.015640315684422597,-0.017117087,1.6921076760816574,1.6969633,-0.381950963836113,-0.39690974,-0.04332150898723995,-0.044436924,0.3833769962931406,0.4102674,0.025548543053444853,0.02559737,-0.2132682971430782,-0.21521816,-0.014858296589163426,-0.014236488,0.0007680141271365205,0.03773704,-0.4412741609030304,-0.45899352,-0.035141432909006835,-0.013830917,0.5215265150130911,0.0028057605170423265,-0.023006424307882037,0.002886988023913184
0.22999999999999957,0.9577717330716674,0.9595911,-0.015640315684422597,-0.017106518,1.6961076760816574,1.6959584,-0.40495096383611295,-0.4064754,-0.046321508987239954,-0.045497186,0.3933769962931406,0.40832806,0.02591299788106339,0.025135076,-0.21885800319935791,-0.21856426,-0.01778377416941743,-0.014642372,-0.01223198587286348,-0.004855727,-0.3092741609030304,-0.4662953,-0.029141432909006837,-0.038915887,0.578534220819149,0.006452666750352769,-0.02193829277511329,0.059894693829971035
0.23999999999999935,0.9527717330716674,0.95471823,-0.0176403156844226,-0.017083194,1.7041076760816574,1.7000052,-0.425950963836113,-0.4300817,-0.050321508987239943,-0.048360985,0.4023769962931406,0.41819927,0.025946357406236988,0.025127413,-0.22167103425335152,-0.2223573,-0.017826020726988277,-0.017561613,-0.037231985872863485,-0.017789533,-0.3232741609030304,-0.33431727,-0.035141432909006835,-0.03291579,0.578534220819149,0.006452666750352769,-0.02193829277511329,0.059894693829971035
0.25000000000000006,0.9477717330716674,0.94864434,-0.0176403156844226,-0.019407874,1.7081076760816574,1.707855,-0.449950963836113,-0.42944366,-0.052321508987239945,-0.050705325,0.4113769962931406,0.32882062,0.025979915941638638,0.025175069,-0.2244845788905183,-0.22377364,-0.017868430918828188,-0.018176269,-0.01123198587286348,-0.040187024,-0.2992741609030304,-0.32391557,0.0038585670909931646,-0.091199726,0.07454398659316279,0.010175868093146696,0.012623391820904106,-0.44409554039601506
0.25999999999999984,0.9417717330716674,0.9435,-0.018640315684422596,-0.019425925,1.7121076760816574,1.7118962,-0.473950963836113,-0.45349482,-0.05532150898723995,-0.052633636,0.42237699629314057,0.33781165,0.026013673409950512,0.02530697,-0.2272986457227299,-0.22630745,-0.017911005391512268,-0.017919883,0.02376801412713652,-0.01405892,-0.3662741609030304,-0.29992673,0.0008585670909931654,-0.052200254,0.07454398659316279,0.010175868093146696,0.012623391820904106,-0.44409554039601506
0.26999999999999963,0.9357717330716674,0.9397635,-0.019640315684422597,-0.019966742,1.7171076760816575,1.7159827,-0.5019509638361129,-0.51138747,-0.06032150898723995,-0.057722636,0.4333769962931406,0.49191898,0.02608179070153679,0.025620842,-0.23292834020039482,-0.22958843,-0.017996652638226692,-0.015411352,-0.0032319858728634796,0.02017443,-0.4162741609030304,-0.39605266,-0.03814143290900684,0.027774135,0.8742388061552289,0.00913825460417134,-0.028560708278279542,0.35559927916605094
0.2799999999999994,0.9297717330716674,0.93130594,-0.019640315684422597,-0.02133822,1.7191076760816575,1.7212311,-0.525950963836113,-0.5277555,-0.06232150898723994,-0.06237583,0.4313769962931406,0.4547497,0.02615071676714487,0.025528567,-0.2385601106866979,-0.2373761,-0.01808297149666656,-0.017935663,-0.02223198587286348,-0.00925439,-0.2672741609030304,-0.39281476,-0.004141432909006835,-0.043570314,0.5625885429371011,0.005888082940175001,0.04733766663588847,0.04394901594792322
0.2900000000000001,0.9237717330716674,0.92620987,-0.020640315684422598,-0.021239115,1.7221076760816574,1.7233222,-0.550950963836113,-0.5565749,-0.06332150898723994,-0.06415596,0.4383769962931406,0.47242078,0.026185487212689266,0.024834134,-0.24137682516517628,-0.24100459,-0.018126387044080147,-0.017084204,-0.02723198587286348,-0.029773504,-0.2582741609030304,-0.2770302,0.007858567090993165,0.0010983902,0.6654038324770417,0.0035076755242903594,4.180712336168679e-06,0.1467643054878638
0.2999999999999999,0.9177717330716675,0.92001766,-0.020640315684422598,-0.02224401,1.7261076760816574,1.7263954,-0.575950963836113,-0.5818732,-0.06532150898723994,-0.06509828,0.4453769962931406,0.4793327,0.026220465077116128,0.024736982,-0.24419410122341095,-0.24357724,-0.018169975605991134,-0.017078985,-0.029231985872863478,-0.03474152,-0.3842741609030304,-0.2680326,-0.03914143290900684,0.013098332,0.6654038324770417,0.0035076755242903594,4.180712336168679e-06,0.1467643054878638
0.30999999999999966,0.9107717330716675,0.9121741,-0.0226403156844226,-0.022541648,1.7311076760816575,1.7302393,-0.602950963836113,-0.5789187,-0.07132150898723995,-0.06541512,0.4563769962931406,0.3679926,0.026255648501069286,0.025679188,-0.24701190067111156,-0.24682115,-0.01821373650696871,-0.01879919,-0.04323198587286348,-0.036332954,-0.1832741609030304,-0.3869768,0.0048585670909931655,-0.09720786,0.05521080585004842,0.004301144662918574,0.0096478825510483,-0.4634287211391295
0.31999999999999945,0.9047717330716675,0.9050526,-0.023640315684422597,-0.024575787,1.7351076760816575,1.7353127,-0.6259509638361129,-0.60588044,-0.07532150898723995,-0.071404785,0.4663769962931406,0.37898543,0.026255648501069286,0.02477468,-0.24701190067111156,-0.24700883,-0.01821373650696871,-0.018498516,-0.020231985872863477,-0.05016778,-0.2282741609030304,-0.186013,0.0038585670909931646,-0.05320619,0.05521080585004842,0.004301144662918574,0.0096478825510483,-0.4634287211391295
0.3300000000000001,0.8977717330716675,0.89885813,-0.024640315684422598,-0.02550076,1.7391076760816575,1.7392825,-0.651950963836113,-0.6341614,-0.07732150898723994,-0.07588935,0.4733769962931406,0.41007477,0.026291041857926762,0.025132682,-0.24983027544870848,-0.24767192,-0.018257673203910044,-0.018193956,0.03176801412713652,-0.025370106,-0.14527416090303039,-0.22935653,0.012858567090993164,-0.042931844,0.16390081882021704,0.006879919363460269,0.012028289966932948,-0.3547387081689608
0.3399999999999999,0.8907717330716675,0.894324,-0.024640315684422598,-0.026285578,1.7451076760816575,1.7437242,-0.677950963836113,-0.69118947,-0.08032150898723994,-0.07880052,0.4893769962931406,0.53886175,0.02632664518999168,0.025196167,-0.25264923288971836,-0.24908346,-0.018301786452358217,-0.016611276,0.006768014127136519,0.02755997,-0.11827416090303039,-0.17596872,0.005858567090993165,0.036473107,0.8424390045225135,0.00823797231226625,-0.02987298416139543,0.3237994775333356
0.3499999999999997,0.8837717330716675,0.88565326,-0.0256403156844226,-0.026312958,1.7501076760816574,1.7500237,-0.703950963836113,-0.7071474,-0.08232150898723994,-0.08192626,0.5003769962931406,0.517665,0.02632664518999168,0.025548609,-0.25264923288971836,-0.25259316,-0.018301786452358217,-0.01831251,0.00976801412713652,0.00074162707,-0.1602741609030304,-0.16224283,-0.005141432909006835,0.0044209054,0.6010565371386729,0.0056439385898278596,-0.04897727957605935,0.08241701014949498
0.3599999999999995,0.8757717330716674,0.87702733,-0.027640315684422597,-0.02771022,1.7541076760816574,1.754642,-0.730950963836113,-0.70741993,-0.08732150898723995,-0.08229985,0.5053769962931406,0.42458788,0.026362459360594007,0.025329996,-0.25546874895126714,-0.2523497,-0.018346077171373106,-0.019037247,-0.04923198587286348,0.0076377755,-0.0772741609030304,-0.16091079,0.024858567090993162,-0.062341064,0.06355749082754136,0.011198222560225356,0.012623391820904106,-0.4550820361616365
0.37000000000000016,0.8677717330716674,0.868888,-0.028640315684422598,-0.029733319,1.7601076760816574,1.7586752,-0.7559509638361129,-0.7345366,-0.09132150898723995,-0.08726873,0.5213769962931406,0.42957932,0.02600186558331552,0.024359977,-0.2555043068575386,-0.25404322,-0.015483142388599182,-0.01875867,-0.05323198587286348,-0.051333208,-0.0972741609030304,-0.07793322,0.022858567090993168,-0.032340303,0.06355749082754136,0.011198222560225356,0.012623391820904106,-0.4550820361616365
0.37999999999999995,0.8587717330716674,0.8628969,-0.0296403156844226,-0.03047073,1.7651076760816575,1.7650924,-0.783950963836113,-0.7936527,-0.09332150898723994,-0.09240584,0.5303769962931406,0.5823359,0.02600186558331552,0.023945723,-0.2555043068575386,-0.25439698,-0.015483142388599182,-0.014496267,-0.051231985872863484,-0.055354327,-0.1282741609030304,-0.11324085,0.005858567090993165,0.041252494,0.7921452683510022,0.011213481582122053,-0.008769756878264284,0.27350574136182426
0.38999999999999974,0.8507717330716674,0.851637,-0.0306403156844226,-0.031087635,1.7681076760816574,1.7701982,-0.809950963836113,-0.8057997,-0.09632150898723994,-0.09490259,0.5253769962931406,0.527055,0.026033673952788227,0.02404447,-0.2583244649927368,-0.25535697,-0.015526029623807738,-0.015259499,-0.08723198587286349,-0.057804875,-0.04727416090303039,-0.17909877,0.035858567090993165,-0.012507942,0.4379070750191947,0.004850469451199645,-0.05894142087460211,-0.08073245196998319
0.3999999999999995,0.8417717330716674,0.8436505,-0.0316403156844226,-0.032057144,1.7761076760816574,1.7730712,-0.834950963836113,-0.8324259,-0.09932150898723995,-0.09776665,0.5523769962931406,0.5234935,0.02316893307921751,0.023156276,-0.25834595275988353,-0.25702235,-0.015161168056826244,-0.015076579,-0.06223198587286348,-0.0919925,-0.042274160903030385,-0.08096437,0.03085856709099316,0.01829582,0.44565865814271644,0.00742924415174134,-0.034359136599024176,-0.07298086884646143
0.4100000000000002,0.8327717330716674,0.83430564,-0.0336403156844226,-0.033677544,1.7851076760816573,1.781083,-0.8619509638361129,-0.84773916,-0.10232150898723995,-0.099906564,0.5813769962931405,0.512351,0.02316893307921751,0.020583238,-0.25834595275988353,-0.25613198,-0.015161168056826244,-0.014806157,-0.01123198587286348,-0.06524817,0.00472583909696961,-0.04363085,0.03085856709099316,-0.007161336,0.2484663181717086,0.009916464720902858,0.011707850507102324,-0.27017320881746926
0.42,0.8237717330716674,0.8250003,-0.0346403156844226,-0.03575491,1.7911076760816573,1.7903513,-0.8859509638361129,-0.8746994,-0.10432150898723995,-0.10284111,0.5883769962931406,0.5413508,0.023138708351925445,0.021205144,-0.25552573182326144,-0.25554064,-0.015122500305589962,-0.014936979,-0.04623198587286348,-0.014263405,0.023725839096969608,0.0033948314,0.033858567090993164,-0.007161362,0.2484663181717086,0.009916464720902858,0.011707850507102324,-0.27017320881746926
0.42999999999999977,0.8147717330716674,0.8181669,-0.035640315684422594,-0.036252335,1.7961076760816574,1.7968501,-0.910950963836113,-0.928087,-0.10832150898723995,-0.10478638,0.5953769962931406,0.6567507,0.023138708351925445,0.021064343,-0.25552573182326144,-0.252319,-0.015122500305589962,-0.014338815,-0.07223198587286349,-0.049517803,0.034725839096969614,-0.01310624,0.021858567090993167,0.062207535,0.8880482209717392,0.009596025261072233,-0.03860114468630578,0.36940869398256126
0.43999999999999956,0.8047717330716674,0.8088397,-0.037640315684422596,-0.037269328,1.8051076760816573,1.8019388,-0.936950963836113,-0.9530561,-0.11032150898723994,-0.108701974,0.6123769962931406,0.66390806,0.023138708351925445,0.020900287,-0.25552573182326144,-0.2522517,-0.015122500305589962,-0.014600125,-0.10323198587286349,-0.075517185,0.035725839096969615,-0.002109874,0.011858567090993167,0.05020751,0.8880482209717392,0.009596025261072233,-0.03860114468630578,0.36940869398256126
0.45000000000000023,0.7957717330716675,0.796291,-0.038640315684422596,-0.03932983,1.8101076760816575,1.8107123,-0.960950963836113,-0.95657605,-0.11232150898723994,-0.111152455,0.6133769962931406,0.59966564,0.020275566878753887,0.019900918,-0.2555466591438858,-0.25287873,-0.014761830670887514,-0.015161471,-0.06423198587286348,-0.10399052,0.1077258390969696,0.02469102,0.006858567090993166,-0.011544223,0.38938338538770007,0.013181895406795891,-0.002025269199924462,-0.1292561416014778
0.46,0.7857717330716675,0.7870958,-0.0396403156844226,-0.04036891,1.8151076760816574,1.8157119,-0.984950963836113,-0.9805868,-0.11432150898723994,-0.11288228,0.6153769962931406,0.6006694,0.02024708990808907,0.017645977,-0.2527269630049081,-0.2520459,-0.01472752400304927,-0.01508353,-0.044231985872863484,-0.064993784,0.1567258390969696,0.096692145,0.034858567090993164,-0.016544476,0.38938338538770007,0.013181895406795891,-0.002025269199924462,-0.1292561416014778
0.4699999999999998,0.7747717330716675,0.77664626,-0.0406403156844226,-0.04210177,1.8211076760816574,1.8207456,-1.009950963836113,-0.9890758,-0.11732150898723995,-0.1140066,0.6193769962931406,0.5402571,0.019890572409220427,0.018002205,-0.25275405821256985,-0.2480345,-0.011866038859017646,-0.014989786,-0.03323198587286348,-0.047852684,0.1487258390969696,0.18124801,0.04685856709099316,-0.021986403,0.06700602977619476,0.00913825460417134,0.04861942447521096,-0.4516334972129831
0.4799999999999996,0.7637717330716675,0.76541543,-0.04264031568442259,-0.043140296,1.8271076760816574,1.8267533,-1.034950963836113,-1.0141019,-0.11932150898723995,-0.11694151,0.6243769962931406,0.544257,0.019866461811229082,0.01777523,-0.24993490372101723,-0.2480974,-0.011833419015723108,-0.012044744,-0.052231985872863484,-0.036868483,0.1317258390969696,0.17325585,0.049858567090993164,-0.009986695,0.06700602977619476,0.00913825460417134,0.04861942447521096,-0.4516334972129831
0.4899999999999994,0.7527717330716674,0.7566136,-0.043640315684422594,-0.044098735,1.8331076760816574,1.8331963,-1.0599509638361129,-1.0769355,-0.12132150898723995,-0.1192515,0.6263769962931406,0.6948055,0.017006405453062992,0.017904071,-0.2499512794954176,-0.2455404,-0.011481082828144265,-0.01171899,-0.10423198587286348,-0.059173204,0.1567258390969696,0.07418059,0.059858567090993166,0.07994978,0.9048331450581052,0.004453734881885538,-0.06818838814400013,0.38619361806892727
0.5,0.7417717330716674,0.7452484,-0.044640315684422595,-0.04503593,1.8371076760816574,1.8392051,-1.082950963836113,-1.1019434,-0.12232150898723995,-0.120700076,0.6153769962931406,0.6969779,0.016983975816147464,0.014568647,-0.24713266119138813,-0.24519537,-0.01145277737522911,-0.011408957,-0.12623198587286347,-0.11120196,0.1887258390969696,0.09913272,0.033858567090993164,0.08994972,0.9048331450581052,0.004453734881885538,-0.06818838814400013,0.38619361806892727
0.5099999999999998,0.7297717330716674,0.73215556,-0.0466403156844226,-0.046477392,1.8431076760816574,1.8426665,-1.107950963836113,-1.1082964,-0.12432150898723995,-0.12221989,0.6163769962931406,0.629615,0.016983975816147464,0.013722535,-0.24713266119138813,-0.24228139,-0.01145277737522911,-0.012479685,-0.11323198587286348,-0.13447341,0.1457258390969696,0.21245924,0.050858567090993165,0.024794756,0.5275843467060796,0.0025768751885918775,0.04790225044606623,0.008944819716901642
0.5199999999999996,0.7177717330716674,0.7198375,-0.0476403156844226,-0.04860053,1.8491076760816574,1.8485435,-1.131950963836113,-1.1331995,-0.12532150898723995,-0.12420444,0.6173769962931406,0.6306113,0.014104669566349426,0.013887662,-0.24433039611598797,-0.2424832,-0.011080604156064985,-0.012238372,-0.08923198587286348,-0.12148395,0.1467258390969696,0.16945732,0.043858567090993165,0.041794732,0.5275843467060796,0.0025768751885918775,0.04790225044606623,0.008944819716901642
0.5299999999999994,0.7057717330716674,0.7076165,-0.04864031568442259,-0.04950366,1.8511076760816574,1.8547332,-1.1539509638361132,-1.154816,-0.12732150898723996,-0.12501483,0.5783769962931405,0.62262076,0.013760637247351324,0.011295494,-0.24434900914402022,-0.23971826,-0.008223617882949856,-0.011829652,-0.10823198587286348,-0.094078414,0.1807258390969696,0.109903775,0.06685856709099317,0.029941555,0.48081544459270503,0.00742924415174134,-0.03876899392716944,-0.037824082396472836
0.54,0.6927717330716674,0.69521934,-0.05064031568442259,-0.05086739,1.8561076760816575,1.8561915,-1.1779509638361128,-1.1659365,-0.12832150898723996,-0.12708044,0.5783769962931405,0.5353952,0.013744141131205947,0.010406667,-0.241531444613908,-0.2390788,-0.008201199405387011,-0.00781409,-0.12423198587286348,-0.11417255,0.1927258390969696,0.17590523,0.04885856709099316,0.027162086,0.2323680500706939,0.0059338600058650905,0.006885999587746244,-0.286271476918484
0.5499999999999998,0.6847717330716674,0.68414044,-0.052640315684422595,-0.051879656,1.8691076760816574,1.8619397,-1.1739509638361127,-1.2220362,-0.13432150898723993,-0.12715657,0.6373769962931406,0.6615122,0.010527275842153537,0.010677409,-0.23592336628287494,-0.23587507,-0.004972481460489054,-0.008115382,-0.13323198587286347,-0.13473406,0.1737258390969696,0.20477094,0.050858567090993165,0.08677141,0.9801821951839922,-0.0005970013659209773,0.0313919887538407,0.46154266819481427
0.5599999999999996,0.6717717330716674,0.6748195,-0.053640315684422596,-0.054496318,1.8771076760816574,1.8749179,-1.195950963836113,-1.2016138,-0.13532150898723994,-0.13340093,0.6423769962931406,0.66943204,0.010516678546707283,0.0075907996,-0.23310741335827573,-0.23050518,-0.004955891834066536,-0.005635724,-0.13023198587286347,-0.14103314,0.3597258390969696,0.15504009,0.025858567090993163,0.05123683,0.6185738942760803,0.003248272152046521,-0.012645548440025176,0.09993436728690241
0.5699999999999994,0.6587717330716675,0.6628506,-0.0556403156844226,-0.05483475,1.8831076760816574,1.8833148,-1.2189509638361131,-1.2365305,-0.13632150898723994,-0.13366345,0.6433769962931406,0.7166246,0.007656378886864434,0.00772306,-0.23029877294931503,-0.22565712,-0.0046160813159881985,-0.0062428457,-0.12123198587286348,-0.13384037,0.3677258390969696,0.296247,0.029858567090993167,0.058149606,0.9260279264726166,0.00926032677934491,-0.07661136823097656,0.40738839948343863
0.5800000000000001,0.6457717330716675,0.64917904,-0.05664031568442259,-0.057262268,1.8891076760816574,1.8889755,-1.240950963836113,-1.2535428,-0.13732150898723994,-0.13441746,0.6443769962931406,0.70437133,0.007638339487874934,0.0050864224,-0.22466940315091918,-0.22238696,-0.004591431506651212,-0.0059221163,-0.07923198587286348,-0.13346808,0.3267258390969696,0.30545035,0.051858567090993166,0.049205385,0.8013311995328134,-0.0030537038912890994,-0.07488709875664987,0.2826916725436355
0.5899999999999999,0.6347717330716675,0.63438386,-0.05864031568442259,-0.058907017,1.8951076760816574,1.8951733,-1.2469509638361131,-1.2481803,-0.14032150898723994,-0.13650523,0.6483769962931406,0.58151704,0.004472841762270759,0.0050953147,-0.22186762914893451,-0.21833327,-0.0014226282953116052,-0.0043806885,-0.10023198587286349,-0.08613534,0.28072583909696963,0.30431288,0.043858567090993165,0.001479201,0.12941542933368314,0.0046215841227491995,-0.018367681651286327,-0.38922409765549476
0.5999999999999996,0.6217717330716674,0.6233647,-0.059640315684422594,-0.060709238,1.9021076760816573,1.9008105,-1.268950963836113,-1.2640892,-0.14132150898723994,-0.139318,0.6483769962931406,0.63397276,0.004469418014790306,0.0016301017,-0.2190542097338279,-0.2156282,-0.0014158667866659912,-0.0019984543,-0.11323198587286348,-0.10984171,0.23072583909696961,0.26236835,0.03985856709099316,0.019231787,0.3776186795053471,0.0007000154952982174,-0.012401404089678034,-0.14102084748383076
0.6099999999999994,0.6087717330716674,0.6110926,-0.061640315684422596,-0.061469525,1.9101076760816573,1.9076823,-1.2829509638361132,-1.2989937,-0.14232150898723994,-0.13934511,0.6583769962931406,0.70329666,0.004462662891682944,0.0017299668,-0.21342884739445583,-0.21205576,-0.001402396237748926,-0.0021169279,-0.12423198587286348,-0.12432836,0.2417258390969696,0.19319245,0.05485856709099316,0.05357803,0.747115894733851,-0.0014515065921359774,-0.03953194502200426,0.22847636774467306
0.6200000000000001,0.6037717330716674,0.59792423,-0.0626403156844226,-0.06345913,1.9151076760816574,1.9157034,-1.2659509638361128,-1.3122245,-0.14032150898723994,-0.1403502,0.6423769962931406,0.7133683,0.0016168972728713082,0.00163634,-0.20780735703908254,-0.20626384,-0.0010985739111612058,-0.0019176606,-0.09223198587286348,-0.1353699,0.1767258390969696,0.2041671,0.04785856709099316,0.06857799,0.747115894733851,-0.0014515065921359774,-0.03953194502200426,0.22847636774467306
0.6299999999999999,0.5897717330716674,0.5920405,-0.0636403156844226,-0.06490755,1.9211076760816574,1.9208406,-1.284950963836113,-1.2759179,-0.14032150898723994,-0.13932885,0.6383769962931406,0.5977467,0.0016148744114027258,-0.0013482139,-0.20499636750280767,-0.20258452,-0.00109597571254628,-0.0011719216,-0.11423198587286348,-0.10222436,0.1807258390969696,0.15401562,0.04085856709099316,0.007092662,0.22208346931232048,8.965461943036268e-05,-0.01873389817680704,-0.2965560576768574
0.6399999999999997,0.5757717330716674,0.57779217,-0.06564031568442259,-0.06571325,1.9281076760816573,1.9265902,-1.3029509638361128,-1.3020469,-0.14132150898723994,-0.13911948,0.6333769962931406,0.63222873,-0.001509355345792654,-0.0014600286,-0.2049954550961654,-0.1996422,0.0020282532043322792,-0.001700567,-0.12223198587286348,-0.12568152,0.23372583909696962,0.1663286,0.06185856709099317,0.020472258,0.41848234014470015,-0.0020008313804170466,-0.006725047944106957,-0.10015718684447772
0.6499999999999995,0.5597717330716674,0.56369764,-0.0676403156844226,-0.06767571,1.9351076760816575,1.933521,-1.331950963836113,-1.3201987,-0.14232150898723994,-0.13982989,0.6313769962931406,0.62722796,-0.0015060655337605006,-0.0045474744,-0.20218493162148815,-0.19908369,0.0020255410343642606,0.0015670112,-0.12323198587286348,-0.13375388,0.1757258390969696,0.21928884,0.051858567090993166,0.04147207,0.41848234014470015,-0.0020008313804170466,-0.006725047944106957,-0.10015718684447772
0.6600000000000001,0.5457717330716675,0.5490813,-0.0686403156844226,-0.06886982,1.9411076760816575,1.9411882,-1.349950963836113,-1.3683826,-0.14232150898723994,-0.13917701,0.6243769962931406,0.71612006,-0.004342720585802572,-0.004204161,-0.20218212623297224,-0.19684859,0.002307814068624858,0.0019200238,-0.18023198587286346,-0.1356409,0.2077258390969696,0.1603987,0.058858567090993165,0.08979359,0.9803958214905459,-0.0033283662854296375,-0.007747402411185614,0.461756294501368
0.6699999999999999,0.5297717330716675,0.5336801,-0.0706403156844226,-0.07055677,1.9481076760816574,1.9465468,-1.372950963836113,-1.3725569,-0.14232150898723994,-0.13986842,0.6253769962931406,0.6513184,-0.004338231595536874,-0.008065265,-0.199372078909802,-0.19617306,0.0023010534124670665,0.0016299768,-0.14723198587286346,-0.2218614,0.14172583909696962,0.18645826,0.03085856709099316,0.056048524,0.5878574831980304,-0.04507705019479104,-0.01629245467333562,0.06921795620885252
0.6799999999999997,0.5147717330716675,0.5182367,-0.0716403156844226,-0.07189309,1.9541076760816574,1.9540368,-1.3909509638361128,-1.4061998,-0.14132150898723994,-0.13892111,0.6163769962931406,0.69986534,-0.007173684487836505,-0.0074373847,-0.1993688822053141,-0.19481885,0.0025792587062048607,0.001966393,-0.16223198587286347,-0.15842947,0.1447258390969696,0.077530876,0.036858567090993166,0.062517785,0.9199395767358347,-0.0016651328986897265,-0.07764898171995194,0.4013000497466568
0.6899999999999995,0.5007717330716674,0.5029911,-0.0736403156844226,-0.07287143,1.9611076760816575,1.9599335,-1.4079509638361132,-1.4241995,-0.14132150898723994,-0.1374501,0.6093769962931406,0.6909026,-0.0071680324757007335,-0.010479333,-0.19655929171226477,-0.19478981,0.002568462908372805,0.0023388285,-0.13723198587286348,-0.17343923,0.16872583909696962,0.0805145,0.04085856709099316,0.06851777,0.9199395767358347,-0.0016651328986897265,-0.07764898171995194,0.4013000497466568
0.7000000000000002,0.48577173307166743,0.4881436,-0.0746403156844226,-0.07543651,1.9671076760816575,1.96619,-1.424950963836113,-1.4348779,-0.14132150898723994,-0.13780159,0.6003769962931406,0.6664646,-0.0102655691054752,-0.01020067,-0.19373214397293745,-0.19039863,0.005660813311909301,0.0021693457,-0.14423198587286346,-0.15086624,0.1917258390969696,0.13998257,0.018858567090993164,0.05625534,0.7632751989224525,-0.0051136718473431195,-0.02695851097912641,0.24463567193327462
0.71,0.4787717330716674,0.47264576,-0.0756403156844226,-0.07667859,1.9701076760816574,1.972182,-1.4159509638361132,-1.4441509,-0.13932150898723994,-0.13882886,0.5793769962931405,0.6129313,-0.010254811940921746,-0.013376142,-0.19092348654852326,-0.18806851,0.005644871642610417,0.0045393216,-0.13023198587286347,-0.1590945,0.23072583909696961,0.14670347,0.010858567090993166,0.008292228,0.5131187939480114,-0.006929495453049991,-0.0504421456781422,-0.0055207330411665145
0.7199999999999998,0.4637717330716674,0.46568418,-0.07764031568442259,-0.07777719,1.9721076760816574,1.9754478,-1.4309509638361129,-1.4230752,-0.13832150898723994,-0.13803792,0.5553769962931406,0.52119327,-0.013074923896436129,-0.01339201,-0.18810749359714243,-0.18551467,0.005890967503990245,0.0054965275,-0.10723198587286348,-0.14625403,0.3047258390969696,0.20284998,0.024858567090993162,-0.03714285,0.15236499826631453,-0.008623246883583294,-0.026180300862394895,-0.36627452872286337
0.7299999999999995,0.4717717330716674,0.45055342,-0.08064031568442259,-0.07966305,1.9871076760816575,1.9764874,-1.3629509638361128,-1.449974,-0.14232150898723994,-0.13534464,0.5843769962931405,0.5690461,-0.013005849531859499,-0.015641883,-0.17126707670168376,-0.18102245,0.005772596196649486,0.0046498226,-0.12023198587286348,-0.12417426,0.3477258390969696,0.30808845,0.034858567090993164,0.014831724,0.5183221204147849,-0.009843968635319007,0.018788036667169453,-0.0003174065743930532
0.7400000000000002,0.4577717330716674,0.4592991,-0.08164031568442259,-0.0825434,1.9931076760816575,1.9918905,-1.376950963836113,-1.3804653,-0.14132150898723994,-0.1394426,0.5743769962931405,0.59834754,-0.016051773495428613,-0.015479049,-0.1684314419974577,-0.16413659,0.008810117954660976,0.0046367585,-0.12123198587286348,-0.13722041,0.3277258390969696,0.35105807,0.026858567090993164,0.024831742,0.5183221204147849,-0.009843968635319007,0.018788036667169453,-0.0003174065743930532
0.75,0.4627717330716674,0.44576097,-0.0826403156844226,-0.08325904,1.9991076760816575,1.9979326,-1.316950963836113,-1.4014062,-0.13832150898723994,-0.13618456,0.5643769962931406,0.63715684,-0.01597233816940516,-0.018932313,-0.15441077661908176,-0.16073023,0.008688523414331453,0.007791667,-0.15823198587286347,-0.13723482,0.23372583909696962,0.302964,-0.00014143290900683458,0.04679456,0.8070075556783844,-0.00847065666461633,-0.021251636789761955,0.2883680286892065
0.7599999999999998,0.44877173307166746,0.4510995,-0.0846403156844226,-0.0842948,2.004107676081657,2.0038135,-1.3299509638361129,-1.338906,-0.13732150898723994,-0.13334838,0.5543769962931406,0.6283193,-0.018790846029333466,-0.019135835,-0.15439880458084662,-0.14822552,0.008902465735801153,0.00758988,-0.19023198587286347,-0.17414376,0.0957258390969696,0.2090018,-0.00014143290900683458,0.019794742,0.8070075556783844,-0.00847065666461633,-0.021251636789761955,0.2883680286892065
0.7699999999999996,0.43377173307166744,0.43667606,-0.0866403156844226,-0.08621661,2.0141076760816574,2.0086174,-1.344950963836113,-1.3516729,-0.13732150898723994,-0.1321088,0.5633769962931406,0.618143,-0.018774371203320508,-0.022380084,-0.15159578321967226,-0.15012525,0.008874406266781425,0.008253343,-0.17823198587286346,-0.20614295,-0.1682741609030304,0.07102053,-0.009141432909006835,0.019794963,0.8070075556783844,-0.00847065666461633,-0.021251636789761955,0.2883680286892065
0.7799999999999994,0.41977173307166743,0.42123094,-0.0876403156844226,-0.08794384,2.0111076760816573,2.0186691,-1.3559509638361131,-1.3662341,-0.13632150898723994,-0.13242953,0.5173769962931406,0.6261542,-0.021626914579942903,-0.022327324,-0.1571898519190304,-0.15087008,0.00914849949241501,0.008667214,-0.14823198587286346,-0.19415742,-0.47227416090303037,-0.19291313,0.007858567090993165,0.010795408,0.8070075556783844,-0.00847065666461633,-0.021251636789761955,0.2883680286892065
0.79,0.4057717330716674,0.4071576,-0.0896403156844226,-0.09071626,2.016107676081657,2.0155292,-1.368950963836113,-1.3579094,-0.13432150898723993,-0.13499504,0.5043769962931406,0.44042748,-0.021644586055961947,-0.024220312,-0.15999354550035252,-0.15807213,0.009180690713602604,0.009433377,-0.11723198587286349,-0.16280359,-0.6092741609030303,-0.5094264,0.006858567090993166,-0.050086893,0.05650782271126763,-0.00663957403701276,-0.03957772208769435,-0.4621317042779102
0.7999999999999998,0.3907717330716674,0.39291,-0.0906403156844226,-0.09275541,2.021107676081657,2.020371,-1.381950963836113,-1.3707908,-0.13332150898723993,-0.1328971,0.4903769962931406,0.4274218,-0.02452185452954342,-0.023605244,-0.16839402195987435,-0.16227913,0.009511587425491385,0.009386124,-0.10823198587286348,-0.1318001,-0.7152741609030303,-0.6464046,0.0048585670909931655,-0.05108712,0.05650782271126763,-0.00663957403701276,-0.03957772208769435,-0.4621317042779102
0.8099999999999996,0.37677173307166745,0.37768704,-0.09164031568442259,-0.09373762,2.028107676081657,2.0252361,-1.3959509638361132,-1.38383,-0.13132150898723996,-0.13182254,0.4923769962931406,0.41340566,-0.02456054546767658,-0.026096858,-0.1740047118889828,-0.17187653,0.009584748447851744,0.009679525,-0.11823198587286349,-0.12280797,-0.6002741609030303,-0.75239164,0.03885856709099316,-0.053087443,0.05650782271126763,-0.00663957403701276,-0.03957772208769435,-0.4621317042779102
0.8199999999999994,0.36177173307166743,0.36369073,-0.09364031568442259,-0.09469635,2.033107676081657,2.0322218,-1.408950963836113,-1.3979431,-0.12932150898723996,-0.12984307,0.4763769962931406,0.41539592,-0.027427491247769355,-0.026642377,-0.17960362470617577,-0.17604437,0.009908098819335463,0.010128744,-0.12923198587286347,-0.13260499,-0.46927416090303037,-0.63744676,-0.0021414329090068346,-0.019087274,0.05650782271126763,-0.00663957403701276,-0.03957772208769435,-0.4621317042779102
0.8300000000000001,0.3467717330716674,0.348571,-0.09464031568442259,-0.09662154,2.033107676081657,2.037074,-1.421950963836113,-1.411159,-0.12832150898723996,-0.12790398,0.4283769962931406,0.3993855,-0.027469687823315186,-0.029855667,-0.18521743587899447,-0.18038812,0.009990074744244928,0.01015491,-0.14723198587286346,-0.14385174,-0.3152741609030304,-0.50641865,0.03185856709099316,-0.060087025,0.05650782271126763,-0.00663957403701276,-0.03957772208769435,-0.4621317042779102
0.8399999999999999,0.3317717330716674,0.33330306,-0.09664031568442259,-0.09575789,2.038107676081657,2.0362175,-1.436950963836113,-1.4471741,-0.12532150898723995,-0.122237794,0.4123769962931406,0.48448965,-0.030322018590667275,-0.031099802,-0.1880111141276411,-0.18520446,0.010293086807784908,0.01023209,-0.15523198587286346,-0.1624413,-0.11627416090303039,-0.358492,0.024858567090993162,0.04692673,0.7601013223679397,-0.007616151438401331,-0.04775655782432364,0.24146179537876178
0.8499999999999996,0.31677173307166745,0.31821764,-0.0976403156844226,-0.097737126,2.041107676081657,2.0410872,-1.4519509638361128,-1.4626732,-0.12332150898723995,-0.11872088,0.3963769962931406,0.46899527,-0.030322018590667275,-0.034213863,-0.1880111141276411,-0.1856604,0.010293086807784908,0.009936629,-0.14923198587286346,-0.17051508,-0.0012741609030303897,-0.15951842,0.009858567090993165,0.03992641,0.7601013223679397,-0.007616151438401331,-0.04775655782432364,0.24146179537876178
0.8599999999999994,0.30077173307166744,0.302832,-0.0986403156844226,-0.09926629,2.049107676081657,2.0439057,-1.4679509638361128,-1.4688302,-0.12132150898723995,-0.11934183,0.4133769962931406,0.40064302,-0.03315302134889103,-0.033790745,-0.18799689799501923,-0.18341571,0.010554937187792988,0.009290184,-0.15323198587286346,-0.19313352,0.09872583909696961,-0.05249585,-0.019141432909006835,-0.0051344773,0.47045456872484814,-0.048510330121547734,-0.059368673487709606,-0.048184958264329725
0.8700000000000001,0.2857717330716674,0.28727663,-0.0996403156844226,-0.10046077,2.053107676081657,2.0528977,-1.482950963836113,-1.4754643,-0.11832150898723995,-0.11925604,0.3983769962931406,0.36094,-0.03312940264576291,-0.036290463,-0.1851894766890491,-0.18346505,0.010505729598572452,0.010247827,-0.15723198587286347,-0.17124917,0.0897258390969696,-0.0017727688,-0.008141432909006836,-0.064107314,0.18161654324228158,-0.011537720065852311,-0.13006372193510413,-0.3370229837468963
0.8799999999999999,0.2697717330716674,0.27214614,-0.1016403156844226,-0.101444826,2.057107676081657,2.0567348,-1.497950963836113,-1.4903562,-0.11632150898723995,-0.116213426,0.3833769962931406,0.34595805,-0.03595933451681829,-0.036317993,-0.18517495802215178,-0.18065506,0.010763533154082024,0.01032244,-0.16223198587286347,-0.17526123,0.1467258390969696,-0.010785051,-0.0011414329090068346,-0.053107217,0.18161654324228158,-0.011537720065852311,-0.13006372193510413,-0.3370229837468963
0.8899999999999997,0.25377173307166745,0.2560401,-0.1026403156844226,-0.103295766,2.058107676081657,2.0606325,-1.5119509638361128,-1.5057943,-0.11332150898723994,-0.1140156,0.3493769962931406,0.33286446,-0.03595933451681829,-0.03912641,-0.18517495802215178,-0.18026885,0.010763533154082024,0.010663997,-0.13623198587286348,-0.18002148,0.1447258390969696,0.031255342,-0.004141432909006835,-0.045098588,0.1913365401904772,-0.011186762562228295,-0.15142635259047912,-0.3273029867987007
0.8999999999999995,0.22877173307166745,0.23989588,-0.1026403156844226,-0.1043017,2.0711076760816574,2.061238,-1.578950963836113,-1.5197463,-0.10332150898723995,-0.111023925,0.3943769962931406,0.2988647,-0.039076665924577904,-0.038785294,-0.18791322274619737,-0.18017308,0.01390875732455951,0.010640837,-0.09823198587286348,-0.15401699,0.2577258390969696,0.029268026,0.014858567090993166,-0.04809824,0.1913365401904772,-0.011186762562228295,-0.15142635259047912,-0.3273029867987007
0.9100000000000001,0.21177173307166747,0.21432956,-0.1036403156844226,-0.10410463,2.0761076760816572,2.0747972,-1.5979509638361131,-1.5869777,-0.10232150898723995,-0.1007923,0.3853769962931406,0.34384096,-0.03904677938346606,-0.041317724,-0.1851060112824096,-0.18205537,0.013850369393874764,0.013687704,-0.05723198587286348,-0.11606253,0.2737258390969696,0.14223838,-0.026141432909006834,-0.029099196,0.1913365401904772,-0.011186762562228295,-0.15142635259047912,-0.3273029867987007
0.9199999999999999,0.19377173307166745,0.19708663,-0.1056403156844226,-0.105195045,2.0801076760816573,2.0797591,-1.6139509638361131,-1.6022497,-0.09932150898723995,-0.10065657,0.3673769962931406,0.3142419,-0.041846049828815825,-0.040576898,-0.18228017230086654,-0.1792723,0.01404579254275682,0.013380761,-0.02723198587286348,-0.07350484,0.3247258390969696,0.17782047,-0.034141432909006834,-0.08098867,0.08638498758499921,-0.009126794606174278,-0.12353286056331805,-0.4322545394041787
0.9299999999999997,0.17677173307166746,0.17859034,-0.1066403156844226,-0.10711796,2.0831076760816574,2.0828745,-1.6289509638361128,-1.6305604,-0.09632150898723994,-0.09411251,0.3493769962931406,0.37152925,-0.04181559991984902,-0.04354653,-0.1794738793824244,-0.17525925,0.01398368101122234,0.012280039,-0.021231985872863478,-0.04273387,0.4297258390969696,0.26921487,0.008858567090993166,-0.04921953,0.46964584056432324,-0.008058663073405529,-0.06548754126828488,-0.04899368642485463
0.9399999999999995,0.15977173307166745,0.16127862,-0.10764031568442259,-0.108223565,2.086107676081657,2.0855737,-1.6419509638361132,-1.6433628,-0.09332150898723994,-0.09179889,0.3313769962931406,0.34064442,-0.041514174951834244,-0.04341837,-0.1739202899123595,-0.17143653,0.011035246374484635,0.012785666,-0.05023198587286348,-0.037224498,0.6217258390969697,0.42751467,-0.006141432909006835,-0.013057131,0.4037573840143881,-0.008546951774099813,0.010685496040023654,-0.11488214297478977
0.9500000000000002,0.15177173307166747,0.14416352,-0.10764031568442259,-0.10902882,2.0871076760816574,2.0886514,-1.6169509638361128,-1.6563225,-0.08832150898723995,-0.08904325,0.29637699629314057,0.3227149,-0.04141327690580658,-0.042787883,-0.16270207139637158,-0.16483265,0.010793478969869066,0.00943264,-0.05323198587286348,-0.06614659,0.6297258390969697,0.6194848,-0.03814143290900684,-0.028058335,0.4037573840143881,-0.008546951774099813,0.010685496040023654,-0.11488214297478977
0.96,0.13877173307166746,0.1366171,-0.10764031568442259,-0.10869408,2.089107676081657,2.0889862,-1.6179509638361131,-1.6376961,-0.08332150898723995,-0.08086628,0.2713769962931406,0.34170055,-0.041126820806318444,-0.04353502,-0.1543494161406556,-0.1534045,0.007795621285007782,0.008457792,-0.03823198587286348,-0.06994397,0.8067258390969697,0.64299923,0.012858567090993164,-0.030886363,0.6848438263734329,-0.009966040810492582,0.03305522214058061,0.16620429938425496
0.9699999999999998,0.12177173307166747,0.12347391,-0.10864031568442259,-0.10823458,2.0921076760816573,2.0914166,-1.6289509638361128,-1.619918,-0.07932150898723994,-0.08246371,0.2503769962931406,0.1875942,-0.04388447148220645,-0.041713662,-0.14593218799395297,-0.14368679,0.007821364933538914,0.007436064,-0.04123198587286348,-0.056213547,0.8297258390969696,0.7986613,-0.018141432909006834,-0.04867315,0.021900361049560137,-0.011324093759298562,0.0020794076902868747,-0.49673916593961776
0.9799999999999995,0.10677173307166746,0.106936015,-0.10964031568442259,-0.10953518,2.0881076760816573,2.0940478,-1.635950963836113,-1.648982,-0.07732150898723994,-0.071151085,0.21837699629314056,0.30177793,-0.043825582535200074,-0.04563176,-0.13752874542251958,-0.13512218,0.007634136567671497,0.004942524,-0.00823198587286348,-0.05886809,0.8147258390969696,0.78226376,0.026858567090993164,-0.007473043,0.7177270185608137,-0.011156244518434902,-0.05376861245162204,0.19908749157163574
0.9900000000000002,0.08977173307166744,0.091272816,-0.11064031568442259,-0.11007119,2.0921076760816573,2.0899827,-1.6449509638361128,-1.6380516,-0.07332150898723995,-0.07635638,0.20837699629314058,0.13670236,-0.04376912507018596,-0.04399786,-0.1291281656385686,-0.12689386,0.007447784996796909,0.00745142,-0.04323198587286348,-0.025521858,0.8217258390969696,0.7782198,0.025858567090993163,-0.03357271,0.03250538126776415,-0.010164408095149634,-0.03860114468630578,-0.4861341457214137
1.0,0.06377173307166745,0.07418129,-0.11164031568442259,-0.11130658,2.0961076760816573,2.093621,-1.667950963836113,-1.6590939,-0.07032150898723995,-0.067217,0.19437699629314056,0.23011422,-0.04373282679382201,-0.044368945,-0.12352927147144634,-0.11829772,0.007324016716418176,0.005963024,-0.04023198587286348,-0.062941864,0.6287258390969697,0.8184668,0.009858567090993165,0.01970379,0.5556456879741043,-0.013597688021906331,0.009388479178804462,0.03700616098492637
1.0099999999999998,0.041771733071667455,0.047834374,-0.11264031568442259,-0.11265165,2.093107676081657,2.0973792,-1.682950963836113,-1.6773789,-0.06732150898723994,-0.06614761,0.16937699629314057,0.17978062,-0.04386000201401744,-0.045207962,-0.11787109237925224,-0.11420215,0.010007849606752092,0.0058429344,-0.06523198587286348,-0.0589679,0.5727258390969696,0.58748966,-0.010141432909006834,-0.015464842,0.3709199688926974,-0.0124380023577574,-0.04511674703619514,-0.14771955809648046
1.0199999999999996,0.023771733071667453,0.02582311,-0.1136403156844226,-0.11299231,2.0951076760816574,2.094062,-1.691950963836113,-1.7006077,-0.06432150898723994,-0.057661735,0.14937699629314058,0.2341497,-0.04366342597262511,-0.0473873,-0.11233486991682588,-0.109124884,0.007077544605668827,0.007307528,-0.020231985872863477,-0.08214368,0.5417258390969697,0.572548,0.0008585670909931654,0.01259636,0.8340007654136404,-0.009981299832389278,0.013874631616433208,0.3153612384244625
1.0299999999999994,0.013771733071667451,0.0075805504,-0.1136403156844226,-0.11471399,2.0991076760816574,2.095777,-1.682950963836113,-1.7000093,-0.06032150898723995,-0.060316436,0.13737699629314057,0.13068242,-0.04361415055608063,-0.045254655,-0.10394183116864501,-0.10360256,0.006893574204724246,0.005749089,-0.01323198587286348,-0.036934648,0.5277258390969697,0.5033423,0.005858567090993165,-0.02665721,0.3497862235657728,-0.009615083306868562,-0.0410883652554673,-0.16885330342340504
1.04,-0.0012282669283325484,-0.0023426693,-0.1146403156844226,-0.11467208,2.093107676081657,2.0996497,-1.683950963836113,-1.6904024,-0.05632150898723995,-0.05631847,0.10637699629314058,0.11874243,-0.04358261419105479,-0.045185473,-0.09834770870317998,-0.09532442,0.006771326052847952,0.005599036,-0.017231985872863478,-0.029961482,0.6437258390969697,0.4893434,0.03185856709099316,-0.021657104,0.3497862235657728,-0.009615083306868562,-0.0410883652554673,-0.16885330342340504
1.0499999999999998,-0.01822826692833255,-0.017550904,-0.1146403156844226,-0.115507126,2.094107676081657,2.0935135,-1.690950963836113,-1.692473,-0.053321508987239946,-0.05156765,0.08737699629314058,0.102883555,-0.04633964222286972,-0.04480995,-0.08994916776577064,-0.08863152,0.006712322566051206,0.0052456358,-0.029231985872863478,-0.035465583,0.7807258390969697,0.6004751,0.026858567090993164,0.0122384075,0.4258829657645979,-0.011507202022058918,-0.047954925108980695,-0.09275656122457998
1.0599999999999996,-0.035228266928332544,-0.033521876,-0.1156403156844226,-0.11477474,2.0951076760816574,2.095514,-1.6979509638361128,-1.7068036,-0.050321508987239943,-0.041801315,0.06737699629314058,0.17126292,-0.046295100032965254,-0.04914208,-0.0815618680768007,-0.08026296,0.006518551254946906,0.0031770293,-0.03423198587286348,-0.21691222,0.8347258390969696,0.7203343,0.019858567090993165,0.062212788,0.9555388748208274,-0.25378995169780466,-0.0722320289466247,0.4368993478316495
1.0699999999999994,-0.053228266928332546,-0.05099474,-0.1156403156844226,-0.11618298,2.0961076760816573,2.0951166,-1.703950963836113,-1.7094291,-0.046321508987239954,-0.04099772,0.050376996293140575,0.12561673,-0.04626677929361572,-0.048653353,-0.07597132975349448,-0.07071606,0.00638972376687889,0.0038043663,-0.0012319858728634795,-0.047134563,0.7677258390969697,0.79460925,0.012858567090993164,0.03507273,0.7615204114043325,-0.003923468139400796,-0.04323988734290149,0.24288088441515454
1.08,-0.07122826692833255,-0.06969084,-0.1166403156844226,-0.11585195,2.0961076760816573,2.0963748,-1.7099509638361128,-1.7077789,-0.04332150898723995,-0.04385739,0.03237699629314057,0.0019090846,-0.04622634913224919,-0.046677407,-0.06758688662267454,-0.065555036,0.006196981864602709,0.006222828,-0.01023198587286348,-0.016584018,0.8227258390969696,0.73366284,0.018858567090993164,-0.030290265,0.19910338233589567,-0.007555115350814545,-0.035030533562478816,-0.3195361446532822
1.0899999999999999,-0.09622826692833256,-0.08715148,-0.14564031568442262,-0.11723767,2.102107676081657,2.0956538,-1.747950963836113,-1.7189653,-0.17732150898723995,-0.034413904,0.051376996293140575,0.08562639,-0.029839492387416504,-0.048138656,-0.061841695754030736,-0.056881186,0.019542174176490033,0.003647851,-0.02323198587286348,-0.021277215,0.8147258390969696,0.79833025,0.04785856709099316,0.030323649,0.725402306574852,-0.0012836573512723173,-0.020778607110964367,0.20676277958567413
1.0999999999999996,-0.11422826692833254,-0.113351464,-0.1476403156844226,-0.14714234,2.0921076760816573,2.1023285,-1.7509509638361132,-1.7509661,-0.17532150898723994,-0.1753556,-0.019623003706859425,0.002240125,-0.02967834298001293,-0.030055868,-0.05349981529030447,-0.051105246,0.016618565856801933,0.019948741,-0.09423198587286348,-0.041346103,0.8617258390969696,0.7403786,-0.13514143290900685,0.0043326095,0.19545647610258524,-0.01107994940895142,-0.09267911828819791,-0.3231830508865926
1.1099999999999994,-0.12422826692833255,-0.13083349,-0.1586403156844226,-0.1495268,2.0991076760816574,2.0908074,-1.720950963836113,-1.7586468,-0.21132150898723995,-0.16816957,0.007376996293140575,0.042025596,-0.026868135982699357,-0.033240415,-0.03947959920890343,-0.04299047,0.02194440177001247,0.012276261,-0.16423198587286347,-0.110385984,0.8277258390969696,0.8313362,-0.11614143290900683,-0.11673565,0.7922673405261758,-0.010515365598773651,-0.029522026657771414,0.27362781353699783
1.12,-0.14222826692833254,-0.1414269,-0.1606403156844226,-0.16052897,2.0991076760816574,2.0985472,-1.7229509638361131,-1.7245141,-0.20932150898723995,-0.2081735,-0.009623003706859425,-0.0035684514,-0.02673114097351632,-0.029512972,-0.03113646377458222,-0.029147731,0.019036593854229292,0.019651111,-0.3652319858728635,-0.18443081,0.8927258390969697,0.74826694,-0.13514143290900685,-0.13983133,0.3866520204681914,-0.01602387250348106,-0.10004922586430226,-0.13198750652098645
1.13,-0.16022826692833253,-0.15968895,-0.1636403156844226,-0.16248754,2.0991076760816574,2.098154,-1.7259509638361128,-1.7269102,-0.20732150898723994,-0.20510305,-0.026623003706859424,0.0037834747,-0.03223717824182092,-0.032320812,-0.022705248676403122,-0.020509876,0.018986759837783505,0.016496671,-0.6032319858728634,-0.38455454,1.0047258390969696,0.8318232,-0.03914143290900684,-0.14615789,0.5087852317293496,-0.015123590211575968,-0.07381896722388112,-0.009854295259828283
1.1399999999999997,-0.17822826692833255,-0.17778209,-0.1656403156844226,-0.1656335,2.093107676081657,2.098027,-1.7269509638361131,-1.729343,-0.20632150898723994,-0.20283885,-0.07462300370685943,-0.013188141,-0.0377239399656715,-0.040237624,-0.01432698308596715,-0.011061139,0.01609904497684558,0.017649421,-0.8362319858728634,-0.6233815,0.9747258390969696,0.94357973,-0.05314143290900684,-0.050156552,0.5087852317293496,-0.015123590211575968,-0.07381896722388112,-0.009854295259828283
1.1499999999999995,-0.19622826692833253,-0.19560125,-0.16764031568442261,-0.16792628,2.0921076760816573,2.0912044,-1.727950963836113,-1.729766,-0.20332150898723994,-0.2005915,-0.09362300370685941,-0.050544165,-0.04601414750386825,-0.048824657,-0.003091566671705752,-0.0024624185,0.015904222276087628,0.014713329,-1.0372319858728634,-0.8552611,1.0037258390969697,0.9657148,-0.007141432909006835,-0.058607366,0.5622528444553738,-0.013704501175183206,0.0004619513692370597,0.0436133174661959
1.1600000000000001,-0.21422826692833255,-0.21334845,-0.16964031568442262,-0.17003706,2.0911076760816574,2.0896409,-1.727950963836113,-1.7294325,-0.19932150898723994,-0.19507962,-0.11262300370685942,-0.04262596,-0.05712373887072293,-0.058926225,0.005371082090357576,0.0084957145,0.01568576210948203,0.014877769,-1.1032319858728634,-1.0579134,1.0047258390969696,0.9686732,-0.018141432909006834,0.0016059186,0.6992025659782243,-0.015413511627613206,-0.036144442160937665,0.18056303898904635
1.17,-0.23922826692833254,-0.231277,-0.17064031568442262,-0.17196861,2.0881076760816573,2.0887687,-1.763950963836113,-1.7287848,-0.19032150898723996,-0.19106466,-0.12262300370685943,-0.07824898,-0.07106844256046267,-0.07101487,0.010963485468915297,0.016880212,0.012662536967931508,0.014745629,-1.0422319858728635,-1.1235715,0.9077258390969697,0.9568484,-0.005141432909006835,-0.018174676,0.6145912895610426,-0.015093072167782575,-0.05472993083111391,0.09595176257186466
1.1799999999999997,-0.25822826692833256,-0.2567557,-0.17264031568442262,-0.17198367,2.0871076760816574,2.0866745,-1.7629509638361132,-1.7653413,-0.18432150898723995,-0.18541843,-0.13962300370685943,-0.15205798,-0.07939079465343203,-0.08379182,0.02217869399789373,0.021516016,0.012182647815864011,0.01322644,-0.9302319858728635,-1.0605824,0.9197258390969697,0.8495349,0.012858567090993164,-0.038396757,0.29439597408076484,-0.012071785832236687,-0.06953118207090944,-0.22424355290841302
1.1899999999999995,-0.2782282669283326,-0.27565786,-0.17164031568442262,-0.174138,2.0911076760816574,2.0840406,-1.767950963836113,-1.7593842,-0.16632150898723994,-0.16643746,-0.11962300370685942,-0.047587827,-0.09053329260366993,-0.08960282,0.030615992501528723,0.02966228,0.011689298220351859,0.010286682,-0.7632319858728634,-0.94732624,0.9907258390969697,0.86923504,0.010858567090993166,0.054399837,1.0151406143493236,-0.009996558854285974,-0.057858030319936665,0.49650108736014575
1.2000000000000002,-0.2962282669283326,-0.29582822,-0.17164031568442262,-0.17313297,2.089107676081657,2.0895827,-1.764950963836113,-1.7673577,-0.15232150898723995,-0.15934557,-0.13962300370685943,-0.13536441,-0.09887936407554847,-0.10006123,0.041823384325312074,0.041714616,0.011022427069023259,0.011382536,-0.6022319858728634,-0.7805332,1.0977258390969697,0.9076929,-0.0011414329090068346,-0.015194286,0.36383978273263023,-0.010332257336013295,-0.10477952265227816,-0.15479974425654763
1.21,-0.30422826692833255,-0.31334728,-0.17064031568442262,-0.1728795,2.0911076760816574,2.0864413,-1.727950963836113,-1.7581931,-0.13432150898723993,-0.130837,-0.13862300370685943,-0.050529808,-0.10715858660951899,-0.105602555,0.05596333692154945,0.051234186,0.012909236859476,0.007563472,-0.5222319858728635,-0.6187367,1.1537258390969696,1.0052384,0.007858567090993165,0.03758029,0.987979555373204,-0.009340420912728027,-0.11810064876809415,0.4693400283840261
1.2199999999999998,-0.32322826692833256,-0.32081097,-0.17164031568442262,-0.17175,2.090107676081657,2.0885391,-1.723950963836113,-1.7190402,-0.12632150898723996,-0.11200072,-0.15362300370685944,-0.056236863,-0.11281830830565105,-0.11314603,0.0670025461937327,0.06617399,0.00934663380113584,0.00908985,-0.41023198587286347,-0.5405074,1.0757258390969697,1.0659157,-0.030141432909006838,0.042957712,0.9530821722954593,-0.011720828328612667,-0.11134090206785763,0.4344426453062814
1.2299999999999995,-0.3402282669283326,-0.3406788,-0.17364031568442262,-0.17229523,2.0881076760816573,2.0886064,-1.7179509638361128,-1.723146,-0.11732150898723995,-0.12242454,-0.16962300370685943,-0.20887095,-0.11561525986352236,-0.11782419,0.0781748441489708,0.07920621,0.008621901742242357,0.008821071,-0.3572319858728635,-0.42741495,1.1557258390969696,1.0429728,-0.019141432909006835,-0.076733775,0.16585397362299417,-0.010805287014810882,-0.03336730017573891,-0.35278555336618367
