t,x,x_pred,y,y_pred,z,z_pred,vx,vx_pred,vy,vy_pred,vz,vz_pred,roll,roll_pred,pitch,pitch_pred,yaw,yaw_pred,wx,wx_pred,wy,wy_pred,wz,wz_pred,thrust,torque_roll,torque_pitch,torque_yaw
0.2000000000000002,0.9687717330716674,0.9648184,-0.014640315684422596,-0.012027244,1.6851076760816575,1.7514415,-0.35395096383611296,-0.41028666,-0.03932150898723995,-0.0336552,0.3773769962931406,0.5663119,0.025491361892535043,0.026112303,-0.20764554893831408,-0.21042615,-0.014777469694086965,0.02167863,0.01176801412713652,0.11806425,-0.4542741609030304,-0.43639052,0.014858567090993166,0.13000906,0.21173785246636032,0.005445571305170805,0.032414343220919364,-0.3069016745228176
0.21,0.9647717330716674,0.9617217,-0.015640315684422597,-0.012440143,1.6931076760816575,1.7482219,-0.374950963836113,-0.4229195,-0.04232150898723995,-0.035850044,0.3963769962931406,0.51340187,0.025519858870827687,0.02684286,-0.21045668711218699,-0.2240817,-0.014817813158699752,0.013493217,0.04576801412713652,0.1018675,-0.4332741609030304,-0.48841047,-0.004141432909006835,0.071866415,0.3897648609351175,0.005735492721208038,0.007908354054824915,-0.1288746660540604
0.21999999999999978,0.9627717330716674,0.96263134,-0.015640315684422597,-0.012899472,1.6921076760816574,1.743505,-0.381950963836113,-0.40830094,-0.04332150898723995,-0.041058272,0.3833769962931406,0.45964858,0.025548543053444853,0.032326017,-0.2132682971430782,-0.2004922,-0.014858296589163426,0.01491101,0.0007680141271365205,0.12618083,-0.4412741609030304,-0.3625643,-0.035141432909006835,0.08467713,0.5215265150130911,0.0028057605170423265,-0.023006424307882037,0.002886988023913184
0.22999999999999957,0.9577717330716674,0.9588848,-0.015640315684422597,-0.012947688,1.6961076760816574,1.7341906,-0.40495096383611295,-0.42575744,-0.046321508987239954,-0.042963874,0.3933769962931406,0.40497878,0.02591299788106339,0.03636802,-0.21885800319935791,-0.21016966,-0.01778377416941743,0.0038137694,-0.01223198587286348,0.13700047,-0.3092741609030304,-0.41471562,-0.029141432909006837,0.0344056,0.578534220819149,0.006452666750352769,-0.02193829277511329,0.059894693829971035
0.23999999999999935,0.9527717330716674,0.9547468,-0.0176403156844226,-0.013758192,1.7041076760816574,1.7377613,-0.425950963836113,-0.4518581,-0.050321508987239943,-0.052738134,0.4023769962931406,0.4175025,0.025946357406236988,0.044665527,-0.22167103425335152,-0.22032003,-0.017826020726988277,0.0071915383,-0.037231985872863485,0.1829667,-0.3232741609030304,-0.45133412,-0.035141432909006835,0.056668036,0.578534220819149,0.006452666750352769,-0.02193829277511329,0.059894693829971035
0.25000000000000006,0.9477717330716674,0.9529079,-0.0176403156844226,-0.014365512,1.7081076760816574,1.7241259,-0.449950963836113,-0.44056547,-0.052321508987239945,-0.0533285,0.4113769962931406,0.25642538,0.025979915941638638,0.04767866,-0.2244845788905183,-0.22393605,-0.017868430918828188,-0.006460207,-0.01123198587286348,0.17313716,-0.2992741609030304,-0.44938314,0.0038585670909931646,-0.055781923,0.07454398659316279,0.010175868093146696,0.012623391820904106,-0.44409554039601506
0.25999999999999984,0.9417717330716674,0.9484526,-0.018640315684422596,-0.013661196,1.7121076760816574,1.718676,-0.473950963836113,-0.44555607,-0.05532150898723995,-0.039434835,0.42237699629314057,0.12318635,0.026013673409950512,0.0335758,-0.2272986457227299,-0.24170241,-0.017911005391512268,-0.01409633,0.02376801412713652,0.0984455,-0.3662741609030304,-0.50175726,0.0008585670909931654,-0.13853374,0.07454398659316279,0.010175868093146696,0.012623391820904106,-0.44409554039601506
0.26999999999999963,0.9357717330716674,0.94373095,-0.019640315684422597,-0.01384741,1.7171076760816575,1.7088668,-0.5019509638361129,-0.49601248,-0.06032150898723995,-0.04383262,0.4333769962931406,0.13909224,0.02608179070153679,0.037508357,-0.23292834020039482,-0.26915914,-0.017996652638226692,-0.021419164,-0.0032319858728634796,0.10970352,-0.4162741609030304,-0.6291402,-0.03814143290900684,-0.1272723,0.8742388061552289,0.00913825460417134,-0.028560708278279542,0.35559927916605094
0.2799999999999994,0.9297717330716674,0.94130695,-0.019640315684422597,-0.014348957,1.7191076760816575,1.7024974,-0.525950963836113,-0.5127903,-0.06232150898723994,-0.04632015,0.4313769962931406,0.10877768,0.02615071676714487,0.03652906,-0.2385601106866979,-0.27428818,-0.01808297149666656,-0.021582736,-0.02223198587286348,0.10412575,-0.2672741609030304,-0.6044332,-0.004141432909006835,-0.11841102,0.5625885429371011,0.005888082940175001,0.04733766663588847,0.04394901594792322
0.2900000000000001,0.9237717330716674,0.9363109,-0.020640315684422598,-0.014790848,1.7221076760816574,1.6897144,-0.550950963836113,-0.53300107,-0.06332150898723994,-0.050863665,0.4383769962931406,0.084369004,0.026185487212689266,0.03940761,-0.24137682516517628,-0.2673299,-0.018126387044080147,-0.02633437,-0.02723198587286348,0.11075177,-0.2582741609030304,-0.5291932,0.007858567090993165,-0.12087689,0.6654038324770417,0.0035076755242903594,4.180712336168679e-06,0.1467643054878638
0.2999999999999999,0.9177717330716675,0.93178934,-0.020640315684422598,-0.016804744,1.7261076760816574,1.7028532,-0.575950963836113,-0.5555028,-0.06532150898723994,-0.0618295,0.4453769962931406,0.17157513,0.026220465077116128,0.045709334,-0.24419410122341095,-0.25629792,-0.018169975605991134,-0.023644201,-0.029231985872863478,0.14450137,-0.3842741609030304,-0.46085414,-0.03914143290900684,-0.086763695,0.6654038324770417,0.0035076755242903594,4.180712336168679e-06,0.1467643054878638
0.30999999999999966,0.9107717330716675,0.92736083,-0.0226403156844226,-0.01692868,1.7311076760816575,1.6887385,-0.602950963836113,-0.55485564,-0.07132150898723995,-0.057135176,0.4563769962931406,0.0019223168,0.026255648501069286,0.04571029,-0.24701190067111156,-0.27501416,-0.01821373650696871,-0.043587368,-0.04323198587286348,0.102218464,-0.1832741609030304,-0.5218804,0.0048585670909931655,-0.2213475,0.05521080585004842,0.004301144662918574,0.0096478825510483,-0.4634287211391295
0.31999999999999945,0.9047717330716675,0.92166626,-0.023640315684422597,-0.017133325,1.7351076760816575,1.6914101,-0.6259509638361129,-0.5662466,-0.07532150898723995,-0.051322024,0.4663769962931406,-0.09463014,0.026255648501069286,0.040426545,-0.24701190067111156,-0.29668346,-0.01821373650696871,-0.05398338,-0.020231985872863477,0.05691788,-0.2282741609030304,-0.5934056,0.0038585670909931646,-0.3078081,0.05521080585004842,0.004301144662918574,0.0096478825510483,-0.4634287211391295
0.3300000000000001,0.8977717330716675,0.9173486,-0.024640315684422598,-0.018550321,1.7391076760816575,1.6891762,-0.651950963836113,-0.54399645,-0.07732150898723994,-0.051646557,0.4733769962931406,-0.1518307,0.026291041857926762,0.03697169,-0.24983027544870848,-0.25735182,-0.018257673203910044,-0.0510506,0.03176801412713652,0.05302701,-0.14527416090303039,-0.3629749,0.012858567090993164,-0.32596883,0.16390081882021704,0.006879919363460269,0.012028289966932948,-0.3547387081689608
0.3399999999999999,0.8907717330716675,0.9109846,-0.024640315684422598,-0.018944675,1.7451076760816575,1.6868465,-0.677950963836113,-0.58951545,-0.08032150898723994,-0.057265375,0.4893769962931406,-0.08543408,0.02632664518999168,0.03923931,-0.25264923288971836,-0.26615566,-0.018301786452358217,-0.04758287,0.006768014127136519,0.06850143,-0.11827416090303039,-0.41452846,0.005858567090993165,-0.2596931,0.8424390045225135,0.00823797231226625,-0.02987298416139543,0.3237994775333356
0.3499999999999997,0.8837717330716675,0.904015,-0.0256403156844226,-0.020157544,1.7501076760816574,1.6894871,-0.703950963836113,-0.6284423,-0.08232150898723994,-0.07379805,0.5003769962931406,-0.060213737,0.02632664518999168,0.05512931,-0.25264923288971836,-0.27885678,-0.018301786452358217,-0.04419065,0.00976801412713652,0.14864661,-0.1602741609030304,-0.48789886,-0.005141432909006835,-0.21700232,0.6010565371386729,0.0056439385898278596,-0.04897727957605935,0.08241701014949498
0.3599999999999995,0.8757717330716674,0.9004586,-0.027640315684422597,-0.020000093,1.7541076760816574,1.6934528,-0.730950963836113,-0.62170845,-0.08732150898723995,-0.06473907,0.5053769962931406,-0.104614265,0.026362459360594007,0.04583204,-0.25546874895126714,-0.2759652,-0.018346077171373106,-0.049112078,-0.04923198587286348,0.10089229,-0.0772741609030304,-0.4508628,0.024858567090993162,-0.27824664,0.06355749082754136,0.011198222560225356,0.012623391820904106,-0.4550820361616365
0.37000000000000016,0.8677717330716674,0.8902204,-0.028640315684422598,-0.0212244,1.7601076760816574,1.7030903,-0.7559509638361129,-0.63894504,-0.09132150898723995,-0.0592455,0.5213769962931406,-0.13502513,0.02600186558331552,0.036517765,-0.2555043068575386,-0.2808842,-0.015483142388599182,-0.05118539,-0.05323198587286348,0.054887474,-0.0972741609030304,-0.43833488,0.022858567090993168,-0.323491,0.06355749082754136,0.011198222560225356,0.012623391820904106,-0.4550820361616365
0.37999999999999995,0.8587717330716674,0.88029355,-0.0296403156844226,-0.022229742,1.7651076760816575,1.7101233,-0.783950963836113,-0.6978386,-0.09332150898723994,-0.06749956,0.5303769962931406,-0.032322694,0.02600186558331552,0.03825338,-0.2555043068575386,-0.29153395,-0.015483142388599182,-0.045536496,-0.051231985872863484,0.07218894,-0.1282741609030304,-0.470763,0.005858567090993165,-0.2519778,0.7921452683510022,0.011213481582122053,-0.008769756878264284,0.27350574136182426
0.38999999999999974,0.8507717330716674,0.8710997,-0.0306403156844226,-0.024093986,1.7681076760816574,1.7215906,-0.809950963836113,-0.72322625,-0.09632150898723994,-0.06921998,0.5253769962931406,0.011934904,0.026033673952788227,0.03235917,-0.2583244649927368,-0.28593957,-0.015526029623807738,-0.04308111,-0.08723198587286349,0.04612551,-0.04727416090303039,-0.47026956,0.035858567090993165,-0.23923671,0.4379070750191947,0.004850469451199645,-0.05894142087460211,-0.08073245196998319
0.3999999999999995,0.8417717330716674,0.8601281,-0.0316403156844226,-0.026367005,1.7761076760816574,1.7351658,-0.834950963836113,-0.7706958,-0.09932150898723995,-0.081631005,0.5523769962931406,0.06293802,0.02316893307921751,0.041055515,-0.25834595275988353,-0.30411336,-0.015161168056826244,-0.032025263,-0.06223198587286348,0.10243938,-0.042274160903030385,-0.5527342,0.03085856709099316,-0.17895429,0.44565865814271644,0.00742924415174134,-0.034359136599024176,-0.07298086884646143
0.4100000000000002,0.8327717330716674,0.8513456,-0.0336403156844226,-0.028314143,1.7851076760816573,1.74828,-0.8619509638361129,-0.7854572,-0.10232150898723995,-0.088827826,0.5813769962931405,0.054304168,0.02316893307921751,0.048987493,-0.25834595275988353,-0.30460584,-0.015161168056826244,-0.035615332,-0.01123198587286348,0.13798916,0.00472583909696961,-0.5298322,0.03085856709099316,-0.21262197,0.2484663181717086,0.009916464720902858,0.011707850507102324,-0.27017320881746926
0.42,0.8237717330716674,0.84844804,-0.0346403156844226,-0.028007854,1.7911076760816573,1.7405684,-0.8859509638361129,-0.7820577,-0.10432150898723995,-0.08173,0.5883769962931406,-0.012105629,0.023138708351925445,0.042290926,-0.25552573182326144,-0.30655065,-0.015122500305589962,-0.044116583,-0.04623198587286348,0.0940406,0.023725839096969608,-0.5132105,0.033858567090993164,-0.2719673,0.2484663181717086,0.009916464720902858,0.011707850507102324,-0.27017320881746926
0.42999999999999977,0.8147717330716674,0.84079516,-0.035640315684422594,-0.02830232,1.7961076760816574,1.7399074,-0.910950963836113,-0.8123725,-0.10832150898723995,-0.08446976,0.5953769962931406,0.06015289,0.023138708351925445,0.04032155,-0.25552573182326144,-0.2827197,-0.015122500305589962,-0.04848926,-0.07223198587286349,0.086055145,0.034725839096969614,-0.3926961,0.021858567090993167,-0.23383784,0.8880482209717392,0.009596025261072233,-0.03860114468630578,0.36940869398256126
0.43999999999999956,0.8047717330716674,0.8325234,-0.037640315684422596,-0.030729853,1.8051076760816573,1.7434217,-0.936950963836113,-0.85661,-0.11032150898723994,-0.08552772,0.6123769962931406,0.12718968,0.023138708351925445,0.036496356,-0.25552573182326144,-0.28599572,-0.015122500305589962,-0.053167395,-0.10323198587286349,0.061662506,0.035725839096969615,-0.4176844,0.011858567090993167,-0.20770833,0.8880482209717392,0.009596025261072233,-0.03860114468630578,0.36940869398256126
0.45000000000000023,0.7957717330716675,0.81927156,-0.038640315684422596,-0.031689525,1.8101076760816575,1.7632272,-0.960950963836113,-0.8956623,-0.11232150898723994,-0.09370051,0.6133769962931406,0.19718939,0.020275566878753887,0.03798973,-0.2555466591438858,-0.28712338,-0.014761830670887514,-0.037122156,-0.06423198587286348,0.09488685,0.1077258390969696,-0.4042307,0.006858567090993166,-0.13602607,0.38938338538770007,0.013181895406795891,-0.002025269199924462,-0.1292561416014778
0.46,0.7857717330716675,0.804011,-0.0396403156844226,-0.03392693,1.8151076760816574,1.7838196,-0.984950963836113,-0.95057863,-0.11432150898723994,-0.103714064,0.6153769962931406,0.2648314,0.02024708990808907,0.04352228,-0.2527269630049081,-0.3066485,-0.01472752400304927,-0.030346232,-0.044231985872863484,0.13347355,0.1567258390969696,-0.48153543,0.034858567090993164,-0.106343776,0.38938338538770007,0.013181895406795891,-0.002025269199924462,-0.1292561416014778
0.4699999999999998,0.7747717330716675,0.79481936,-0.0406403156844226,-0.035265777,1.8211076760816574,1.7748436,-1.009950963836113,-0.95153576,-0.11732150898723995,-0.098910674,0.6193769962931406,0.116251975,0.019890572409220427,0.04203362,-0.25275405821256985,-0.3191241,-0.011866038859017646,-0.047835287,-0.03323198587286348,0.099020384,0.1487258390969696,-0.4778912,0.04685856709099316,-0.22913958,0.06700602977619476,0.00913825460417134,0.04861942447521096,-0.4516334972129831
0.4799999999999996,0.7637717330716675,0.7855011,-0.04264031568442259,-0.03539077,1.8271076760816574,1.7712331,-1.034950963836113,-0.9396841,-0.11932150898723995,-0.096180804,0.6243769962931406,0.021644428,0.019866461811229082,0.037262473,-0.24993490372101723,-0.30187213,-0.011833419015723108,-0.04274271,-0.052231985872863484,0.08646942,0.1317258390969696,-0.32752514,0.049858567090993164,-0.24658413,0.06700602977619476,0.00913825460417134,0.04861942447521096,-0.4516334972129831
0.4899999999999994,0.7527717330716674,0.77661496,-0.043640315684422594,-0.036321893,1.8331076760816574,1.7653018,-1.0599509638361129,-0.98543346,-0.12132150898723995,-0.09788897,0.6263769962931406,0.07261211,0.017006405453062992,0.037792135,-0.2499512794954176,-0.30336162,-0.011481082828144265,-0.04601868,-0.10423198587286348,0.08133642,0.1567258390969696,-0.36626202,0.059858567090993166,-0.20972988,0.9048331450581052,0.004453734881885538,-0.06818838814400013,0.38619361806892727
0.5,0.7417717330716674,0.76628935,-0.044640315684422595,-0.036437225,1.8371076760816574,1.7604662,-1.082950963836113,-1.0552719,-0.12232150898723995,-0.09965284,0.6153769962931406,0.11649302,0.016983975816147464,0.042391174,-0.24713266119138813,-0.33248246,-0.01145277737522911,-0.062754765,-0.12623198587286347,0.0701807,0.1887258390969696,-0.54008806,0.033858567090993164,-0.23187557,0.9048331450581052,0.004453734881885538,-0.06818838814400013,0.38619361806892727
0.5099999999999998,0.7297717330716674,0.7517098,-0.0466403156844226,-0.0398954,1.8431076760816574,1.7824353,-1.107950963836113,-1.0762913,-0.12432150898723995,-0.107164286,0.6163769962931406,0.22760819,0.016983975816147464,0.035250798,-0.24713266119138813,-0.29781115,-0.01145277737522911,-0.043709002,-0.11323198587286348,0.06675208,0.1457258390969696,-0.31186348,0.050858567090993165,-0.13884032,0.5275843467060796,0.0025768751885918775,0.04790225044606623,0.008944819716901642
0.5199999999999996,0.7177717330716674,0.7366725,-0.0476403156844226,-0.04229378,1.8491076760816574,1.8035518,-1.131950963836113,-1.1334175,-0.12532150898723995,-0.11803747,0.6173769962931406,0.32591823,0.014104669566349426,0.038641788,-0.24433039611598797,-0.30990538,-0.011080604156064985,-0.03576831,-0.08923198587286348,0.08980254,0.1467258390969696,-0.33036432,0.043858567090993165,-0.09080499,0.5275843467060796,0.0025768751885918775,0.04790225044606623,0.008944819716901642
0.5299999999999994,0.7057717330716674,0.7216518,-0.04864031568442259,-0.0445496,1.8511076760816574,1.8209808,-1.1539509638361132,-1.1676213,-0.12732150898723996,-0.13204548,0.5783769962931405,0.3961815,0.013760637247351324,0.047247387,-0.24434900914402022,-0.2987282,-0.008223617882949856,-0.026898155,-0.10823198587286348,0.14531821,0.1807258390969696,-0.2828995,0.06685856709099317,-0.048907258,0.48081544459270503,0.00742924415174134,-0.03876899392716944,-0.037824082396472836
0.54,0.6927717330716674,0.7127775,-0.05064031568442259,-0.04458762,1.8561076760816575,1.8164512,-1.1779509638361128,-1.1600212,-0.12832150898723996,-0.1270137,0.5783769962931405,0.29519692,0.013744141131205947,0.04432787,-0.241531444613908,-0.2929354,-0.008201199405387011,-0.03580987,-0.12423198587286348,0.11723429,0.1927258390969696,-0.23058264,0.04885856709099316,-0.11923641,0.2323680500706939,0.0059338600058650905,0.006885999587746244,-0.286271476918484
0.5499999999999998,0.6847717330716674,0.7017592,-0.052640315684422595,-0.04591586,1.8691076760816574,1.818062,-1.1739509638361127,-1.2116066,-0.13432150898723993,-0.1325719,0.6373769962931406,0.3776898,0.010527275842153537,0.04667702,-0.23592336628287494,-0.2954843,-0.004972481460489054,-0.04141959,-0.13323198587286347,0.11459768,0.1737258390969696,-0.21677655,0.050858567090993165,-0.090880826,0.9801821951839922,-0.0005970013659209773,0.0313919887538407,0.46154266819481427
0.5599999999999996,0.6717717330716674,0.6845407,-0.053640315684422596,-0.048616167,1.8771076760816574,1.8391833,-1.195950963836113,-1.2581353,-0.13532150898723994,-0.12822177,0.6423769962931406,0.49273488,0.010516678546707283,0.030141408,-0.23310741335827573,-0.28420445,-0.004955891834066536,-0.025250616,-0.13023198587286347,0.053700503,0.3597258390969696,-0.14999098,0.025858567090993163,-0.0032666642,0.6185738942760803,0.003248272152046521,-0.012645548440025176,0.09993436728690241
0.5699999999999994,0.6587717330716675,0.66672814,-0.0556403156844226,-0.05080423,1.8831076760816574,1.8653662,-1.2189509638361131,-1.3354954,-0.13632150898723994,-0.13556862,0.6433769962931406,0.6731101,0.007656378886864434,0.026142478,-0.23029877294931503,-0.29109997,-0.0046160813159881985,-0.013224677,-0.12123198587286348,0.049749307,0.3677258390969696,-0.2322807,0.029858567090993167,0.08426313,0.9260279264726166,0.00926032677934491,-0.07661136823097656,0.40738839948343863
0.5800000000000001,0.6457717330716675,0.6540846,-0.05664031568442259,-0.051974785,1.8891076760816574,1.8625928,-1.240950963836113,-1.3728245,-0.13732150898723994,-0.13711898,0.6443769962931406,0.6814186,0.007638339487874934,0.028256278,-0.22466940315091918,-0.29732963,-0.004591431506651212,-0.022390472,-0.07923198587286348,0.04013448,0.3267258390969696,-0.3095042,0.051858567090993166,0.0682167,0.8013311995328134,-0.0030537038912890994,-0.07488709875664987,0.2826916725436355
0.5899999999999999,0.6347717330716675,0.6405374,-0.05864031568442259,-0.053270392,1.8951076760816574,1.8690988,-1.2469509638361131,-1.3620307,-0.14032150898723994,-0.1319117,0.6483769962931406,0.6228112,0.004472841762270759,0.018797612,-0.22186762914893451,-0.2772612,-0.0014226282953116052,-0.012962732,-0.10023198587286349,0.005515266,0.28072583909696963,-0.20015824,0.043858567090993165,0.06619333,0.12941542933368314,0.0046215841227491995,-0.018367681651286327,-0.38922409765549476
0.5999999999999996,0.6217717330716674,0.6259302,-0.059640315684422594,-0.054741137,1.9021076760816573,1.8859653,-1.268950963836113,-1.3781141,-0.14132150898723994,-0.13446443,0.6483769962931406,0.638134,0.004469418014790306,0.020674028,-0.2190542097338279,-0.27292886,-0.0014158667866659912,-0.011643885,-0.11323198587286348,0.025872745,0.23072583909696961,-0.1797089,0.03985856709099316,0.05413036,0.3776186795053471,0.0007000154952982174,-0.012401404089678034,-0.14102084748383076
0.6099999999999994,0.6087717330716674,0.60914725,-0.061640315684422596,-0.058198627,1.9101076760816573,1.9117596,-1.2829509638361132,-1.423158,-0.14232150898723994,-0.15023157,0.6583769962931406,0.7652575,0.004462662891682944,0.029003443,-0.21342884739445583,-0.2665566,-0.001402396237748926,-0.005405254,-0.12423198587286348,0.06907905,0.2417258390969696,-0.16810027,0.05485856709099316,0.1058933,0.747115894733851,-0.0014515065921359774,-0.03953194502200426,0.22847636774467306
0.6200000000000001,0.6037717330716674,0.5929312,-0.0626403156844226,-0.059385505,1.9151076760816574,1.9311928,-1.2659509638361128,-1.4648281,-0.14032150898723994,-0.14624894,0.6423769962931406,0.8708192,0.0016168972728713082,0.019428108,-0.20780735703908254,-0.26341572,-0.0010985739111612058,0.002017336,-0.09223198587286348,0.026436955,0.1767258390969696,-0.18527313,0.04785856709099316,0.16065623,0.747115894733851,-0.0014515065921359774,-0.03953194502200426,0.22847636774467306
0.6299999999999999,0.5897717330716674,0.5823919,-0.0636403156844226,-0.060604557,1.9211076760816574,1.925759,-1.284950963836113,-1.449743,-0.14032150898723994,-0.14188188,0.6383769962931406,0.7507525,0.0016148744114027258,0.015778165,-0.20499636750280767,-0.25760302,-0.00109597571254628,-0.0071292217,-0.11423198587286348,-0.0066816024,0.1807258390969696,-0.16064379,0.04085856709099316,0.07952495,0.22208346931232048,8.965461943036268e-05,-0.01873389817680704,-0.2965560576768574
0.6399999999999997,0.5757717330716674,0.57092154,-0.06564031568442259,-0.06231202,1.9281076760816573,1.9250191,-1.3029509638361128,-1.447514,-0.14132150898723994,-0.1354444,0.6333769962931406,0.67814964,-0.001509355345792654,0.011124322,-0.2049954550961654,-0.2536549,0.0020282532043322792,-0.016610665,-0.12223198587286348,-0.045801405,0.23372583909696962,-0.1370569,0.06185856709099317,0.02078109,0.41848234014470015,-0.0020008313804170466,-0.006725047944106957,-0.10015718684447772
0.6499999999999995,0.5597717330716674,0.5567566,-0.0676403156844226,-0.063748844,1.9351076760816575,1.9356323,-1.331950963836113,-1.4591134,-0.14232150898723994,-0.13929857,0.6313769962931406,0.6881927,-0.0015060655337605006,0.014467072,-0.20218493162148815,-0.24051608,0.0020255410343642606,-0.014179935,-0.12323198587286348,-0.017407961,0.1757258390969696,-0.068431005,0.051858567090993166,0.018801741,0.41848234014470015,-0.0020008313804170466,-0.006725047944106957,-0.10015718684447772
0.6600000000000001,0.5457717330716675,0.54181796,-0.0686403156844226,-0.06544165,1.9411076760816575,1.9465501,-1.349950963836113,-1.495254,-0.14232150898723994,-0.14600934,0.6243769962931406,0.80872935,-0.004342720585802572,0.014968203,-0.20218212623297224,-0.22937709,0.002307814068624858,-0.0051910826,-0.18023198587286346,-0.00992805,0.2077258390969696,-0.023559444,0.058858567090993165,0.108152494,0.9803958214905459,-0.0033283662854296375,-0.007747402411185614,0.461756294501368
0.6699999999999999,0.5297717330716675,0.52049553,-0.0706403156844226,-0.06752387,1.9481076760816574,1.9720907,-1.372950963836113,-1.555744,-0.14232150898723994,-0.15283869,0.6253769962931406,0.91128707,-0.004338231595536874,0.012700065,-0.199372078909802,-0.2400123,0.0023010534124670665,0.010620478,-0.14723198587286346,-0.037124265,0.14172583909696962,-0.07702421,0.03085856709099316,0.17422011,0.5878574831980304,-0.04507705019479104,-0.01629245467333562,0.06921795620885252
0.6799999999999997,0.5147717330716675,0.49934024,-0.0716403156844226,-0.06997472,1.9541076760816574,1.99895,-1.3909509638361128,-1.6288435,-0.14132150898723994,-0.15222529,0.6163769962931406,1.0801568,-0.007173684487836505,0.0046332753,-0.1993688822053141,-0.25002542,0.0025792587062048607,0.022318564,-0.16223198587286347,-0.06230371,0.1447258390969696,-0.18330374,0.036858567090993166,0.26575992,0.9199395767358347,-0.0016651328986897265,-0.07764898171995194,0.4013000497466568
0.6899999999999995,0.5007717330716674,0.48683047,-0.0736403156844226,-0.06987212,1.9611076760816575,1.9946,-1.4079509638361132,-1.640452,-0.14132150898723994,-0.13400115,0.6093769962931406,1.0886648,-0.0071680324757007335,-0.008558419,-0.19655929171226477,-0.23823726,0.002568462908372805,0.018677462,-0.13723198587286348,-0.12021074,0.16872583909696962,-0.16647816,0.04085856709099316,0.27732807,0.9199395767358347,-0.0016651328986897265,-0.07764898171995194,0.4013000497466568
0.7000000000000002,0.48577173307166743,0.47551835,-0.0746403156844226,-0.070601694,1.9671076760816575,1.9858496,-1.424950963836113,-1.6323392,-0.14132150898723994,-0.12841304,0.6003769962931406,1.0558249,-0.0102655691054752,-0.0109226,-0.19373214397293745,-0.22228009,0.005660813311909301,0.007142799,-0.14423198587286346,-0.14921083,0.1917258390969696,-0.10512943,0.018858567090993164,0.2366335,0.7632751989224525,-0.0051136718473431195,-0.02695851097912641,0.24463567193327462
0.71,0.4787717330716674,0.4566575,-0.0756403156844226,-0.07319016,1.9701076760816574,1.9952587,-1.4159509638361132,-1.6771618,-0.13932150898723994,-0.13374266,0.5793769962931405,1.0492901,-0.010254811940921746,-0.01025318,-0.19092348654852326,-0.24091806,0.005644871642610417,0.012632787,-0.13023198587286347,-0.14110897,0.23072583909696961,-0.21733135,0.010858567090993166,0.25213185,0.5131187939480114,-0.006929495453049991,-0.0504421456781422,-0.0055207330411665145
0.7199999999999998,0.4637717330716674,0.43907887,-0.07764031568442259,-0.07414228,1.9721076760816574,2.0048935,-1.4309509638361129,-1.6871126,-0.13832150898723994,-0.13435593,0.5553769962931406,0.9765265,-0.013074923896436129,-0.008975572,-0.18810749359714243,-0.24838029,0.005890967503990245,0.013413403,-0.10723198587286348,-0.12352497,0.3047258390969696,-0.26772907,0.024858567090993162,0.20618178,0.15236499826631453,-0.008623246883583294,-0.026180300862394895,-0.36627452872286337
0.7299999999999995,0.4717717330716674,0.42219192,-0.08064031568442259,-0.0753517,1.9871076760816575,2.0037448,-1.3629509638361128,-1.7014046,-0.14232150898723994,-0.13203388,0.5843769962931405,0.9470433,-0.013005849531859499,-0.016307008,-0.17126707670168376,-0.24014495,0.005772596196649486,0.023654468,-0.12023198587286348,-0.1556213,0.3477258390969696,-0.1949512,0.034858567090993164,0.23307517,0.5183221204147849,-0.009843968635319007,0.018788036667169453,-0.0003174065743930532
0.7400000000000002,0.4577717330716674,0.40144503,-0.08164031568442259,-0.0774787,1.9931076760816575,2.0230985,-1.376950963836113,-1.7348101,-0.14132150898723994,-0.12958837,0.5743769962931405,1.003531,-0.016051773495428613,-0.021837907,-0.1684314419974577,-0.23965645,0.008810117954660976,0.02789965,-0.12123198587286348,-0.18230811,0.3277258390969696,-0.1759049,0.026858567090993164,0.24475901,0.5183221204147849,-0.009843968635319007,0.018788036667169453,-0.0003174065743930532
0.75,0.4627717330716674,0.39814436,-0.0826403156844226,-0.07985858,1.9991076760816575,2.033731,-1.316950963836113,-1.7230082,-0.13832150898723994,-0.12623677,0.5643769962931406,1.0287284,-0.01597233816940516,-0.025585923,-0.15441077661908176,-0.24598801,0.008688523414331453,0.023639288,-0.15823198587286347,-0.19526151,0.23372583909696962,-0.23103744,-0.00014143290900683458,0.22878242,0.8070075556783844,-0.00847065666461633,-0.021251636789761955,0.2883680286892065
0.7599999999999998,0.44877173307166746,0.38376555,-0.0846403156844226,-0.08106403,2.004107676081657,2.042818,-1.3299509638361129,-1.7075065,-0.13732150898723994,-0.12619898,0.5543769962931406,1.0806205,-0.018790846029333466,-0.024484053,-0.15439880458084662,-0.2074909,0.008902465735801153,0.017779455,-0.19023198587286347,-0.204674,0.0957258390969696,-0.05040091,-0.00014143290900683458,0.223343,0.8070075556783844,-0.00847065666461633,-0.021251636789761955,0.2883680286892065
0.7699999999999996,0.43377173307166744,0.37011322,-0.0866403156844226,-0.08256859,2.0141076760816574,2.0370927,-1.344950963836113,-1.7082065,-0.13732150898723994,-0.11952648,0.5633769962931406,1.0618981,-0.018774371203320508,-0.02610125,-0.15159578321967226,-0.1961883,0.008874406266781425,0.012032915,-0.17823198587286346,-0.20807062,-0.1682741609030304,-0.0028796662,-0.009141432909006835,0.21498795,0.8070075556783844,-0.00847065666461633,-0.021251636789761955,0.2883680286892065
0.7799999999999994,0.41977173307166743,0.35553387,-0.0876403156844226,-0.084279194,2.0111076760816573,2.0359795,-1.3559509638361131,-1.7179825,-0.13632150898723994,-0.12992823,0.5173769962931406,1.0666196,-0.021626914579942903,-0.017972626,-0.1571898519190304,-0.19203238,0.00914849949241501,0.012527736,-0.14823198587286346,-0.16971816,-0.47227416090303037,-0.005817609,0.007858567090993165,0.23757717,0.8070075556783844,-0.00847065666461633,-0.021251636789761955,0.2883680286892065
0.79,0.4057717330716674,0.33910486,-0.0896403156844226,-0.08603187,2.016107676081657,2.0614479,-1.368950963836113,-1.7293047,-0.13432150898723993,-0.12280245,0.5043769962931406,1.0546081,-0.021644586055961947,-0.028814994,-0.15999354550035252,-0.19924255,0.009180690713602604,0.02430371,-0.11723198587286349,-0.19849576,-0.6092741609030303,-0.0683927,0.006858567090993166,0.22200891,0.05650782271126763,-0.00663957403701276,-0.03957772208769435,-0.4621317042779102
0.7999999999999998,0.3907717330716674,0.31954384,-0.0906403156844226,-0.08704077,2.021107676081657,2.0772622,-1.381950963836113,-1.7458576,-0.13332150898723993,-0.12281935,0.4903769962931406,0.9901794,-0.02452185452954342,-0.033469524,-0.16839402195987435,-0.20834206,0.009511587425491385,0.02852424,-0.10823198587286348,-0.21532817,-0.7152741609030303,-0.13849379,0.0048585670909931655,0.18467563,0.05650782271126763,-0.00663957403701276,-0.03957772208769435,-0.4621317042779102
0.8099999999999996,0.37677173307166745,0.30661207,-0.09164031568442259,-0.08905311,2.028107676081657,2.0813677,-1.3959509638361132,-1.7161065,-0.13132150898723996,-0.12350171,0.4923769962931406,0.86813736,-0.02456054546767658,-0.036279045,-0.1740047118889828,-0.19855487,0.009584748447851744,0.028128022,-0.11823198587286349,-0.2306661,-0.6002741609030303,-0.12789717,0.03885856709099316,0.12798622,0.05650782271126763,-0.00663957403701276,-0.03957772208769435,-0.4621317042779102
0.8199999999999994,0.36177173307166743,0.30706438,-0.09364031568442259,-0.08948082,2.033107676081657,2.0756986,-1.408950963836113,-1.6701182,-0.12932150898723996,-0.12326063,0.4763769962931406,0.7171553,-0.027427491247769355,-0.032282446,-0.17960362470617577,-0.20428257,0.009908098819335463,0.022926802,-0.12923198587286347,-0.2008147,-0.46927416090303037,-0.19125366,-0.0021414329090068346,0.04929678,0.05650782271126763,-0.00663957403701276,-0.03957772208769435,-0.4621317042779102
0.8300000000000001,0.3467717330716674,0.2874686,-0.09464031568442259,-0.090219654,2.033107676081657,2.0926557,-1.421950963836113,-1.6778721,-0.12832150898723996,-0.121366926,0.4283769962931406,0.681589,-0.027469687823315186,-0.038823124,-0.18521743587899447,-0.20169258,0.009990074744244928,0.027912695,-0.14723198587286346,-0.22779027,-0.3152741609030304,-0.2032416,0.03185856709099316,0.025109,0.05650782271126763,-0.00663957403701276,-0.03957772208769435,-0.4621317042779102
0.8399999999999999,0.3317717330716674,0.2695561,-0.09664031568442259,-0.09179966,2.038107676081657,2.1023595,-1.436950963836113,-1.7038323,-0.12532150898723995,-0.11324344,0.4123769962931406,0.7444715,-0.030322018590667275,-0.045678247,-0.1880111141276411,-0.19371559,0.010293086807784908,0.037214525,-0.15523198587286346,-0.24152793,-0.11627416090303039,-0.1803442,0.024858567090993162,0.0815712,0.7601013223679397,-0.007616151438401331,-0.04775655782432364,0.24146179537876178
0.8499999999999996,0.31677173307166745,0.24658227,-0.0976403156844226,-0.0940491,2.041107676081657,2.113197,-1.4519509638361128,-1.7530684,-0.12332150898723995,-0.11153001,0.3963769962931406,0.8080414,-0.030322018590667275,-0.046905,-0.1880111141276411,-0.20598358,0.010293086807784908,0.03787458,-0.14923198587286346,-0.24430522,-0.0012741609030303897,-0.26712757,0.009858567090993165,0.10703337,0.7601013223679397,-0.007616151438401331,-0.04775655782432364,0.24146179537876178
0.8599999999999994,0.30077173307166744,0.23251937,-0.0986403156844226,-0.09383827,2.049107676081657,2.1007397,-1.4679509638361128,-1.7487444,-0.12132150898723995,-0.09566941,0.4133769962931406,0.7011324,-0.03315302134889103,-0.060614932,-0.18799689799501923,-0.20284685,0.010554937187792988,0.030234106,-0.15323198587286346,-0.33390093,0.09872583909696961,-0.27128392,-0.019141432909006835,0.061098274,0.47045456872484814,-0.048510330121547734,-0.059368673487709606,-0.048184958264329725
0.8700000000000001,0.2857717330716674,0.21215808,-0.0996403156844226,-0.09655485,2.053107676081657,2.1052215,-1.482950963836113,-1.762597,-0.11832150898723995,-0.1080478,0.3983769962931406,0.6214509,-0.03312940264576291,-0.047611386,-0.1851894766890491,-0.21608815,0.010505729598572452,0.023255102,-0.15723198587286347,-0.27631697,0.0897258390969696,-0.41379374,-0.008141432909006836,-0.009072095,0.18161654324228158,-0.011537720065852311,-0.13006372193510413,-0.3370229837468963
0.8799999999999999,0.2697717330716674,0.1970978,-0.1016403156844226,-0.096749686,2.057107676081657,2.0929701,-1.497950963836113,-1.7468027,-0.11632150898723995,-0.10177369,0.3833769962931406,0.46853894,-0.03595933451681829,-0.053107582,-0.18517495802215178,-0.2101239,0.010763533154082024,0.015631318,-0.16223198587286347,-0.29973146,0.1467258390969696,-0.44609994,-0.0011414329090068346,-0.07971462,0.18161654324228158,-0.011537720065852311,-0.13006372193510413,-0.3370229837468963
0.8899999999999997,0.25377173307166745,0.18428102,-0.1026403156844226,-0.099148236,2.058107676081657,2.080829,-1.5119509638361128,-1.723108,-0.11332150898723994,-0.10733881,0.3493769962931406,0.32113567,-0.03595933451681829,-0.047425732,-0.18517495802215178,-0.1974656,0.010763533154082024,0.006291355,-0.13623198587286348,-0.28259796,0.1447258390969696,-0.47160682,-0.004141432909006835,-0.15134816,0.1913365401904772,-0.011186762562228295,-0.15142635259047912,-0.3273029867987007
0.8999999999999995,0.22877173307166745,0.16914494,-0.1026403156844226,-0.09978461,2.0711076760816574,2.071913,-1.578950963836113,-1.7112385,-0.10332150898723995,-0.104414836,0.3943769962931406,0.20108964,-0.039076665924577904,-0.05050182,-0.18791322274619737,-0.19279747,0.01390875732455951,-0.0024309917,-0.09823198587286348,-0.29449177,0.2577258390969696,-0.53317875,0.014858567090993166,-0.23271897,0.1913365401904772,-0.011186762562228295,-0.15142635259047912,-0.3273029867987007
0.9100000000000001,0.21177173307166747,0.16575015,-0.1036403156844226,-0.10061038,2.0761076760816572,2.066342,-1.5979509638361131,-1.6799499,-0.10232150898723995,-0.10586765,0.3853769962931406,0.11878009,-0.03904677938346606,-0.04749748,-0.1851060112824096,-0.18231793,0.013850369393874764,-0.0067405812,-0.05723198587286348,-0.28382063,0.2737258390969696,-0.56398773,-0.026141432909006834,-0.27412197,0.1913365401904772,-0.011186762562228295,-0.15142635259047912,-0.3273029867987007
0.9199999999999999,0.19377173307166745,0.14707415,-0.1056403156844226,-0.10210479,2.0801076760816573,2.0727117,-1.6139509638361131,-1.6818702,-0.09932150898723995,-0.10513216,0.3673769962931406,0.083607554,-0.041846049828815825,-0.047549695,-0.18228017230086654,-0.16875881,0.01404579254275682,0.0010650458,-0.02723198587286348,-0.26235896,0.3247258390969696,-0.5595201,-0.034141432909006834,-0.2669711,0.08638498758499921,-0.009126794606174278,-0.12353286056331805,-0.4322545394041787
0.9299999999999997,0.17677173307166746,0.17249396,-0.1066403156844226,-0.10594782,2.0831076760816574,2.0884495,-1.6289509638361128,-1.5870352,-0.09632150898723994,-0.10682176,0.3493769962931406,0.10689819,-0.04181559991984902,-0.050331697,-0.1794738793824244,-0.15474847,0.01398368101122234,0.00019167007,-0.021231985872863478,-0.27550218,0.4297258390969696,-0.575045,0.008858567090993166,-0.26202402,0.46964584056432324,-0.008058663073405529,-0.06548754126828488,-0.04899368642485463
0.9399999999999995,0.15977173307166745,0.15656342,-0.10764031568442259,-0.106463514,2.086107676081657,2.0868056,-1.6419509638361132,-1.6007272,-0.09332150898723994,-0.10184665,0.3313769962931406,0.07368119,-0.041514174951834244,-0.052980497,-0.1739202899123595,-0.16822055,0.011035246374484635,-0.0009500493,-0.05023198587286348,-0.277287,0.6217258390969697,-0.59967816,-0.006141432909006835,-0.28191656,0.4037573840143881,-0.008546951774099813,0.010685496040023654,-0.11488214297478977
0.9500000000000002,0.15177173307166747,0.17766723,-0.10764031568442259,-0.106910884,2.0871076760816574,2.0737464,-1.6169509638361128,-1.5218344,-0.08832150898723995,-0.09516241,0.29637699629314057,-0.015217297,-0.04141327690580658,-0.058564384,-0.16270207139637158,-0.1801543,0.010793478969869066,-0.0149628585,-0.05323198587286348,-0.31840563,0.6297258390969697,-0.66745734,-0.03814143290900684,-0.3507764,0.4037573840143881,-0.008546951774099813,0.010685496040023654,-0.11488214297478977
0.96,0.13877173307166746,0.16279018,-0.10764031568442259,-0.10842927,2.089107676081657,2.058503,-1.6179509638361131,-1.5531504,-0.08332150898723995,-0.083342746,0.2713769962931406,-0.053416565,-0.041126820806318444,-0.06660228,-0.1543494161406556,-0.21482526,0.007795621285007782,-0.022999417,-0.03823198587286348,-0.35908717,0.8067258390969697,-0.7639303,0.012858567090993164,-0.36345777,0.6848438263734329,-0.009966040810492582,0.03305522214058061,0.16620429938425496
0.9699999999999998,0.12177173307166747,0.14598118,-0.10864031568442259,-0.11077749,2.0921076760816573,2.051714,-1.6289509638361128,-1.5713295,-0.07932150898723994,-0.08999674,0.2503769962931406,-0.20455652,-0.04388447148220645,-0.062414363,-0.14593218799395297,-0.27182734,0.007821364933538914,-0.0330257,-0.04123198587286348,-0.3660674,0.8297258390969696,-1.0086771,-0.018141432909006834,-0.45395672,0.021900361049560137,-0.011324093759298562,0.0020794076902868747,-0.49673916593961776
0.9799999999999995,0.10677173307166746,0.12997241,-0.10964031568442259,-0.111817725,2.0881076760816573,2.0190876,-1.635950963836113,-1.6381979,-0.07732150898723994,-0.08505124,0.21837699629314056,-0.28189582,-0.043825582535200074,-0.057766546,-0.13752874542251958,-0.34534878,0.007634136567671497,-0.03831056,-0.00823198587286348,-0.3597632,0.8147258390969696,-1.334531,0.026858567090993164,-0.4462246,0.7177270185608137,-0.011156244518434902,-0.05376861245162204,0.19908749157163574
0.9900000000000002,0.08977173307166744,0.110308595,-0.11064031568442259,-0.11338218,2.0921076760816573,2.0307555,-1.6449509638361128,-1.6626267,-0.07332150898723995,-0.08949392,0.20837699629314058,-0.3027242,-0.04376912507018596,-0.052689686,-0.1291281656385686,-0.3793315,0.007447784996796909,-0.0329322,-0.04323198587286348,-0.33361554,0.8217258390969696,-1.4733974,0.025858567090993163,-0.44971627,0.03250538126776415,-0.010164408095149634,-0.03860114468630578,-0.4861341457214137
1.0,0.06377173307166745,0.089318596,-0.11164031568442259,-0.11373342,2.0961076760816573,2.0420766,-1.667950963836113,-1.7268275,-0.07032150898723995,-0.08225413,0.19437699629314056,-0.22825149,-0.04373282679382201,-0.055098914,-0.12352927147144634,-0.41279468,0.007324016716418176,-0.026468104,-0.04023198587286348,-0.3293904,0.6287258390969697,-1.5464518,0.009858567090993165,-0.39990264,0.5556456879741043,-0.013597688021906331,0.009388479178804462,0.03700616098492637
1.0099999999999998,0.041771733071667455,0.07067138,-0.11264031568442259,-0.114008486,2.093107676081657,2.0600052,-1.682950963836113,-1.7477976,-0.06732150898723994,-0.077887416,0.16937699629314057,-0.16285962,-0.04386000201401744,-0.06024499,-0.11787109237925224,-0.39758596,0.010007849606752092,-0.01336118,-0.06523198587286348,-0.32482666,0.5727258390969696,-1.437846,-0.010141432909006834,-0.33326474,0.3709199688926974,-0.0124380023577574,-0.04511674703619514,-0.14771955809648046
1.0199999999999996,0.023771733071667453,0.05116172,-0.1136403156844226,-0.114857756,2.0951076760816574,2.0729573,-1.691950963836113,-1.7981381,-0.06432150898723994,-0.062118433,0.14937699629314058,-0.028537147,-0.04366342597262511,-0.06574007,-0.11233486991682588,-0.379498,0.007077544605668827,-0.015538319,-0.020231985872863477,-0.336344,0.5417258390969697,-1.2685214,0.0008585670909931654,-0.29355615,0.8340007654136404,-0.009981299832389278,0.013874631616433208,0.3153612384244625
1.0299999999999994,0.013771733071667451,0.031276435,-0.1136403156844226,-0.1151614,2.0991076760816574,2.0760307,-1.682950963836113,-1.8097366,-0.06032150898723995,-0.057681266,0.13737699629314057,-0.015022479,-0.04361415055608063,-0.072872214,-0.10394183116864501,-0.35591406,0.006893574204724246,-0.0017542589,-0.01323198587286348,-0.33973283,0.5277258390969697,-1.118509,0.005858567090993165,-0.22911194,0.3497862235657728,-0.009615083306868562,-0.0410883652554673,-0.16885330342340504
1.04,-0.0012282669283325484,0.016714128,-0.1146403156844226,-0.11639309,2.093107676081657,2.0635831,-1.683950963836113,-1.7867115,-0.05632150898723995,-0.050393615,0.10637699629314058,-0.10534035,-0.04358261419105479,-0.07613548,-0.09834770870317998,-0.3197846,0.006771326052847952,-0.012373753,-0.017231985872863478,-0.35075036,0.6437258390969697,-0.9122733,0.03185856709099316,-0.2787052,0.3497862235657728,-0.009615083306868562,-0.0410883652554673,-0.16885330342340504
1.0499999999999998,-0.01822826692833255,0.0021136403,-0.1146403156844226,-0.117339484,2.094107676081657,2.048284,-1.690950963836113,-1.7761371,-0.053321508987239946,-0.049379915,0.08737699629314058,-0.18349588,-0.04633964222286972,-0.07328102,-0.08994916776577064,-0.2979566,0.006712322566051206,-0.025250763,-0.029231985872863478,-0.34960178,0.7807258390969697,-0.7946712,0.026858567090993164,-0.32839924,0.4258829657645979,-0.011507202022058918,-0.047954925108980695,-0.09275656122457998
1.0599999999999996,-0.035228266928332544,-0.015690688,-0.1156403156844226,-0.117833786,2.0951076760816574,2.055296,-1.6979509638361128,-1.805172,-0.050321508987239943,-0.038248364,0.06737699629314058,-0.07013735,-0.046295100032965254,-0.070097774,-0.0815618680768007,-0.2775199,0.006518551254946906,-0.0346063,-0.03423198587286348,-0.49570233,0.8347258390969696,-0.70274484,0.019858567090993165,-0.30704445,0.9555388748208274,-0.25378995169780466,-0.0722320289466247,0.4368993478316495
1.0699999999999994,-0.053228266928332546,-0.03480132,-0.1156403156844226,-0.11786128,2.0961076760816573,2.0641568,-1.703950963836113,-1.8362831,-0.046321508987239954,-0.028393283,0.050376996293140575,0.029903736,-0.04626677929361572,-0.07382121,-0.07597132975349448,-0.26607394,0.00638972376687889,-0.02836293,-0.0012319858728634795,-0.48880684,0.7677258390969697,-0.65216297,0.012858567090993164,-0.2358468,0.7615204114043325,-0.003923468139400796,-0.04323988734290149,0.24288088441515454
1.08,-0.07122826692833255,-0.054736435,-0.1166403156844226,-0.11867761,2.0961076760816573,2.074219,-1.7099509638361128,-1.8302945,-0.04332150898723995,-0.023495764,0.03237699629314057,0.023043446,-0.04622634913224919,-0.08034368,-0.06758688662267454,-0.24342977,0.006196981864602709,-0.022564786,-0.01023198587286348,-0.4836812,0.8227258390969696,-0.5300139,0.018858567090993164,-0.22703151,0.19910338233589567,-0.007555115350814545,-0.035030533562478816,-0.3195361446532822
1.0899999999999999,-0.09622826692833256,-0.07464897,-0.14564031568442262,-0.11897837,2.102107676081657,2.0771136,-1.747950963836113,-1.8544409,-0.17732150898723995,-0.019244526,0.051376996293140575,0.0961127,-0.029839492387416504,-0.07721011,-0.061841695754030736,-0.22905391,0.019542174176490033,-0.019352231,-0.02323198587286348,-0.44674066,0.8147258390969696,-0.44238478,0.04785856709099316,-0.17459214,0.725402306574852,-0.0012836573512723173,-0.020778607110964367,0.20676277958567413
1.0999999999999996,-0.11422826692833254,-0.11344157,-0.1476403156844226,-0.116613634,2.0921076760816573,2.109014,-1.7509509638361132,-1.891338,-0.17532150898723994,-0.014053421,-0.019623003706859425,0.14811441,-0.02967834298001293,-0.075439185,-0.05349981529030447,-0.19296215,0.016618565856801933,-0.00894884,-0.09423198587286348,-0.40191746,0.8617258390969696,-0.29131532,-0.13514143290900685,-0.15516447,0.19545647610258524,-0.01107994940895142,-0.09267911828819791,-0.3231830508865926
1.1099999999999994,-0.12422826692833255,-0.13462678,-0.1586403156844226,-0.11747697,2.0991076760816574,2.122121,-1.720950963836113,-1.9090244,-0.21132150898723995,-0.013906829,0.007376996293140575,0.26149273,-0.026868135982699357,-0.0678779,-0.03947959920890343,-0.17103022,0.02194440177001247,-0.0131424945,-0.16423198587286347,-0.357763,0.8277258390969696,-0.19042633,-0.11614143290900683,-0.1337841,0.7922673405261758,-0.010515365598773651,-0.029522026657771414,0.27362781353699783
1.12,-0.14222826692833254,-0.15680821,-0.1606403156844226,-0.11813356,2.0991076760816574,2.137751,-1.7229509638361131,-1.908656,-0.20932150898723995,-0.00889566,-0.009623003706859425,0.3068273,-0.02673114097351632,-0.0674264,-0.03113646377458222,-0.14479658,0.019036593854229292,-0.0075317323,-0.3652319858728635,-0.3306203,0.8927258390969697,-0.124605626,-0.13514143290900685,-0.11061453,0.3866520204681914,-0.01602387250348106,-0.10004922586430226,-0.13198750652098645
1.13,-0.16022826692833253,-0.1748082,-0.1636403156844226,-0.11850416,2.0991076760816574,2.137941,-1.7259509638361128,-1.8933289,-0.20732150898723994,-0.004972832,-0.026623003706859424,0.30094558,-0.03223717824182092,-0.06968391,-0.022705248676403122,-0.11553585,0.018986759837783505,0.000291241,-0.6032319858728634,-0.32984453,1.0047258390969696,-0.026722483,-0.03914143290900684,-0.06355161,0.5087852317293496,-0.015123590211575968,-0.07381896722388112,-0.009854295259828283
1.1399999999999997,-0.17822826692833255,-0.19189197,-0.1656403156844226,-0.11835346,2.093107676081657,2.140878,-1.7269509638361131,-1.8654015,-0.20632150898723994,0.006192658,-0.07462300370685943,0.30851653,-0.0377239399656715,-0.076946236,-0.01432698308596715,-0.077155,0.01609904497684558,-0.0058190133,-0.8362319858728634,-0.36101446,0.9747258390969696,0.10676317,-0.05314143290900684,-0.06764906,0.5087852317293496,-0.015123590211575968,-0.07381896722388112,-0.009854295259828283
1.1499999999999995,-0.19622826692833253,-0.19351678,-0.16764031568442261,-0.11712377,2.0921076760816573,2.1384816,-1.727950963836113,-1.8254839,-0.20332150898723994,0.0147330165,-0.09362300370685941,0.30688754,-0.04601414750386825,-0.0788492,-0.003091566671705752,-0.07128148,0.015904222276087628,-0.010525212,-1.0372319858728634,-0.365718,1.0037258390969697,0.10860543,-0.007141432909006835,-0.08319624,0.5622528444553738,-0.013704501175183206,0.0004619513692370597,0.0436133174661959
1.1600000000000001,-0.21422826692833255,-0.20227994,-0.16964031568442262,-0.116468765,2.0911076760816574,2.128417,-1.727950963836113,-1.7789195,-0.19932150898723994,0.02033464,-0.11262300370685942,0.2889323,-0.05712373887072293,-0.07840968,0.005371082090357576,-0.036684796,0.01568576210948203,-0.0083313305,-1.1032319858728634,-0.35604155,1.0047258390969696,0.2358427,-0.018141432909006834,-0.030705724,0.6992025659782243,-0.015413511627613206,-0.036144442160937665,0.18056303898904635
1.17,-0.23922826692833254,-0.2226677,-0.17064031568442262,-0.11526501,2.0881076760816573,2.1461458,-1.763950963836113,-1.7888069,-0.19032150898723996,0.037852827,-0.12262300370685943,0.38605005,-0.07106844256046267,-0.08396582,0.010963485468915297,-0.0295933,0.012662536967931508,-0.0048868638,-1.0422319858728635,-0.36367577,0.9077258390969697,0.21834502,-0.005141432909006835,-0.00018070918,0.6145912895610426,-0.015093072167782575,-0.05472993083111391,0.09595176257186466
1.1799999999999997,-0.25822826692833256,-0.23630258,-0.17264031568442262,-0.11645355,2.0871076760816574,2.1283882,-1.7629509638361132,-1.7726887,-0.18432150898723995,0.030108681,-0.13962300370685943,0.27149004,-0.07939079465343203,-0.07965961,0.02217869399789373,-0.022586647,0.012182647815864011,0.00038945812,-0.9302319858728635,-0.3341343,0.9197258390969697,0.19117658,0.012858567090993164,0.0008748919,0.29439597408076484,-0.012071785832236687,-0.06953118207090944,-0.22424355290841302
1.1899999999999995,-0.2782282669283326,-0.25586748,-0.17164031568442262,-0.115279324,2.0911076760816574,2.149254,-1.767950963836113,-1.7778516,-0.16632150898723994,0.056130357,-0.11962300370685942,0.4541633,-0.09053329260366993,-0.08981018,0.030615992501528723,-0.013205749,0.011689298220351859,0.009553975,-0.7632319858728634,-0.37446576,0.9907258390969697,0.18247736,0.010858567090993166,0.10187854,1.0151406143493236,-0.009996558854285974,-0.057858030319936665,0.49650108736014575
1.2000000000000002,-0.2962282669283326,-0.28799853,-0.17164031568442262,-0.11560123,2.089107676081657,2.150314,-1.764950963836113,-1.8356415,-0.15232150898723995,0.056571275,-0.13962300370685943,0.40012154,-0.09887936407554847,-0.0902436,0.041823384325312074,-0.054806575,0.011022427069023259,0.008945306,-0.6022319858728634,-0.36596543,1.0977258390969697,-0.08968045,-0.0011414329090068346,0.0659679,0.36383978273263023,-0.010332257336013295,-0.10477952265227816,-0.15479974425654763
1.21,-0.30422826692833255,-0.31336442,-0.17064031568442262,-0.11526566,2.0911076760816574,2.1492333,-1.727950963836113,-1.859998,-0.13432150898723993,0.07632873,-0.13862300370685943,0.49726364,-0.10715858660951899,-0.09697673,0.05596333692154945,-0.061414637,0.012909236859476,0.011880824,-0.5222319858728635,-0.38827404,1.1537258390969696,-0.19680354,0.007858567090993165,0.11002254,0.987979555373204,-0.009340420912728027,-0.11810064876809415,0.4693400283840261
1.2199999999999998,-0.32322826692833256,-0.33161464,-0.17164031568442262,-0.11641546,2.090107676081657,2.1370466,-1.723950963836113,-1.8712939,-0.12632150898723996,0.07604863,-0.15362300370685944,0.501423,-0.11281830830565105,-0.08919217,0.0670025461937327,-0.072089024,0.00934663380113584,0.006840113,-0.41023198587286347,-0.34321544,1.0757258390969697,-0.31450018,-0.030141432909006838,0.13338393,0.9530821722954593,-0.011720828328612667,-0.11134090206785763,0.4344426453062814
1.2299999999999995,-0.3402282669283326,-0.33929387,-0.17364031568442262,-0.11501265,2.0881076760816573,2.1479685,-1.7179509638361128,-1.8473207,-0.11732150898723995,0.07660633,-0.16962300370685943,0.453799,-0.11561525986352236,-0.090218045,0.0781748441489708,-0.06909534,0.008621901742242357,0.012957728,-0.3572319858728635,-0.3374292,1.1557258390969696,-0.32457536,-0.019141432909006835,0.11929062,0.16585397362299417,-0.010805287014810882,-0.03336730017573891,-0.35278555336618367
1.2400000000000002,-0.3582282669283326,-0.35278094,-0.17464031568442262,-0.11446502,2.0841076760816573,2.1447737,-1.711950963836113,-1.8161144,-0.10832150898723995,0.08722476,-0.19862300370685942,0.46666726,-0.11842663476327439,-0.093666315,0.0893475264299782,-0.042241015,0.00786580233117015,0.021533135,-0.2622319858728635,-0.34710544,1.1927258390969697,-0.21709523,-0.004141432909006835,0.16724618,0.561291526075882,-0.013139917365005433,-0.0496028994738239,0.04265199908670403
1.25,-0.37622826692833256,-0.3682226,-0.17564031568442262,-0.11250233,2.082107676081657,2.1483421,-1.7049509638361129,-1.7767646,-0.09932150898723995,0.09797691,-0.21762300370685944,0.4103426,-0.12125323583358996,-0.10045955,0.10052091360264312,-0.0077014132,0.007077969673446522,0.02176577,-0.17623198587286346,-0.36195377,1.1377258390969696,-0.082882926,0.043858567090993165,0.14225475,0.23329885040639237,-0.011263057671711776,-0.050594735897109167,-0.2853406765827855
1.2599999999999998,-0.39422826692833257,-0.3826159,-0.17664031568442262,-0.11546475,2.0791076760816574,2.1303546,-1.695950963836113,-1.7452847,-0.08932150898723995,0.06033793,-0.23762300370685943,0.2322517,-0.12424921215222287,-0.0677348,0.11152510266079663,0.012693195,0.0034578131010451958,0.012175455,-0.20023198587286348,-0.19608584,0.9847258390969696,-0.015309885,0.020858567090993166,0.051409863,0.1478330687629957,-0.013750278240873295,-0.0589719389183955,-0.3708064582261822
1.2699999999999996,-0.4122282669283326,-0.40089673,-0.1776403156844226,-0.11549607,2.077107676081657,2.118906,-1.686950963836113,-1.7508873,-0.08032150898723994,0.058236644,-0.2576230037068594,0.20262153,-0.1271242693466106,-0.061608724,0.12269680749198218,0.0018570013,0.0026028932313126754,0.0068199844,-0.18423198587286346,-0.16524135,0.8967258390969697,-0.07453975,0.033858567090993164,0.037563883,0.6955709187668105,-0.011400388868782044,-0.03329100506625543,0.17693139177763262
1.2799999999999994,-0.42922826692833255,-0.41882128,-0.1786403156844226,-0.115137175,2.070107676081657,2.1285272,-1.678950963836113,-1.7355036,-0.07132150898723995,0.07088958,-0.3026230037068594,0.31232256,-0.12718060284472216,-0.06446007,0.13107451434023298,0.01823002,0.0020760440216172067,0.014404535,-0.21423198587286346,-0.17658585,0.8507258390969696,-0.021722624,0.03185856709099316,0.10998816,0.8389904655738601,-0.005815586854591152,-0.036983688365255965,0.3203509385846822
1.29,-0.44722826692833256,-0.4502765,-0.1796403156844226,-0.17432767,2.0671076760816574,2.1319494,-1.667950963836113,-1.7662401,-0.06132150898723995,-0.09231625,-0.3236230037068594,0.37026823,-0.13006154386886348,-0.05233095,0.13945646926664032,0.016660102,0.001354705108406247,0.031747755,-0.21523198587286346,-0.19462228,0.8477258390969696,-0.06256593,0.059858567090993166,0.15847747,0.9131493119918048,-0.007784000679264991,-0.06698292541416112,0.3945097850026269
1.2999999999999998,-0.4652282669283326,-0.4670667,-0.16864031568442261,-0.17463481,2.065107676081657,2.1227312,-1.662950963836113,-1.7380283,0.00967849101276005,-0.072454244,-0.33062300370685943,0.40035665,-0.14121396409742018,-0.065042585,0.14803417366537877,0.038038313,0.00280099269467367,-0.0014058361,-0.23523198587286348,-0.25058886,0.8747258390969697,-0.055501908,0.0018585670909931655,0.02851391,0.7063743062696716,-0.007433043175640974,-0.15574465578724422,0.18773477928049365
1.3099999999999996,-0.4822282669283326,-0.46838272,-0.1646403156844226,-0.1926127,2.062107676081657,2.127322,-1.6489509638361128,-1.6855869,0.03567849101276005,-0.09654258,-0.3516230037068594,0.41768596,-0.1439007496243539,-0.07691617,0.15661586500456928,0.04007895,0.004806734646700694,0.0040628016,-0.20123198587286348,-0.32044742,0.8547258390969696,-0.13171554,-0.025141432909006833,0.0428871,0.7476957375659254,-0.009477752109798294,-0.09144313751456548,0.22905621057674752
1.3199999999999994,-0.49922826692833255,-0.48400956,-0.1646403156844226,-0.19126296,2.0551076760816573,2.132032,-1.6369509638361128,-1.6475481,0.045678491012760045,-0.04589338,-0.3856230037068594,0.4438666,-0.14703231673502756,-0.11723005,0.1648032050585697,0.06626515,0.001165554688379053,-0.0004950922,-0.08923198587286348,-0.511806,0.8967258390969697,-0.039995763,-0.019141432909006835,0.048670065,0.6253946770639036,-0.004228648577334727,-0.06562487246535514,0.10675515007472569
1.33,-0.5062282669283326,-0.49926987,-0.1626403156844226,-0.18912841,2.0551076760816573,2.1320915,-1.583950963836113,-1.6014332,0.06467849101276005,0.03432911,-0.3856230037068594,0.4740138,-0.1476958426922769,-0.17143963,0.17837526941563844,0.09916066,-0.005496244992213925,0.016727323,0.11076801412713652,-0.7539508,1.0227258390969696,0.058809567,0.05385856709099316,0.17428577,0.7940831641318826,-0.005327298153896869,-0.07633670583683602,0.2754436371427047
1.3399999999999999,-0.5232282669283326,-0.51587313,-0.1616403156844226,-0.18627,2.0511076760816573,2.1204665,-1.569950963836113,-1.5845773,0.07667849101276006,0.11232667,-0.4046230037068594,0.4723199,-0.14787979479097288,-0.22386056,0.18956244327187255,0.10252038,-0.006329520319308798,0.011319115,0.3087680141271365,-0.9793116,0.9917258390969697,0.025762744,0.06285856709099318,0.18990149,0.7940831641318826,-0.005327298153896869,-0.07633670583683602,0.2754436371427047
1.3499999999999996,-0.5332282669283326,-0.53174585,-0.1586403156844226,-0.18264857,2.044107676081657,2.1178827,-1.5289509638361132,-1.5575428,0.09867849101276005,0.20405611,-0.4286230037068594,0.5189528,-0.14557036130038956,-0.27275768,0.20336490285615086,0.110719375,-0.009920466533464201,0.020149207,0.4297680141271365,-1.1831692,0.9237258390969697,-0.025463995,0.03285856709099316,0.27795935,0.9674103938564572,-0.010088112985666153,-0.09473908624425192,0.4487708668672793
1.3599999999999994,-0.5492282669283326,-0.5479396,-0.1576403156844226,-0.18015932,2.0391076760816573,2.110749,-1.5129509638361132,-1.5344565,0.11067849101276005,0.26902977,-0.4476230037068594,0.54201645,-0.14034349794580084,-0.29649442,0.2116012051150293,0.11440756,-0.012782366940708842,0.015856747,0.4867680141271365,-1.2428968,0.8127258390969697,-0.06283028,0.07185856709099317,0.29480097,0.9674103938564572,-0.010088112985666153,-0.09473908624425192,0.4487708668672793
1.37,-0.5652282669283326,-0.5801432,-0.1566403156844226,-0.17652845,2.034107676081657,2.1076021,-1.4959509638361128,-1.59491,0.12167849101276006,0.2623348,-0.4676230037068594,0.42326742,-0.13482849984845388,-0.29678875,0.22004322441436297,0.098250695,-0.012770297148301881,0.019677011,0.4967680141271365,-1.2878221,0.7777258390969697,-0.1384263,0.11485856709099317,0.24908279,0.0489393478505062,-0.1677138091785402,-0.0193290000307782,-0.4697001791386717
1.38,-0.5852282669283325,-0.5960191,-0.1526403156844226,-0.17587864,2.0231076760816573,2.1168191,-1.498950963836113,-1.572939,0.14267849101276006,0.24212253,-0.5256230037068594,0.3864471,-0.13110509236895707,-0.2826076,0.22340706985931885,0.112274386,-0.004136795073752301,0.0298133,0.5027680141271366,-1.2229015,0.5657258390969696,-0.11342798,0.07785856709099317,0.25500336,0.17803067309655793,-0.07312313244091907,-0.03757879021922712,-0.34060885389261997
1.3899999999999997,-0.6032282669283325,-0.6143863,-0.1486403156844226,-0.17233907,2.0191076760816573,2.1101067,-1.4849509638361131,-1.5543479,0.16067849101276005,0.22038528,-0.5356230037068594,0.2455399,-0.1280279145886716,-0.26152134,0.22919855571315534,0.13218175,-0.0013469047484423525,0.018616594,0.4727680141271365,-1.0981928,0.5137258390969697,-0.01641652,-0.006141432909006835,0.16610612,0.17803067309655793,-0.07312313244091907,-0.03757879021922712,-0.34060885389261997
1.3999999999999995,-0.6192282669283325,-0.62714124,-0.14564031568442262,-0.16923769,2.0141076760816574,2.1129556,-1.466950963836113,-1.4908657,0.17467849101276006,0.23252301,-0.5506230037068595,0.30455068,-0.1224054853501572,-0.2392122,0.23481398994829142,0.16979945,-0.001049284422478349,0.016279768,0.4367680141271365,-0.94573325,0.4347258390969696,0.1575676,-0.015141432909006835,0.19757846,0.7826236386874637,-0.01611542663486124,-0.01101283309707865,0.26398411169828573
1.4100000000000001,-0.6342282669283326,-0.6239518,-0.14364031568442262,-0.165375,2.0051076760816575,2.0997336,-1.4479509638361128,-1.3985156,0.18667849101276004,0.25328428,-0.5796230037068594,0.25520924,-0.11963316586690811,-0.23410828,0.2404301983882742,0.20184736,-0.0010586523799129529,0.008599969,0.4477680141271365,-0.8591353,0.3627258390969696,0.2702468,-0.044141432909006836,0.18471162,0.7773287580893099,-0.0024280839935245484,-0.04479630757636452,0.258689231100132
1.42,-0.6482282669283326,-0.6408594,-0.14064031568442262,-0.16678537,2.0011076760816575,2.0817528,-1.4239509638361127,-1.3740966,0.19767849101276005,0.24605836,-0.5866230037068594,0.20313223,-0.11429909457648568,-0.2193161,0.24308375588898934,0.20235741,-0.003392379428129323,-0.008423126,0.4867680141271365,-0.7280999,0.4827258390969696,0.1728198,-0.005141432909006835,0.1276896,0.769836578338032,7.439559753366631e-05,-0.15287595967066528,0.25119705134885406
1.4299999999999997,-0.6622282669283326,-0.6520338,-0.13764031568442261,-0.16514432,1.9961076760816574,2.093086,-1.3999509638361132,-1.3055367,0.20967849101276007,0.27638155,-0.5976230037068594,0.3439179,-0.10866598553154747,-0.21246332,0.24871171436310863,0.22659832,-0.0030176741360422228,0.00057369994,0.5307680141271366,-0.6856289,0.6047258390969696,0.19928521,0.021858567090993167,0.22542998,1.001453271707987,-0.014467452270018024,-0.1020786757765629,0.4828137447188091
