t,x,x_pred,y,y_pred,z,z_pred,vx,vx_pred,vy,vy_pred,vz,vz_pred,roll,roll_pred,pitch,pitch_pred,yaw,yaw_pred,wx,wx_pred,wy,wy_pred,wz,wz_pred,thrust,torque_roll,torque_pitch,torque_yaw
0.009999999999999825,1.0127717330716675,1.0131823,-0.009640315684422598,-0.0095235305,1.6331076760816574,1.6359215,-0.06595096383611296,-0.07387123,0.01167849101276005,0.009745013,0.18437699629314055,0.21451755,0.01889390599273911,0.016586225,-0.11796743565852902,-0.120235875,-0.010420430543808175,-0.010583627,0.030768014127136523,0.048821714,-0.5362741609030304,-0.47980827,-0.05614143290900683,-0.011376826,0.6608719029737229,0.0031261999768729502,0.023564110520835437,0.14223237598454497
0.019999999999999612,1.0127717330716675,1.0121123,-0.009640315684422598,-0.0095235305,1.6371076760816574,1.6349515,-0.07295096383611296,-0.08674087,0.00967849101276005,0.008558785,0.20337699629314057,0.26475298,0.01909992029587143,0.019288035,-0.12354036781455949,-0.123421684,-0.013285634632169006,-0.011099717,0.05876801412713652,0.033884574,-0.3922741609030304,-0.53326905,-0.004141432909006835,-0.016652461,0.8990499757592573,0.004896246516889734,0.004322483909101255,0.38041044877007935
0.0299999999999994,1.0107717330716675,1.0120422,-0.009640315684422598,-0.009543531,1.6391076760816574,1.6391414,-0.08595096383611298,-0.09472556,0.00867849101276005,0.006593686,0.21437699629314055,0.28363952,0.01912174797915395,0.019713653,-0.12634014253808884,-0.12753709,-0.013314461103282585,-0.01340503,0.07176801412713651,0.06217538,-0.4252741609030304,-0.38925394,-0.021141432909006837,0.03534754,0.8990499757592573,0.004896246516889734,0.004322483909101255,0.38041044877007935
0.04000000000000008,1.0097717330716676,1.0099123,-0.009640315684422598,-0.00955353,1.6411076760816574,1.6412514,-0.09595096383611296,-0.09997695,0.00667849101276005,0.00673717,0.22737699629314057,0.2286024,0.019165788331293166,0.019891165,-0.13194058264245886,-0.13066995,-0.013372414464514662,-0.0136153875,0.11476801412713653,0.075302914,-0.4472741609030304,-0.42468917,-0.00014143290900683458,-0.016186424,0.566372780367482,0.005186167932926967,0.0008586859385511653,0.04773325337830403
0.049999999999999864,1.0087717330716675,1.0088122,-0.009640315684422598,-0.00957353,1.6411076760816574,1.6433815,-0.10695096383611297,-0.118911564,0.00467849101276005,0.0036407912,0.22737699629314057,0.30528352,0.022000445952967667,0.02034751,-0.13472257515655794,-0.13649894,-0.013587732286711389,-0.013463222,0.10576801412713652,0.117198944,-0.4452741609030304,-0.4403995,-0.028141432909006836,0.038208656,0.8880787390155326,0.0034771574804969667,0.009830990813808657,0.36943921202635466
0.05999999999999965,1.0067717330716675,1.0077022,-0.009640315684422598,-0.009593531,1.6451076760816574,1.6433815,-0.11995096383611298,-0.12843986,0.00267849101276005,0.0014523086,0.24237699629314058,0.2905199,0.022046896879651202,0.023130985,-0.14032475857719393,-0.13925406,-0.013654169148422313,-0.013978654,0.02876801412713652,0.107186,-0.4832741609030304,-0.42335212,-0.034141432909006834,0.0025105104,0.813919892597588,0.0022106586630711647,0.0313919887538407,0.2952803656084101
0.06999999999999944,1.0047717330716674,1.0055722,-0.009640315684422598,-0.009613531,1.6471076760816574,1.6475314,-0.13395096383611296,-0.14232604,0.0006784910127600498,-0.000541792,0.2533769962931406,0.30540168,0.022093941738943502,0.022404687,-0.14592824517113706,-0.1452426,-0.013721039518898888,-0.014114174,0.03876801412713652,0.030145472,-0.5682741609030303,-0.46133175,-0.029141432909006837,-0.0034894887,0.813919892597588,0.0022106586630711647,0.0313919887538407,0.2952803656084101
0.08000000000000011,1.0037717330716676,1.0034322,-0.009640315684422598,-0.009633531,1.6501076760816573,1.6496415,-0.14695096383611297,-0.15557334,-0.0033215089872399503,-0.0023094642,0.2633769962931406,0.30493844,0.022117686881284064,0.022551887,-0.14873048740146258,-0.15171395,-0.013754638540539571,-0.014149683,0.030768014127136523,0.040144853,-0.5842741609030303,-0.5759229,-0.00014143290900683458,-0.0044405106,0.7565917473316995,0.0022106586630711647,-0.010921278965698472,0.23795222034252161
0.0899999999999999,1.0007717330716674,1.0023023,-0.009640315684422598,-0.00967353,1.6501076760816573,1.6527414,-0.16195096383611296,-0.16898482,-0.0063215089872399495,-0.0063067013,0.2583769962931406,0.3148795,0.022189828978656824,0.022451552,-0.15713927647642584,-0.15468594,-0.013856105537118989,-0.013888094,0.03876801412713652,0.032313086,-0.5162741609030304,-0.5919115,0.006858567090993166,0.02455949,0.7565917473316995,0.0022106586630711647,-0.010921278965698472,0.23795222034252161
0.09999999999999969,0.9997717330716674,0.99915224,-0.010640315684422598,-0.009703531,1.6541076760816573,1.6526914,-0.17595096383611297,-0.17171547,-0.009321508987239949,-0.0075707897,0.2763769962931406,0.2229825,0.022214180003269843,0.022592658,-0.15994292582318453,-0.16240345,-0.013890153804662677,-0.013902693,0.07076801412713651,0.04135312,-0.4612741609030304,-0.52967083,0.0048585670909931655,-0.014019579,0.3175133922542599,0.0036450067213606285,-0.01916115078991454,-0.20112613473491797
0.10999999999999947,0.9967717330716673,0.9980122,-0.010640315684422598,-0.010733531,1.6571076760816574,1.6568714,-0.19095096383611299,-0.20649612,-0.01132150898723995,-0.013158065,0.2913769962931406,0.37094483,0.025085650295426535,0.022944633,-0.16553178096175084,-0.16464601,-0.014188307046239804,-0.013945768,0.03776801412713652,0.07259291,-0.5052741609030303,-0.43849656,-0.034141432909006834,0.05233556,0.9760012231842974,0.0025768751885918775,0.03256693343988633,0.45736169619511946
0.12000000000000015,0.9947717330716673,0.99486226,-0.010640315684422598,-0.010753531,1.6641076760816573,1.6600214,-0.20895096383611295,-0.21253698,-0.01532150898723995,-0.014300768,0.3183769962931406,0.32473394,0.025137444839181965,0.025550347,-0.1711415718192134,-0.1706737,-0.014265198091248535,-0.0146709485,-0.0002319858728634795,0.039916757,-0.5692741609030303,-0.49026015,-0.057141432909006834,-0.018787585,0.6665482591192939,0.003324567261530003,0.021488883542884724,0.14790873213011602
0.12999999999999992,0.9917717330716674,0.9926822,-0.011640315684422597,-0.01079353,1.6651076760816574,1.6672914,-0.22495096383611296,-0.22609587,-0.01832150898723995,-0.017607234,0.3233769962931406,0.32121155,0.02518993429836292,0.025260901,-0.1767529385606799,-0.17693065,-0.014342585169945335,-0.015001958,-0.01423198587286348,0.0024223505,-0.3892741609030304,-0.6109613,-0.03914143290900684,-0.057804808,0.5122490296998997,0.004270626619125181,-0.05961281783805675,-0.0063904972892782075
0.1399999999999997,0.9887717330716673,0.9895222,-0.011640315684422597,-0.011823531,1.6671076760816574,1.6683415,-0.24295096383611298,-0.24265133,-0.02032150898723995,-0.020603353,0.3283769962931406,0.32611704,0.02521644176096021,0.025133332,-0.1795591952711294,-0.18071145,-0.014381467092454686,-0.014847336,-0.0022319858728634795,-0.011401097,-0.4612741609030304,-0.43095574,-0.007141432909006835,-0.039804805,0.5122490296998997,0.004270626619125181,-0.05961281783805675,-0.0063904972892782075
0.1499999999999995,0.9857717330716674,0.98634225,-0.011640315684422597,-0.011843531,1.6721076760816573,1.6703914,-0.261950963836113,-0.2617836,-0.02332150898723995,-0.022709796,0.3453769962931406,0.33586046,0.02526998638587809,0.025228348,-0.18517299834703702,-0.18426003,-0.014459614192869502,-0.014573929,0.07676801412713652,0.0014784492,-0.4932741609030304,-0.45604244,0.028858567090993166,-0.0052767717,0.5366024286470272,0.005354017173790627,0.0074811014417174165,0.017962901657849306
0.16000000000000017,0.9847717330716673,0.9831522,-0.011640315684422597,-0.011873531,1.6721076760816573,1.6755614,-0.26895096383611294,-0.27165467,-0.02432150898723995,-0.024513206,0.3393769962931406,0.29999915,0.025297026454871165,0.026021881,-0.18798053819832172,-0.19020961,-0.014498881879842052,-0.0142895095,0.02476801412713652,0.07880072,-0.4742741609030304,-0.501465,-0.011141432909006835,0.0028625783,0.26821149250603377,0.0026989473637654485,-0.011745266148120076,-0.2504280344831441
0.16999999999999996,0.9807717330716674,0.98208225,-0.012640315684422598,-0.011883531,1.6751076760816574,1.6755015,-0.29195096383611296,-0.27879983,-0.027321508987239947,-0.02551218,0.3493769962931406,0.29397258,0.025351642031718614,0.02559434,-0.19359686259534808,-0.19281328,-0.014577808504950697,-0.014737564,-0.02623198587286348,0.02660144,-0.4802741609030304,-0.48249045,-0.035141432909006835,-0.03713742,0.26821149250603377,0.0026989473637654485,-0.011745266148120076,-0.2504280344831441
0.17999999999999974,0.9767717330716674,0.9778522,-0.012640315684422598,-0.012913531,1.6771076760816575,1.6786015,-0.312950963836113,-0.30240843,-0.031321508987239954,-0.028547443,0.35537699629314057,0.3055714,0.025406981342154876,0.025178224,-0.1992149831783709,-0.19848509,-0.014657266850946513,-0.0150665995,-0.01323198587286348,-0.021059636,-0.4832741609030304,-0.45728794,-0.017141432909006833,-0.060263067,0.2766344725930102,0.007642870458295091,0.03285685485592356,-0.24200505439616765
0.18999999999999953,0.9727717330716674,0.97364223,-0.013640315684422599,-0.012953531,1.6811076760816575,1.6806614,-0.33395096383611295,-0.3237075,-0.036321508987239945,-0.03254531,0.3673769962931406,0.31151366,0.02543492482637742,0.025332326,-0.20202470964997285,-0.20413862,-0.014697198082939475,-0.014960821,-0.03923198587286348,-0.0079719,-0.4192741609030304,-0.46029502,-0.021141432909006837,-0.042263065,0.2766344725930102,0.007642870458295091,0.03285685485592356,-0.24200505439616765
0.2000000000000002,0.9687717330716674,0.9694322,-0.014640315684422596,-0.01400353,1.6851076760816575,1.6847814,-0.35395096383611296,-0.34229845,-0.03932150898723995,-0.037257392,0.3773769962931406,0.31076753,0.025491361892535043,0.025100775,-0.20764554893831408,-0.20629475,-0.014777469694086965,-0.015025444,0.01176801412713652,-0.035514396,-0.4542741609030304,-0.3965983,0.014858567090993166,-0.052999735,0.21173785246636032,0.005445571305170805,0.032414343220919364,-0.3069016745228176
0.21,0.9647717330716674,0.96523225,-0.015640315684422597,-0.01503353,1.6931076760816575,1.6888815,-0.374950963836113,-0.3697378,-0.04232150898723995,-0.04104124,0.3963769962931406,0.35556749,0.025519858870827687,0.02560454,-0.21045668711218699,-0.21228197,-0.014817813158699752,-0.014741677,0.04576801412713652,0.015847763,-0.4332741609030304,-0.44874203,-0.004141432909006835,0.0014805757,0.3897648609351175,0.005735492721208038,0.007908354054824915,-0.1288746660540604
0.21999999999999978,0.9627717330716674,0.96102226,-0.015640315684422597,-0.016063532,1.6921076760816574,1.6970716,-0.381950963836113,-0.396356,-0.04332150898723995,-0.044620574,0.3833769962931406,0.40029982,0.025548543053444853,0.026019594,-0.2132682971430782,-0.21487416,-0.014858296589163426,-0.014975409,0.0007680141271365205,0.047711764,-0.4412741609030304,-0.44936448,-0.035141432909006835,-0.0038417454,0.5215265150130911,0.0028057605170423265,-0.023006424307882037,0.002886988023913184
0.22999999999999957,0.9577717330716674,0.9589522,-0.015640315684422597,-0.016073532,1.6961076760816574,1.6959414,-0.40495096383611295,-0.40600777,-0.046321508987239954,-0.04586962,0.3933769962931406,0.3983867,0.02591299788106339,0.025658088,-0.21885800319935791,-0.2177596,-0.01778377416941743,-0.015340488,-0.01223198587286348,0.005122045,-0.3092741609030304,-0.4566159,-0.029141432909006837,-0.028923992,0.578534220819149,0.006452666750352769,-0.02193829277511329,0.059894693829971035
0.23999999999999935,0.9527717330716674,0.95372224,-0.0176403156844226,-0.016103532,1.7041076760816574,1.7000414,-0.425950963836113,-0.42963493,-0.050321508987239943,-0.04883105,0.4023769962931406,0.40825433,0.025946357406236988,0.025871538,-0.22167103425335152,-0.22200455,-0.017826020726988277,-0.018170116,-0.037231985872863485,-0.0078116492,-0.3232741609030304,-0.324612,-0.035141432909006835,-0.022923991,0.578534220819149,0.006452666750352769,-0.02193829277511329,0.059894693829971035
0.25000000000000006,0.9477717330716674,0.9485122,-0.0176403156844226,-0.018143531,1.7081076760816574,1.7081314,-0.449950963836113,-0.42917165,-0.052321508987239945,-0.050644513,0.4113769962931406,0.3188254,0.025979915941638638,0.025665518,-0.2244845788905183,-0.22495896,-0.017868430918828188,-0.01827871,-0.01123198587286348,-0.03023198,-0.2992741609030304,-0.31443325,0.0038585670909931646,-0.08124132,0.07454398659316279,0.010175868093146696,0.012623391820904106,-0.44409554039601506
0.25999999999999984,0.9417717330716674,0.94327223,-0.018640315684422596,-0.01816353,1.7121076760816574,1.7122215,-0.473950963836113,-0.45321175,-0.05532150898723995,-0.052644163,0.42237699629314057,0.32781652,0.026013673409950512,0.025874428,-0.2272986457227299,-0.22753784,-0.017911005391512268,-0.017907927,0.02376801412713652,-0.0041042045,-0.3662741609030304,-0.29044706,0.0008585670909931654,-0.042241316,0.07454398659316279,0.010175868093146696,0.012623391820904106,-0.44409554039601506
0.26999999999999963,0.9357717330716674,0.9370322,-0.019640315684422597,-0.01919353,1.7171076760816575,1.7163315,-0.5019509638361129,-0.5126634,-0.06032150898723995,-0.05910142,0.4333769962931406,0.4946888,0.02608179070153679,0.026276413,-0.23292834020039482,-0.23103474,-0.017996652638226692,-0.018000606,-0.0032319858728634796,0.030161612,-0.4162741609030304,-0.38624647,-0.03814143290900684,0.03777199,0.8742388061552289,0.00913825460417134,-0.028560708278279542,0.35559927916605094
0.2799999999999994,0.9297717330716674,0.9307522,-0.019640315684422597,-0.020243531,1.7191076760816575,1.7214414,-0.525950963836113,-0.5274682,-0.06232150898723994,-0.06274864,0.4313769962931406,0.44480234,0.02615071676714487,0.026166238,-0.2385601106866979,-0.23716465,-0.01808297149666656,-0.0185081,-0.02223198587286348,0.00072345044,-0.2672741609030304,-0.38316965,-0.004141432909006835,-0.033579253,0.5625885429371011,0.005888082940175001,0.04733766663588847,0.04394901594792322
0.2900000000000001,0.9237717330716674,0.9245122,-0.020640315684422598,-0.02026353,1.7221076760816574,1.7234215,-0.550950963836113,-0.55684644,-0.06332150898723994,-0.065185905,0.4383769962931406,0.46265152,0.026185487212689266,0.025951223,-0.24137682516517628,-0.24128534,-0.018126387044080147,-0.018198235,-0.02723198587286348,-0.019790368,-0.2582741609030304,-0.2672703,0.007858567090993165,0.0110936165,0.6654038324770417,0.0035076755242903594,4.180712336168679e-06,0.1467643054878638
0.2999999999999999,0.9177717330716675,0.91826224,-0.020640315684422598,-0.021273531,1.7261076760816574,1.7264915,-0.575950963836113,-0.5822036,-0.06532150898723994,-0.06618274,0.4453769962931406,0.46956652,0.026220465077116128,0.025905067,-0.24419410122341095,-0.24401346,-0.018169975605991134,-0.018113425,-0.029231985872863478,-0.024758343,-0.3842741609030304,-0.25827342,-0.03914143290900684,0.023093617,0.6654038324770417,0.0035076755242903594,4.180712336168679e-06,0.1467643054878638
0.30999999999999966,0.9107717330716675,0.9120122,-0.0226403156844226,-0.02129353,1.7311076760816575,1.7305615,-0.602950963836113,-0.57857376,-0.07132150898723995,-0.06555866,0.4563769962931406,0.35799745,0.026255648501069286,0.026045958,-0.24701190067111156,-0.2481042,-0.01821373650696871,-0.0186847,-0.04323198587286348,-0.026377758,-0.1832741609030304,-0.3775157,0.0048585670909931655,-0.08724822,0.05521080585004842,0.004301144662918574,0.0096478825510483,-0.4634287211391295
0.31999999999999945,0.9047717330716675,0.90474224,-0.023640315684422597,-0.02335353,1.7351076760816575,1.7356715,-0.6259509638361129,-0.60560334,-0.07532150898723995,-0.071558386,0.4663769962931406,0.36899024,0.026255648501069286,0.025814625,-0.24701190067111156,-0.24888273,-0.01821373650696871,-0.018212045,-0.020231985872863477,-0.0402151,-0.2282741609030304,-0.17652954,0.0038585670909931646,-0.04324822,0.05521080585004842,0.004301144662918574,0.0096478825510483,-0.4634287211391295
0.3300000000000001,0.8977717330716675,0.89851224,-0.024640315684422598,-0.02439353,1.7391076760816575,1.7397715,-0.651950963836113,-0.63382494,-0.07732150898723994,-0.07602472,0.4733769962931406,0.40008068,0.026291041857926762,0.026054733,-0.24983027544870848,-0.24934156,-0.018257673203910044,-0.01823495,0.03176801412713652,-0.015411861,-0.14527416090303039,-0.21986358,0.012858567090993164,-0.032965522,0.16390081882021704,0.006879919363460269,0.012028289966932948,-0.3547387081689608
0.3399999999999999,0.8907717330716675,0.8912522,-0.024640315684422598,-0.025413532,1.7451076760816575,1.7438415,-0.677950963836113,-0.69287395,-0.08032150898723994,-0.08093193,0.4893769962931406,0.53863436,0.02632664518999168,0.02659194,-0.25264923288971836,-0.2513156,-0.018301786452358217,-0.018162275,0.006768014127136519,0.037547905,-0.11827416090303039,-0.1661602,0.005858567090993165,0.04647097,0.8424390045225135,0.00823797231226625,-0.02987298416139543,0.3237994775333356
0.3499999999999997,0.8837717330716675,0.88399225,-0.0256403156844226,-0.025443532,1.7501076760816574,1.7500014,-0.703950963836113,-0.70747036,-0.08232150898723994,-0.08289456,0.5003769962931406,0.5077475,0.02632664518999168,0.026388582,-0.25264923288971836,-0.25385728,-0.018301786452358217,-0.018272445,0.00976801412713652,0.0107219,-0.1602741609030304,-0.1525236,-0.005141432909006835,0.014413966,0.6010565371386729,0.0056439385898278596,-0.04897727957605935,0.08241701014949498
0.3599999999999995,0.8757717330716674,0.87673223,-0.027640315684422597,-0.026463531,1.7541076760816574,1.7551115,-0.730950963836113,-0.70707244,-0.08732150898723995,-0.08259359,0.5053769962931406,0.41459292,0.026362459360594007,0.026450519,-0.25546874895126714,-0.25428286,-0.018346077171373106,-0.018399647,-0.04923198587286348,0.017590525,-0.0772741609030304,-0.15144713,0.024858567090993162,-0.05238178,0.06355749082754136,0.011198222560225356,0.012623391820904106,-0.4550820361616365
0.37000000000000016,0.8677717330716674,0.86846226,-0.028640315684422598,-0.02851353,1.7601076760816574,1.7591615,-0.7559509638361129,-0.7341064,-0.09132150898723995,-0.08759329,0.5213769962931406,0.41958433,0.02600186558331552,0.025800733,-0.2555043068575386,-0.25626358,-0.015483142388599182,-0.018105352,-0.05323198587286348,-0.04138145,-0.0972741609030304,-0.06845911,0.022858567090993168,-0.022381779,0.06355749082754136,0.011198222560225356,0.012623391820904106,-0.4550820361616365
0.37999999999999995,0.8587717330716674,0.8602122,-0.0296403156844226,-0.02955353,1.7651076760816575,1.7653214,-0.783950963836113,-0.79527456,-0.09332150898723994,-0.09476312,0.5303769962931406,0.576668,0.02600186558331552,0.025405817,-0.2555043068575386,-0.25650257,-0.015483142388599182,-0.0152684655,-0.051231985872863484,-0.045367688,-0.1282741609030304,-0.10341928,0.005858567090993165,0.051250167,0.7921452683510022,0.011213481582122053,-0.008769756878264284,0.27350574136182426
0.38999999999999974,0.8507717330716674,0.85093224,-0.0306403156844226,-0.03057353,1.7681076760816574,1.7704114,-0.809950963836113,-0.8056895,-0.09632150898723994,-0.095224075,0.5253769962931406,0.51707333,0.026033673952788227,0.025472762,-0.2583244649927368,-0.25681442,-0.015526029623807738,-0.0154556725,-0.08723198587286349,-0.047832374,-0.04727416090303039,-0.169495,0.035858567090993165,-0.0025219643,0.4379070750191947,0.004850469451199645,-0.05894142087460211,-0.08073245196998319
0.3999999999999995,0.8417717330716674,0.8426722,-0.0316403156844226,-0.03160353,1.7761076760816574,1.7733614,-0.834950963836113,-0.83231276,-0.09932150898723995,-0.09825594,0.5523769962931406,0.5135134,0.02316893307921751,0.025052575,-0.25834595275988353,-0.25881594,-0.015161168056826244,-0.01516091,-0.06223198587286348,-0.0820194,-0.042274160903030385,-0.07133347,0.03085856709099316,0.0282827,0.44565865814271644,0.00742924415174134,-0.034359136599024176,-0.07298086884646143
0.4100000000000002,0.8327717330716674,0.8334222,-0.0336403156844226,-0.03263353,1.7851076760816573,1.7816315,-0.8619509638361129,-0.84741765,-0.10232150898723995,-0.10026493,0.5813769962931405,0.50235915,0.02316893307921751,0.022455331,-0.25834595275988353,-0.25878432,-0.015161168056826244,-0.014846165,-0.01123198587286348,-0.05528408,0.00472583909696961,-0.034106463,0.03085856709099316,0.0028129034,0.2484663181717086,0.009916464720902858,0.011707850507102324,-0.27017320881746926
0.42,0.8237717330716674,0.82415223,-0.0346403156844226,-0.03466353,1.7911076760816573,1.7909214,-0.8859509638361129,-0.87441766,-0.10432150898723995,-0.10326493,0.5883769962931406,0.53135914,0.023138708351925445,0.022972645,-0.25552573182326144,-0.25830486,-0.015122500305589962,-0.014835061,-0.04623198587286348,-0.0042988844,0.023725839096969608,0.012909608,0.033858567090993164,0.0028129034,0.2484663181717086,0.009916464720902858,0.011707850507102324,-0.27017320881746926
0.42999999999999977,0.8147717330716674,0.8149122,-0.035640315684422594,-0.03568353,1.7961076760816574,1.7969915,-0.910950963836113,-0.93003315,-0.10832150898723995,-0.10769693,0.5953769962931406,0.66224974,0.023138708351925445,0.022577524,-0.25552573182326144,-0.2552914,-0.015122500305589962,-0.014760581,-0.07223198587286349,-0.03952968,0.034725839096969614,-0.0032839496,0.021858567090993167,0.072205484,0.8880482209717392,0.009596025261072233,-0.03860114468630578,0.36940869398256126
0.43999999999999956,0.8047717330716674,0.8056622,-0.037640315684422596,-0.036723528,1.8051076760816573,1.8020614,-0.936950963836113,-0.9550331,-0.11032150898723994,-0.11169693,0.6123769962931406,0.6692497,0.023138708351925445,0.022343067,-0.25552573182326144,-0.25517648,-0.015122500305589962,-0.014884305,-0.10323198587286349,-0.06552923,0.035725839096969615,0.0077159125,0.011858567090993167,0.06020549,0.8880482209717392,0.009596025261072233,-0.03860114468630578,0.36940869398256126
0.45000000000000023,0.7957717330716675,0.7954022,-0.038640315684422596,-0.03874353,1.8101076760816575,1.8112315,-0.960950963836113,-0.95627975,-0.11232150898723994,-0.11180153,0.6133769962931406,0.58968204,0.020275566878753887,0.022052988,-0.2555466591438858,-0.255164,-0.014761830670887514,-0.014989355,-0.06423198587286348,-0.094018206,0.1077258390969696,0.034297068,0.006858567090993166,-0.0015590265,0.38938338538770007,0.013181895406795891,-0.002025269199924462,-0.1292561416014778
0.46,0.7857717330716675,0.7861622,-0.0396403156844226,-0.039763533,1.8151076760816574,1.8162415,-0.984950963836113,-0.98027873,-0.11432150898723994,-0.1135898,0.6153769962931406,0.5906863,0.02024708990808907,0.019597124,-0.2527269630049081,-0.25444913,-0.01472752400304927,-0.014667421,-0.044231985872863484,-0.05502142,0.1567258390969696,0.10630506,0.034858567090993164,-0.006559026,0.38938338538770007,0.013181895406795891,-0.002025269199924462,-0.1292561416014778
0.4699999999999998,0.7747717330716675,0.77592224,-0.0406403156844226,-0.04078353,1.8211076760816574,1.8212615,-1.009950963836113,-0.9882411,-0.11732150898723995,-0.11454002,0.6193769962931406,0.5302627,0.019890572409220427,0.01969836,-0.25275405821256985,-0.25113523,-0.011866038859017646,-0.014328618,-0.03323198587286348,-0.037897374,0.1487258390969696,0.1907097,0.04685856709099316,-0.012023807,0.06700602977619476,0.00913825460417134,0.04861942447521096,-0.4516334972129831
0.4799999999999996,0.7637717330716675,0.7646722,-0.04264031568442259,-0.04181353,1.8271076760816574,1.8273014,-1.034950963836113,-1.0132408,-0.11932150898723995,-0.11754456,0.6243769962931406,0.53426266,0.019866461811229082,0.019423645,-0.24993490372101723,-0.25124618,-0.011833419015723108,-0.011343103,-0.052231985872863484,-0.02691275,0.1317258390969696,0.18270953,0.049858567090993164,-2.3804605e-05,0.06700602977619476,0.00913825460417134,0.04861942447521096,-0.4516334972129831
0.4899999999999994,0.7527717330716674,0.7534222,-0.043640315684422594,-0.04383353,1.8331076760816574,1.8333515,-1.0599509638361129,-1.0788906,-0.12132150898723995,-0.12233637,0.6263769962931406,0.7017527,0.017006405453062992,0.019200506,-0.2499512794954176,-0.248601,-0.011481082828144265,-0.011282942,-0.10423198587286348,-0.049184542,0.1567258390969696,0.08401506,0.059858567090993166,0.089947864,0.9048331450581052,0.004453734881885538,-0.06818838814400013,0.38619361806892727
0.5,0.7417717330716674,0.74217224,-0.044640315684422595,-0.04485353,1.8371076760816574,1.8393714,-1.082950963836113,-1.1038889,-0.12232150898723995,-0.12384417,0.6153769962931406,0.7037613,0.016983975816147464,0.01578485,-0.24713266119138813,-0.24836245,-0.01145277737522911,-0.010825542,-0.12623198587286347,-0.10121327,0.1887258390969696,0.10897795,0.033858567090993164,0.09994787,0.9048331450581052,0.004453734881885538,-0.06818838814400013,0.38619361806892727
0.5099999999999998,0.7297717330716674,0.73094225,-0.0466403156844226,-0.045863528,1.8431076760816574,1.8432615,-1.107950963836113,-1.1082872,-0.12432150898723995,-0.12379399,0.6163769962931406,0.61966705,0.016983975816147464,0.0156041095,-0.24713266119138813,-0.24521321,-0.01145277737522911,-0.0110655045,-0.11323198587286348,-0.124495216,0.1457258390969696,0.22218028,0.050858567090993165,0.034787096,0.5275843467060796,0.0025768751885918775,0.04790225044606623,0.008944819716901642
0.5199999999999996,0.7177717330716674,0.71869224,-0.0476403156844226,-0.04788353,1.8491076760816574,1.8492714,-1.131950963836113,-1.1332872,-0.12532150898723995,-0.125794,0.6173769962931406,0.62066704,0.014104669566349426,0.01569559,-0.24433039611598797,-0.24565455,-0.011080604156064985,-0.010894138,-0.08923198587286348,-0.11150564,0.1467258390969696,0.17916512,0.043858567090993165,0.051787097,0.5275843467060796,0.0025768751885918775,0.04790225044606623,0.008944819716901642
0.5299999999999994,0.7057717330716674,0.7064522,-0.04864031568442259,-0.04889353,1.8511076760816574,1.8552814,-1.1539509638361132,-1.1547824,-0.12732150898723996,-0.12640326,0.5783769962931405,0.6126571,0.013760637247351324,0.013080943,-0.24434900914402022,-0.2428397,-0.008223617882949856,-0.010599768,-0.10823198587286348,-0.08410241,0.1807258390969696,0.119574696,0.06685856709099317,0.03993219,0.48081544459270503,0.00742924415174134,-0.03876899392716944,-0.037824082396472836
0.54,0.6927717330716674,0.6942322,-0.05064031568442259,-0.04991353,1.8561076760816575,1.8568915,-1.1779509638361128,-1.1649841,-0.12832150898723996,-0.12785953,0.5783769962931405,0.52540547,0.013744141131205947,0.012485243,-0.241531444613908,-0.24251439,-0.008201199405387011,-0.0074975765,-0.12423198587286348,-0.104205795,0.1927258390969696,0.18546735,0.04885856709099316,0.037141807,0.2323680500706939,0.0059338600058650905,0.006885999587746244,-0.286271476918484
0.5499999999999998,0.6847717330716674,0.68099225,-0.052640315684422595,-0.05192353,1.8691076760816574,1.8618915,-1.1739509638361127,-1.2239655,-0.13432150898723993,-0.13059312,0.6373769962931406,0.6707659,0.010527275842153537,0.012351513,-0.23592336628287494,-0.2395721,-0.004972481460489054,-0.0076629417,-0.13323198587286347,-0.12474561,0.1737258390969696,0.2146163,0.050858567090993165,0.09676957,0.9801821951839922,-0.0005970013659209773,0.0313919887538407,0.46154266819481427
0.5599999999999996,0.6717717330716674,0.6730322,-0.053640315684422596,-0.053983532,1.8771076760816574,1.8754815,-1.195950963836113,-1.2023231,-0.13532150898723994,-0.13546011,0.6423769962931406,0.6596513,0.010516678546707283,0.00904308,-0.23310741335827573,-0.23415644,-0.004955891834066536,-0.0044223685,-0.13023198587286347,-0.13105068,0.3597258390969696,0.16481362,0.025858567090993163,0.06123238,0.6185738942760803,0.003248272152046521,-0.012645548440025176,0.09993436728690241
0.5699999999999994,0.6587717330716675,0.6598122,-0.0556403156844226,-0.054993533,1.8831076760816574,1.8835313,-1.2189509638361131,-1.2379276,-0.13632150898723994,-0.13702723,0.6433769962931406,0.7245972,0.007656378886864434,0.009119737,-0.23029877294931503,-0.2294414,-0.0046160813159881985,-0.0046490175,-0.12123198587286348,-0.12385121,0.3677258390969696,0.30611706,0.029858567090993167,0.06814802,0.9260279264726166,0.00926032677934491,-0.07661136823097656,0.40738839948343863
0.5800000000000001,0.6457717330716675,0.64658225,-0.05664031568442259,-0.05700353,1.8891076760816574,1.8895414,-1.240950963836113,-1.2548437,-0.13732150898723994,-0.13736215,0.6443769962931406,0.70141846,0.007638339487874934,0.0063450187,-0.22466940315091918,-0.22655073,-0.004591431506651212,-0.0042773993,-0.07923198587286348,-0.123479545,0.3267258390969696,0.31532028,0.051858567090993166,0.059203725,0.8013311995328134,-0.0030537038912890994,-0.07488709875664987,0.2826916725436355
0.5899999999999999,0.6347717330716675,0.63336223,-0.05864031568442259,-0.058013532,1.8951076760816574,1.8955514,-1.2469509638361131,-1.2466084,-0.14032150898723994,-0.13748989,0.6483769962931406,0.5715252,0.004472841762270759,0.00670772,-0.22186762914893451,-0.22134122,-0.0014226282953116052,-0.0040257717,-0.10023198587286349,-0.0761731,0.28072583909696963,0.31383935,0.043858567090993165,0.011454683,0.12941542933368314,0.0046215841227491995,-0.018367681651286327,-0.38922409765549476
0.5999999999999996,0.6217717330716674,0.6223022,-0.059640315684422594,-0.060043532,1.9021076760816573,1.9015914,-1.268950963836113,-1.2632546,-0.14132150898723994,-0.14062999,0.6483769962931406,0.62399405,0.004469418014790306,0.0033502977,-0.2190542097338279,-0.21900651,-0.0014158667866659912,-0.00095357746,-0.11323198587286348,-0.09986816,0.23072583909696961,0.27200866,0.03985856709099316,0.029219722,0.3776186795053471,0.0007000154952982174,-0.012401404089678034,-0.14102084748383076
0.6099999999999994,0.6087717330716674,0.6090822,-0.061640315684422596,-0.06105353,1.9101076760816573,1.9085915,-1.2829509638361132,-1.3008052,-0.14232150898723994,-0.14193211,0.6583769962931406,0.6962132,0.004462662891682944,0.0032248788,-0.21342884739445583,-0.21670285,-0.001402396237748926,-0.000990964,-0.12423198587286348,-0.11434092,0.2417258390969696,0.20303504,0.05485856709099316,0.063575834,0.747115894733851,-0.0014515065921359774,-0.03953194502200426,0.22847636774467306
0.6200000000000001,0.6037717330716674,0.59594226,-0.0626403156844226,-0.06306353,1.9151076760816574,1.9166915,-1.2659509638361128,-1.3139999,-0.14032150898723994,-0.14293268,0.6423769962931406,0.70638484,0.0016168972728713082,0.0030760956,-0.20780735703908254,-0.21096599,-0.0010985739111612058,-0.00082148454,-0.09223198587286348,-0.12538241,0.1767258390969696,0.21401154,0.04785856709099316,0.078575835,0.747115894733851,-0.0014515065921359774,-0.03953194502200426,0.22847636774467306
0.6299999999999999,0.5897717330716674,0.59111226,-0.0636403156844226,-0.06404353,1.9211076760816574,1.9215314,-1.284950963836113,-1.2749407,-0.14032150898723994,-0.14038225,0.6383769962931406,0.58775836,0.0016148744114027258,0.00057584775,-0.20499636750280767,-0.20600577,-0.00109597571254628,-0.00059848715,-0.11423198587286348,-0.092255645,0.1807258390969696,0.16358013,0.04085856709099316,0.017074201,0.22208346931232048,8.965461943036268e-05,-0.01873389817680704,-0.2965560576768574
0.6399999999999997,0.5757717330716674,0.57692224,-0.06564031568442259,-0.06504353,1.9281076760816573,1.9274914,-1.3029509638361128,-1.301665,-0.14132150898723994,-0.14043608,0.6333769962931406,0.6222568,-0.001509355345792654,0.00036550357,-0.2049954550961654,-0.20315397,0.0020282532043322792,-0.0006691442,-0.12223198587286348,-0.11570656,0.23372583909696962,0.17597535,0.06185856709099317,0.030461626,0.41848234014470015,-0.0020008313804170466,-0.006725047944106957,-0.10015718684447772
0.6499999999999995,0.5597717330716674,0.56274223,-0.0676403156844226,-0.067053534,1.9351076760816575,1.9344414,-1.331950963836113,-1.319665,-0.14232150898723994,-0.14123088,0.6313769962931406,0.6172565,-0.0015060655337605006,-0.0028821158,-0.20218493162148815,-0.20261092,0.0020255410343642606,0.002666398,-0.12323198587286348,-0.123778775,0.1757258390969696,0.22894582,0.051858567090993166,0.05146163,0.41848234014470015,-0.0020008313804170466,-0.006725047944106957,-0.10015718684447772
0.6600000000000001,0.5457717330716675,0.5464522,-0.0686403156844226,-0.06906353,1.9411076760816575,1.9414215,-1.349950963836113,-1.370578,-0.14232150898723994,-0.14210868,0.6243769962931406,0.7254398,-0.004342720585802572,-0.002867258,-0.20218212623297224,-0.20039202,0.002307814068624858,0.0025607205,-0.18023198587286346,-0.12565255,0.2077258390969696,0.17024282,0.058858567090993165,0.09979174,0.9803958214905459,-0.0033283662854296375,-0.007747402411185614,0.461756294501368
0.6699999999999999,0.5297717330716675,0.5322722,-0.0706403156844226,-0.07006353,1.9481076760816574,1.9473515,-1.372950963836113,-1.3731124,-0.14232150898723994,-0.14187326,0.6253769962931406,0.6414996,-0.004338231595536874,-0.0062976736,-0.199372078909802,-0.20006108,0.0023010534124670665,0.0029083835,-0.14723198587286346,-0.21187922,0.14172583909696962,0.19622421,0.03085856709099316,0.066043824,0.5878574831980304,-0.04507705019479104,-0.01629245467333562,0.06921795620885252
0.6799999999999997,0.5147717330716675,0.51604223,-0.0716403156844226,-0.072063535,1.9541076760816574,1.9543614,-1.3909509638361128,-1.4086994,-0.14132150898723994,-0.14161949,0.6163769962931406,0.70768714,-0.007173684487836505,-0.0058996966,-0.1993688822053141,-0.19792546,0.0025792587062048607,0.0026142737,-0.16223198587286347,-0.14844106,0.1447258390969696,0.08737947,0.036858567090993166,0.07251602,0.9199395767358347,-0.0016651328986897265,-0.07764898171995194,0.4013000497466568
0.6899999999999995,0.5007717330716674,0.50086224,-0.0736403156844226,-0.07305353,1.9611076760816575,1.9602714,-1.4079509638361132,-1.4266998,-0.14132150898723994,-0.14011766,0.6093769962931406,0.69868475,-0.0071680324757007335,-0.008899245,-0.19655929171226477,-0.19789037,0.002568462908372805,0.0029503515,-0.13723198587286348,-0.16345087,0.16872583909696962,0.09036481,0.04085856709099316,0.078516014,0.9199395767358347,-0.0016651328986897265,-0.07764898171995194,0.4013000497466568
0.7000000000000002,0.48577173307166743,0.48669225,-0.0746403156844226,-0.075053535,1.9671076760816575,1.9672015,-1.424950963836113,-1.4371994,-0.14132150898723994,-0.14032215,0.6003769962931406,0.66104174,-0.0102655691054752,-0.00864523,-0.19373214397293745,-0.19483583,0.005660813311909301,0.0029791323,-0.14423198587286346,-0.14087836,0.1917258390969696,0.14981648,0.018858567090993164,0.066253275,0.7632751989224525,-0.0051136718473431195,-0.02695851097912641,0.24463567193327462
0.71,0.4787717330716674,0.47152224,-0.0756403156844226,-0.07605354,1.9701076760816574,1.9731114,-1.4159509638361132,-1.4443374,-0.13932150898723994,-0.14039606,0.5793769962931405,0.6030083,-0.010254811940921746,-0.011768447,-0.19092348654852326,-0.19177544,0.005644871642610417,0.0058349837,-0.13023198587286347,-0.14911471,0.23072583909696961,0.15642384,0.010858567090993166,0.018285481,0.5131187939480114,-0.006929495453049991,-0.0504421456781422,-0.0055207330411665145
0.7199999999999998,0.4637717330716674,0.46461225,-0.07764031568442259,-0.07703353,1.9721076760816574,1.9759015,-1.4309509638361129,-1.4216251,-0.13832150898723994,-0.13904648,0.5553769962931406,0.5112036,-0.013074923896436129,-0.0115983,-0.18810749359714243,-0.18857014,0.005890967503990245,0.0057318024,-0.10723198587286348,-0.13628781,0.3047258390969696,0.2124035,0.024858567090993162,-0.027163012,0.15236499826631453,-0.008623246883583294,-0.026180300862394895,-0.36627452872286337
0.7299999999999995,0.4717717330716674,0.44946223,-0.08064031568442259,-0.07902353,1.9871076760816575,1.9776614,-1.3629509638361128,-1.4499737,-0.14232150898723994,-0.13710225,0.5843769962931405,0.55913186,-0.013005849531859499,-0.014207022,-0.17126707670168376,-0.18499777,0.005772596196649486,0.0061063077,-0.12023198587286348,-0.11419322,0.3477258390969696,0.3178371,0.034858567090993164,0.02482562,0.5183221204147849,-0.009843968635319007,0.018788036667169453,-0.0003174065743930532
0.7400000000000002,0.4577717330716674,0.45814225,-0.08164031568442259,-0.08206353,1.9931076760816575,1.9929514,-1.376950963836113,-1.3802887,-0.14132150898723994,-0.14109746,0.5743769962931405,0.58842814,-0.016051773495428613,-0.014282809,-0.1684314419974577,-0.16771826,0.008810117954660976,0.0060846577,-0.12123198587286348,-0.12723963,0.3277258390969696,0.36082155,0.026858567090993164,0.034825616,0.5183221204147849,-0.009843968635319007,0.018788036667169453,-0.0003174065743930532
0.75,0.4627717330716674,0.4440022,-0.0826403156844226,-0.08305354,1.9991076760816575,1.9988514,-1.316950963836113,-1.4035113,-0.13832150898723994,-0.13901024,0.5643769962931406,0.6353885,-0.01597233816940516,-0.017323378,-0.15441077661908176,-0.16508693,0.008688523414331453,0.00903203,-0.15823198587286347,-0.1272454,0.23372583909696962,0.3128313,-0.00014143290900683458,0.05679296,0.8070075556783844,-0.00847065666461633,-0.021251636789761955,0.2883680286892065
0.7599999999999998,0.44877173307166746,0.44960225,-0.0846403156844226,-0.08402353,2.004107676081657,2.0047514,-1.3299509638361129,-1.3413202,-0.13732150898723994,-0.13600086,0.5543769962931406,0.6257334,-0.018790846029333466,-0.01757864,-0.15439880458084662,-0.152029,0.008902465735801153,0.00864737,-0.19023198587286347,-0.16415519,0.0957258390969696,0.21886478,-0.00014143290900683458,0.02979296,0.8070075556783844,-0.00847065666461633,-0.021251636789761955,0.2883680286892065
0.7699999999999996,0.43377173307166744,0.43547225,-0.0866403156844226,-0.08601353,2.0141076760816574,2.0096514,-1.344950963836113,-1.3543215,-0.13732150898723994,-0.13455985,0.5633769962931406,0.61572635,-0.018774371203320508,-0.020726373,-0.15159578321967226,-0.15342341,0.008874406266781425,0.008881862,-0.17823198587286346,-0.19615537,-0.1682741609030304,0.08086483,-0.009141432909006835,0.02979296,0.8070075556783844,-0.00847065666461633,-0.021251636789761955,0.2883680286892065
0.7799999999999994,0.41977173307166743,0.4203222,-0.0876403156844226,-0.08801353,2.0111076760816573,2.0197415,-1.3559509638361131,-1.3688829,-0.13632150898723994,-0.13455795,0.5173769962931406,0.62479174,-0.021626914579942903,-0.020581793,-0.1571898519190304,-0.15331274,0.00914849949241501,0.008813754,-0.14823198587286346,-0.18417123,-0.47227416090303037,-0.18311882,0.007858567090993165,0.020792961,0.8070075556783844,-0.00847065666461633,-0.021251636789761955,0.2883680286892065
0.79,0.4057717330716674,0.4062122,-0.0896403156844226,-0.08900353,2.016107676081657,2.0162814,-1.368950963836113,-1.3576882,-0.13432150898723993,-0.1360974,0.5043769962931406,0.43043667,-0.021644586055961947,-0.02316739,-0.15999354550035252,-0.16200216,0.009180690713602604,0.009336827,-0.11723198587286349,-0.15283714,-0.6092741609030303,-0.49996278,0.006858567090993166,-0.040113583,0.05650782271126763,-0.00663957403701276,-0.03957772208769435,-0.4621317042779102
0.7999999999999998,0.3907717330716674,0.3920822,-0.0906403156844226,-0.09098353,2.021107676081657,2.0211513,-1.381950963836113,-1.370719,-0.13332150898723993,-0.13409753,0.4903769962931406,0.41743192,-0.02452185452954342,-0.022873158,-0.16839402195987435,-0.16620308,0.009511587425491385,0.009389103,-0.10823198587286348,-0.121832386,-0.7152741609030303,-0.6369591,0.0048585670909931655,-0.04111358,0.05650782271126763,-0.00663957403701276,-0.03957772208769435,-0.4621317042779102
0.8099999999999996,0.37677173307166745,0.37695223,-0.09164031568442259,-0.09197353,2.028107676081657,2.0260115,-1.3959509638361132,-1.383811,-0.13132150898723996,-0.13306709,0.4923769962931406,0.4034165,-0.02456054546767658,-0.025664896,-0.1740047118889828,-0.17568497,0.009584748447851744,0.009744212,-0.11823198587286349,-0.112839565,-0.6002741609030303,-0.7429563,0.03885856709099316,-0.04311358,0.05650782271126763,-0.00663957403701276,-0.03957772208769435,-0.4621317042779102
0.8199999999999994,0.36177173307166743,0.36281222,-0.09364031568442259,-0.09295353,2.033107676081657,2.0330315,-1.408950963836113,-1.3978723,-0.12932150898723996,-0.13106737,0.4763769962931406,0.40540624,-0.027427491247769355,-0.025862394,-0.17960362470617577,-0.18011472,0.009908098819335463,0.010140664,-0.12923198587286347,-0.1226369,-0.46927416090303037,-0.62799776,-0.0021414329090068346,-0.009113584,0.05650782271126763,-0.00663957403701276,-0.03957772208769435,-0.4621317042779102
0.8300000000000001,0.3467717330716674,0.34768224,-0.09464031568442259,-0.094933525,2.033107676081657,2.0378716,-1.421950963836113,-1.4109336,-0.12832150898723996,-0.12903681,0.4283769962931406,0.3893949,-0.027469687823315186,-0.028765175,-0.18521743587899447,-0.18438815,0.009990074744244928,0.010020113,-0.14723198587286346,-0.13388531,-0.3152741609030304,-0.49694806,0.03185856709099316,-0.05011358,0.05650782271126763,-0.00663957403701276,-0.03957772208769435,-0.4621317042779102
0.8399999999999999,0.3317717330716674,0.33255222,-0.09664031568442259,-0.09592353,2.038107676081657,2.0373914,-1.436950963836113,-1.4494439,-0.12532150898723995,-0.12449597,0.4123769962931406,0.47967947,-0.030322018590667275,-0.029047491,-0.1880111141276411,-0.1884224,0.010293086807784908,0.010410955,-0.15523198587286346,-0.15245542,-0.11627416090303039,-0.34871823,0.024858567090993162,0.056923807,0.7601013223679397,-0.007616151438401331,-0.04775655782432364,0.24146179537876178
0.8499999999999996,0.31677173307166745,0.3174022,-0.0976403156844226,-0.097893536,2.041107676081657,2.0422313,-1.4519509638361128,-1.4648564,-0.12332150898723995,-0.12108324,0.3963769962931406,0.463593,-0.030322018590667275,-0.03195863,-0.1880111141276411,-0.18918857,0.010293086807784908,0.010587635,-0.14923198587286346,-0.16052845,-0.0012741609030303897,-0.14970976,0.009858567090993165,0.049923807,0.7601013223679397,-0.007616151438401331,-0.04775655782432364,0.24146179537876178
0.8599999999999994,0.30077173307166744,0.30225223,-0.0986403156844226,-0.098873526,2.049107676081657,2.0450714,-1.4679509638361128,-1.4692227,-0.12132150898723995,-0.12069829,0.4133769962931406,0.39069417,-0.03315302134889103,-0.03186196,-0.18799689799501923,-0.18802112,0.010554937187792988,0.01039567,-0.15323198587286346,-0.18315516,0.09872583909696961,-0.04280573,-0.019141432909006835,0.0048566684,0.47045456872484814,-0.048510330121547734,-0.059368673487709606,-0.048184958264329725
0.8700000000000001,0.2857717330716674,0.28609222,-0.0996403156844226,-0.09985353,2.053107676081657,2.0532415,-1.482950963836113,-1.4746188,-0.11832150898723995,-0.12020974,0.3983769962931406,0.35095122,-0.03312940264576291,-0.034672294,-0.1851894766890491,-0.18699744,0.010505729598572452,0.010322512,-0.15723198587286347,-0.16128103,0.0897258390969696,0.0078021362,-0.008141432909006836,-0.054126523,0.18161654324228158,-0.011537720065852311,-0.13006372193510413,-0.3370229837468963
0.8799999999999999,0.2697717330716674,0.2709422,-0.1016403156844226,-0.10082353,2.057107676081657,2.0570915,-1.497950963836113,-1.4895205,-0.11632150898723995,-0.11720923,0.3833769962931406,0.3359692,-0.03595933451681829,-0.03471117,-0.18517495802215178,-0.18427803,0.010763533154082024,0.010390449,-0.16223198587286347,-0.16529286,0.1467258390969696,-0.0012147501,-0.0011414329090068346,-0.04312652,0.18161654324228158,-0.011537720065852311,-0.13006372193510413,-0.3370229837468963
0.8899999999999997,0.25377173307166745,0.2547922,-0.1026403156844226,-0.10280353,2.058107676081657,2.0609415,-1.5119509638361128,-1.5048723,-0.11332150898723994,-0.11504531,0.3493769962931406,0.32287604,-0.03595933451681829,-0.037600774,-0.18517495802215178,-0.18368055,0.010763533154082024,0.010696822,-0.13623198587286348,-0.17005318,0.1447258390969696,0.040835172,-0.004141432909006835,-0.035117522,0.1913365401904772,-0.011186762562228295,-0.15142635259047912,-0.3273029867987007
0.8999999999999995,0.22877173307166745,0.23865221,-0.1026403156844226,-0.103773534,2.0711076760816574,2.0616014,-1.578950963836113,-1.5188724,-0.10332150898723995,-0.1120453,0.3943769962931406,0.28887606,-0.039076665924577904,-0.03733034,-0.18791322274619737,-0.18370196,0.01390875732455951,0.010666699,-0.09823198587286348,-0.14404878,0.2577258390969696,0.038839057,0.014858567090993166,-0.03811752,0.1913365401904772,-0.011186762562228295,-0.15142635259047912,-0.3273029867987007
0.9100000000000001,0.21177173307166747,0.21298222,-0.1036403156844226,-0.10367353,2.0761076760816572,2.0750513,-1.5979509638361131,-1.585978,-0.10232150898723995,-0.10195115,0.3853769962931406,0.33385321,-0.03904677938346606,-0.04008677,-0.1851060112824096,-0.18528181,0.013850369393874764,0.013958845,-0.05723198587286348,-0.106093995,0.2737258390969696,0.15181838,-0.026141432909006834,-0.019117523,0.1913365401904772,-0.011186762562228295,-0.15142635259047912,-0.3273029867987007
0.9199999999999999,0.19377173307166745,0.19579221,-0.1056403156844226,-0.104663536,2.0801076760816573,2.0799615,-1.6139509638361131,-1.6010767,-0.09932150898723995,-0.1017025,0.3673769962931406,0.30425054,-0.041846049828815825,-0.039561704,-0.18228017230086654,-0.18232779,0.01404579254275682,0.013470295,-0.02723198587286348,-0.0635413,0.3247258390969696,0.1873545,-0.034141432909006834,-0.07101215,0.08638498758499921,-0.009126794606174278,-0.12353286056331805,-0.4322545394041787
0.9299999999999997,0.17677173307166746,0.17763223,-0.1066403156844226,-0.10663353,2.0831076760816574,2.0837815,-1.6289509638361128,-1.6306916,-0.09632150898723994,-0.09569821,0.3493769962931406,0.36159244,-0.04181559991984902,-0.042036593,-0.1794738793824244,-0.17898694,0.01398368101122234,0.013554125,-0.021231985872863478,-0.032754224,0.4297258390969696,0.27893984,0.008858567090993166,-0.039227284,0.46964584056432324,-0.008058663073405529,-0.06548754126828488,-0.04899368642485463
0.9399999999999995,0.15977173307166745,0.16048223,-0.10764031568442259,-0.107603535,2.086107676081657,2.0866015,-1.6419509638361132,-1.6431243,-0.09332150898723994,-0.09320504,0.3313769962931406,0.33067995,-0.041514174951834244,-0.042015795,-0.1739202899123595,-0.17509341,0.011035246374484635,0.013892307,-0.05023198587286348,-0.027247742,0.6217258390969697,0.43719628,-0.006141432909006835,-0.003066915,0.4037573840143881,-0.008546951774099813,0.010685496040023654,-0.11488214297478977
0.9500000000000002,0.15177173307166747,0.14335223,-0.10764031568442259,-0.10857353,2.0871076760816574,2.0894215,-1.6169509638361128,-1.6556824,-0.08832150898723995,-0.09018317,0.29637699629314057,0.3127561,-0.04141327690580658,-0.041971255,-0.16270207139637158,-0.16759135,0.010793478969869066,0.010708567,-0.05323198587286348,-0.05616989,0.6297258390969697,0.62920135,-0.03814143290900684,-0.018066915,0.4037573840143881,-0.008546951774099813,0.010685496040023654,-0.11488214297478977
0.96,0.13877173307166746,0.13560224,-0.10764031568442259,-0.10852353,2.089107676081657,2.0900714,-1.6179509638361131,-1.638756,-0.08332150898723995,-0.08299044,0.2713769962931406,0.333332,-0.041126820806318444,-0.04185277,-0.1543494161406556,-0.15630548,0.007795621285007782,0.010134841,-0.03823198587286348,-0.059956018,0.8067258390969697,0.6528621,0.012858567090993164,-0.020888392,0.6848438263734329,-0.009966040810492582,0.03305522214058061,0.16620429938425496
0.9699999999999998,0.12177173307166747,0.12259222,-0.10864031568442259,-0.10847353,2.0921076760816573,2.0918214,-1.6289509638361128,-1.6186123,-0.07932150898723994,-0.08314993,0.2503769962931406,0.17760143,-0.04388447148220645,-0.04148615,-0.14593218799395297,-0.14613011,0.007821364933538914,0.007591152,-0.04123198587286348,-0.046256844,0.8297258390969696,0.80817497,-0.018141432909006834,-0.038706053,0.021900361049560137,-0.011324093759298562,0.0020794076902868747,-0.49673916593961776
0.9799999999999995,0.10677173307166746,0.10548222,-0.10964031568442259,-0.10943353,2.0881076760816573,2.0946116,-1.635950963836113,-1.6494558,-0.07732150898723994,-0.07330206,0.21837699629314056,0.2941533,-0.043825582535200074,-0.044227444,-0.13752874542251958,-0.13749345,0.007634136567671497,0.0072658365,-0.00823198587286348,-0.048879873,0.8147258390969696,0.7921331,0.026858567090993164,0.0025250874,0.7177270185608137,-0.011156244518434902,-0.05376861245162204,0.19908749157163574
0.9900000000000002,0.08977173307166744,0.09041222,-0.11064031568442259,-0.11041353,2.0921076760816573,2.0902913,-1.6449509638361128,-1.6368265,-0.07332150898723995,-0.07704869,0.20837699629314058,0.12670979,-0.04376912507018596,-0.043898273,-0.1291281656385686,-0.12922318,0.007447784996796909,0.0075495834,-0.04323198587286348,-0.015563378,0.8217258390969696,0.78772974,0.025858567090993163,-0.023605185,0.03250538126776415,-0.010164408095149634,-0.03860114468630578,-0.4861341457214137
1.0,0.06377173307166745,0.07332222,-0.11164031568442259,-0.11137353,2.0961076760816573,2.0941916,-1.667950963836113,-1.6590106,-0.07032150898723995,-0.0686547,0.19437699629314056,0.22035614,-0.04373282679382201,-0.04419747,-0.12352927147144634,-0.12075219,0.007324016716418176,0.007348967,-0.04023198587286348,-0.052957803,0.6287258390969697,0.8282798,0.009858567090993165,0.029700037,0.5556456879741043,-0.013597688021906331,0.009388479178804462,0.03700616098492637
1.0099999999999998,0.041771733071667455,0.04709222,-0.11264031568442259,-0.112343535,2.093107676081657,2.0980515,-1.682950963836113,-1.6769323,-0.06732150898723994,-0.06720475,0.16937699629314057,0.16980946,-0.04386000201401744,-0.04412173,-0.11787109237925224,-0.11712475,0.010007849606752092,0.007147019,-0.06523198587286348,-0.04899317,0.5727258390969696,0.5971716,-0.010141432909006834,-0.005475643,0.3709199688926974,-0.0124380023577574,-0.04511674703619514,-0.14771955809648046
1.0199999999999996,0.023771733071667453,0.024942223,-0.1136403156844226,-0.113313526,2.0951076760816574,2.0948014,-1.691950963836113,-1.7022454,-0.06432150898723994,-0.060336903,0.14937699629314058,0.2367174,-0.04366342597262511,-0.044484135,-0.11233486991682588,-0.11204561,0.007077544605668827,0.009649389,-0.020231985872863477,-0.072152615,0.5417258390969697,0.58243513,0.0008585670909931654,0.02259503,0.8340007654136404,-0.009981299832389278,0.013874631616433208,0.3153612384244625
1.0299999999999994,0.013771733071667451,0.0068522245,-0.1136403156844226,-0.11428353,2.0991076760816574,2.0966015,-1.682950963836113,-1.6996576,-0.06032150898723995,-0.06137968,0.13737699629314057,0.12070669,-0.04361415055608063,-0.04384477,-0.10394183116864501,-0.106820084,0.006893574204724246,0.0068479776,-0.01323198587286348,-0.026960569,0.5277258390969697,0.5129925,0.005858567090993165,-0.016669458,0.3497862235657728,-0.009615083306868562,-0.0410883652554673,-0.16885330342340504
1.04,-0.0012282669283325484,-0.003057776,-0.1146403156844226,-0.11424353,2.093107676081657,2.1004815,-1.683950963836113,-1.690085,-0.05632150898723995,-0.057377744,0.10637699629314058,0.10876626,-0.04358261419105479,-0.043731805,-0.09834770870317998,-0.09856757,0.006771326052847952,0.00672194,-0.017231985872863478,-0.019987386,0.6437258390969697,0.4989919,0.03185856709099316,-0.011669459,0.3497862235657728,-0.009615083306868562,-0.0410883652554673,-0.16885330342340504
1.0499999999999998,-0.01822826692833255,-0.018067777,-0.1146403156844226,-0.11520353,2.094107676081657,2.0941715,-1.690950963836113,-1.692172,-0.053321508987239946,-0.05273579,0.08737699629314058,0.092928946,-0.04633964222286972,-0.043762185,-0.08994916776577064,-0.0917817,0.006712322566051206,0.006814754,-0.029231985872863478,-0.025488365,0.7807258390969697,0.61018527,0.026858567090993164,0.022229858,0.4258829657645979,-0.011507202022058918,-0.047954925108980695,-0.09275656122457998
1.0599999999999996,-0.035228266928332544,-0.035137776,-0.1156403156844226,-0.11517353,2.0951076760816574,2.0949814,-1.6979509638361128,-1.707831,-0.050321508987239943,-0.044748507,0.06737699629314058,0.1793261,-0.046295100032965254,-0.04663003,-0.0815618680768007,-0.08199163,0.006518551254946906,0.0066225817,-0.03423198587286348,-0.20692156,0.8347258390969696,0.7302059,0.019858567090993165,0.07221144,0.9555388748208274,-0.25378995169780466,-0.0722320289466247,0.4368993478316495
1.0699999999999994,-0.053228266928332546,-0.052207775,-0.1156403156844226,-0.116143525,2.0961076760816573,2.0957816,-1.703950963836113,-1.710155,-0.046321508987239954,-0.04348524,0.050376996293140575,0.12083947,-0.04626677929361572,-0.046629988,-0.07597132975349448,-0.073058404,0.00638972376687889,0.006332455,-0.0012319858728634795,-0.037144914,0.7677258390969697,0.8044812,0.012858567090993164,0.045071114,0.7615204114043325,-0.003923468139400796,-0.04323988734290149,0.24288088441515454
1.08,-0.07122826692833255,-0.070267774,-0.1166403156844226,-0.11610353,2.0961076760816573,2.0966115,-1.7099509638361128,-1.7069241,-0.04332150898723995,-0.044533454,0.03237699629314057,-0.0080799125,-0.04622634913224919,-0.046263658,-0.06758688662267454,-0.06815292,0.006196981864602709,0.006164984,-0.01023198587286348,-0.0066160727,0.8227258390969696,0.7432288,0.018858567090993164,-0.020311274,0.19910338233589567,-0.007555115350814545,-0.035030533562478816,-0.3195361446532822
1.0899999999999999,-0.09622826692833256,-0.08832777,-0.14564031568442262,-0.11707353,2.102107676081657,2.0964315,-1.747950963836113,-1.7195928,-0.17732150898723995,-0.03680341,0.051376996293140575,0.07879129,-0.029839492387416504,-0.046319176,-0.061841695754030736,-0.059206326,0.019542174176490033,0.0060080118,-0.02323198587286348,-0.011288058,0.8147258390969696,0.8081934,0.04785856709099316,0.040321827,0.725402306574852,-0.0012836573512723173,-0.020778607110964367,0.20676277958567413
1.0999999999999996,-0.11422826692833254,-0.11370777,-0.1476403156844226,-0.14741352,2.0921076760816573,2.1026216,-1.7509509638361132,-1.7503414,-0.17532150898723994,-0.17622307,-0.019623003706859425,-0.007748794,-0.02967834298001293,-0.030090176,-0.05349981529030447,-0.05353236,0.016618565856801933,0.01978593,-0.09423198587286348,-0.0313783,0.8617258390969696,0.7499039,-0.13514143290900685,0.014310151,0.19545647610258524,-0.01107994940895142,-0.09267911828819791,-0.3231830508865926
1.1099999999999994,-0.12422826692833255,-0.13173777,-0.1586403156844226,-0.14939353,2.0991076760816574,2.0919116,-1.720950963836113,-1.7593337,-0.21132150898723995,-0.17084514,0.007376996293140575,0.040327035,-0.026868135982699357,-0.03055962,-0.03947959920890343,-0.044767264,0.02194440177001247,0.014981352,-0.16423198587286347,-0.10039641,0.8277258390969696,0.84121114,-0.11614143290900683,-0.10673716,0.7922673405261758,-0.010515365598773651,-0.029522026657771414,0.27362781353699783
1.12,-0.14222826692833254,-0.14143778,-0.1606403156844226,-0.16075352,2.0991076760816574,2.0991814,-1.7229509638361131,-1.7239873,-0.20932150898723995,-0.20934847,-0.009623003706859425,-0.013539055,-0.02673114097351632,-0.02849239,-0.03113646377458222,-0.031084422,0.019036593854229292,0.020532202,-0.3652319858728635,-0.17445599,0.8927258390969697,0.7579561,-0.13514143290900685,-0.12984255,0.3866520204681914,-0.01602387250348106,-0.10004922586430226,-0.13198750652098645
1.13,-0.16022826692833253,-0.15945777,-0.1636403156844226,-0.16273353,2.0991076760816574,2.0990114,-1.7259509638361128,-1.7261069,-0.20732150898723994,-0.20671196,-0.026623003706859424,-0.0061313733,-0.03223717824182092,-0.030409137,-0.022705248676403122,-0.022086382,0.018986759837783505,0.017405447,-0.6032319858728634,-0.37457618,1.0047258390969696,0.8416081,-0.03914143290900684,-0.13616437,0.5087852317293496,-0.015123590211575968,-0.07381896722388112,-0.009854295259828283
1.1399999999999997,-0.17822826692833255,-0.17748778,-0.1656403156844226,-0.16571353,2.093107676081657,2.0988414,-1.7269509638361131,-1.7282758,-0.20632150898723994,-0.2041468,-0.07462300370685943,-0.023127237,-0.0377239399656715,-0.038369313,-0.01432698308596715,-0.012492426,0.01609904497684558,0.018234182,-0.8362319858728634,-0.61340636,0.9747258390969696,0.95334524,-0.05314143290900684,-0.04016437,0.5087852317293496,-0.015123590211575968,-0.07381896722388112,-0.009854295259828283
1.1499999999999995,-0.19622826692833253,-0.19549778,-0.16764031568442261,-0.16770352,2.0921076760816573,2.0923615,-1.727950963836113,-1.7285959,-0.20332150898723994,-0.20218645,-0.09362300370685941,-0.060456555,-0.04601414750386825,-0.046233866,-0.003091566671705752,-0.0044304794,0.015904222276087628,0.015149783,-1.0372319858728634,-0.8452867,1.0037258390969697,0.9755026,-0.007141432909006835,-0.0486141,0.5622528444553738,-0.013704501175183206,0.0004619513692370597,0.0436133174661959
1.1600000000000001,-0.21422826692833255,-0.21350777,-0.16964031568442262,-0.16967353,2.0911076760816574,2.0911715,-1.727950963836113,-1.7284731,-0.19932150898723994,-0.19701861,-0.11262300370685942,-0.052149203,-0.05712373887072293,-0.056581795,0.005371082090357576,0.0071145836,0.01568576210948203,0.015317736,-1.1032319858728634,-1.0479375,1.0047258390969696,0.9785257,-0.018141432909006834,0.011602134,0.6992025659782243,-0.015413511627613206,-0.036144442160937665,0.18056303898904635
1.17,-0.23922826692833254,-0.23150778,-0.17064031568442262,-0.17163353,2.0881076760816573,2.0899813,-1.763950963836113,-1.7274104,-0.19032150898723996,-0.19242777,-0.12262300370685943,-0.088110685,-0.07106844256046267,-0.06837136,0.010963485468915297,0.015573537,0.012662536967931508,0.01487216,-1.0422319858728635,-1.1136005,0.9077258390969697,0.96665746,-0.005141432909006835,-0.008181042,0.6145912895610426,-0.015093072167782575,-0.05472993083111391,0.09595176257186466
1.1799999999999997,-0.25822826692833256,-0.25686777,-0.17264031568442262,-0.17254354,2.0871076760816574,2.0868814,-1.7629509638361132,-1.7633703,-0.18432150898723995,-0.18621229,-0.13962300370685943,-0.162044,-0.07939079465343203,-0.081697784,0.02217869399789373,0.02017903,0.012182647815864011,0.011918161,-0.9302319858728635,-1.0506262,0.9197258390969697,0.8591573,0.012858567090993164,-0.028419308,0.29439597408076484,-0.012071785832236687,-0.06953118207090944,-0.22424355290841302
1.1899999999999995,-0.2782282669283326,-0.27585778,-0.17164031568442262,-0.17448352,2.0911076760816574,2.0857115,-1.767950963836113,-1.7587996,-0.16632150898723994,-0.1687098,-0.11962300370685942,-0.038565747,-0.09053329260366993,-0.088884816,0.030615992501528723,0.031525403,0.011689298220351859,0.011540535,-0.7632319858728634,-0.93734336,0.9907258390969697,0.87914354,0.010858567090993166,0.064398475,1.0151406143493236,-0.009996558854285974,-0.057858030319936665,0.49650108736014575
1.2000000000000002,-0.2962282669283326,-0.29590777,-0.17164031568442262,-0.17330353,2.089107676081657,2.0899115,-1.764950963836113,-1.7658486,-0.15232150898723995,-0.15984261,-0.13962300370685943,-0.1453452,-0.09887936407554847,-0.09833861,0.041823384325312074,0.04067393,0.011022427069023259,0.010865147,-0.6022319858728634,-0.7705672,1.0977258390969697,0.9173688,-0.0011414329090068346,-0.00521061,0.36383978273263023,-0.010332257336013295,-0.10477952265227816,-0.15479974425654763
1.21,-0.30422826692833255,-0.31387776,-0.17064031568442262,-0.17316353,2.0911076760816574,2.0877116,-1.727950963836113,-1.757092,-0.13432150898723993,-0.13309821,-0.13862300370685943,-0.041420348,-0.10715858660951899,-0.105069324,0.05596333692154945,0.05294725,0.012909236859476,0.009892605,-0.5222319858728635,-0.60875094,1.1537258390969696,1.0151451,0.007858567090993165,0.047578983,0.987979555373204,-0.009340420912728027,-0.11810064876809415,0.4693400283840261
1.2199999999999998,-0.32322826692833256,-0.32150778,-0.17164031568442262,-0.17198354,2.090107676081657,2.0897214,-1.723950963836113,-1.7178038,-0.12632150898723996,-0.11418999,-0.15362300370685944,-0.04764597,-0.11281830830565105,-0.11255398,0.0670025461937327,0.06765536,0.00934663380113584,0.011722261,-0.41023198587286347,-0.530521,1.0757258390969697,1.0758232,-0.030141432909006838,0.052956417,0.9530821722954593,-0.011720828328612667,-0.11134090206785763,0.4344426453062814
1.2299999999999995,-0.3402282669283326,-0.34046778,-0.17364031568442262,-0.17290354,2.0881076760816573,2.0885715,-1.7179509638361128,-1.7218194,-0.11732150898723995,-0.12263813,-0.16962300370685943,-0.21886247,-0.11561525986352236,-0.11711036,0.0781748441489708,0.07785546,0.008621901742242357,0.0078040524,-0.3572319858728635,-0.41745707,1.1557258390969696,1.0525182,-0.019141432909006835,-0.06676277,0.16585397362299417,-0.010805287014810882,-0.03336730017573891,-0.35278555336618367
