t,x,x_pred,y,y_pred,z,z_pred,vx,vx_pred,vy,vy_pred,vz,vz_pred,roll,roll_pred,pitch,pitch_pred,yaw,yaw_pred,wx,wx_pred,wy,wy_pred,wz,wz_pred
0.010000000000000595,0.040814882471234354,0.26087817549705505,0.030749349959120147,-0.09128998219966888,0.5504163619278395,0.9590670466423035,-0.02026353729671384,-0.6735510230064392,0.003476423706429513,-0.5700178146362305,0.02014457531136217,0.36004528403282166,-0.0006587936345700768,0.029367874891081943,0.002598022348294552,0.08068250233700988,0.006550805527485434,-0.04769437012917469,0.07648297731189137,0.45951199531555176,0.12864774024355513,-0.22072117030620575,-0.06201173034599548,0.19042818248271942
0.020000000000000382,0.040814882471234354,0.07080069184303284,0.030749349959120147,-0.26629045605659485,0.5554163619278395,0.6707097887992859,-0.02026353729671384,-0.4343208372592926,0.003476423706429513,-0.1829456388950348,0.047144575311362166,0.2924288511276245,0.0021479540459763513,0.07150828519918537,0.005397172134307435,0.06519893040232465,0.003752138986982741,-0.020264661918948955,0.22748297731189138,0.37484586238861084,0.6636477402435551,-0.13782642781734467,-0.0010117303459954872,0.08593592792749405
0.030000000000000613,0.040814882471234354,-0.005840940400958061,0.030749349959120147,-0.26547151803970337,0.5574163619278395,0.6185998916625977,-0.018263537296713837,-0.14005842804908752,0.003476423706429513,-0.0063585638999938965,0.08414457531136217,0.2910481095314026,0.0021634505061263404,0.0516668183184787,0.013812900980751448,0.023266528869653677,0.003761159971069292,-0.004842874034988148,0.10548297731189137,0.3328930139541626,1.5026477402435552,-0.33099955320358276,0.010988269654004512,0.028301192447543144
0.040000000000000396,0.040814882471234354,-0.023100897669792175,0.030749349959120147,-0.20575527846813202,0.5584163619278395,0.5518341660499573,-0.015263537296713838,-0.025756455957889557,0.004476423706429513,0.07513558864593506,0.12914457531136217,0.2619282007217407,0.002194795831947493,0.03264016560883235,0.03064589882080556,0.013108096874707048,0.0037797972196186675,-0.008685526760095213,-0.02051702268810863,0.20343588292598724,1.4906477402435552,-0.37256866693496704,0.001988269654004513,-0.04484141245484352
0.05000000000000063,0.040814882471234354,-0.0810316950082779,0.030749349959120147,-0.16125956177711487,0.5524163619278395,0.509968101978302,-0.010263537296713839,0.10897122323513031,0.003476423706429513,0.13119423389434814,0.14014457531136215,0.26269015669822693,0.0022159641542880107,0.009220665439667337,0.04186957206029132,0.013935637570901369,0.003792669152497534,-0.016284591178785106,-0.07751702268810863,0.17409393191337585,0.6746477402435551,-0.4753873944282532,0.002988269654004513,-0.03948138281702995
0.060000000000000414,0.040814882471234354,-0.10751460492610931,0.030749349959120147,-0.1296089142560959,0.5574163619278395,0.4774072766304016,-0.006263537296713839,0.16884398460388184,0.003476423706429513,0.1578073501586914,0.20814457531136216,0.24977368116378784,0.0022915199969197365,-0.006563387552685687,0.04747909568106647,0.022066880658402673,0.006606897804907857,-0.02160837404699292,0.09648297731189137,0.12749288976192474,0.14964774024355512,-0.529741644859314,0.03198826965400452,-0.046447474509477615
0.0700000000000002,0.041814882471234355,-0.11792472004890442,0.030749349959120147,-0.11101458966732025,0.5624163619278395,0.4523141086101532,0.0007364627032861604,0.19387787580490112,0.002476423706429513,0.16685685515403748,0.27514457531136216,0.2351129651069641,0.005108648328716807,-0.016464959214673718,0.0502765181979568,0.030563160228792862,0.006679235759565779,-0.02455333376360616,0.3014829773118914,0.08247800171375275,0.33164774024355514,-0.5601628422737122,-0.030011730345995486,-0.055415067821741104
0.08000000000000043,0.041814882471234355,-0.1213444173336029,0.030749349959120147,-0.10119517892599106,0.5654163619278395,0.4322836697101593,0.00873646270328616,0.20348915457725525,0.0014764237064295131,0.16636976599693298,0.34114457531136216,0.22186851501464844,0.007859894505429217,-0.022436637374954025,0.05589129437765196,0.03739569533405118,0.003962102750038273,-0.026041740776850276,0.16648297731189138,0.04416479170322418,0.8826477402435551,-0.5785011649131775,-0.0010117303459954872,-0.06337089836597443
0.09000000000000022,0.041814882471234355,-0.08005112409591675,0.030749349959120147,-0.07900957018136978,0.5694163619278394,0.36192986369132996,0.01873646270328616,0.08554798364639282,0.0014764237064295131,0.10349394381046295,0.40714457531136217,0.19623160362243652,0.007878288124757934,0.0004778677034851802,0.06431224215435608,0.03589668071160743,0.003995440646996083,-0.02840775018245115,-0.10151702268810864,-0.08511553704738617,0.9116477402435551,-0.44674187898635864,0.018988269654004512,-0.10930755734443665
0.10000000000000045,0.041814882471234355,-0.06263531744480133,0.030749349959120147,-0.08433796465396881,0.5644163619278395,0.33513984084129333,0.027736462703286162,0.03531846031546593,0.0014764237064295131,0.07289844751358032,0.4191445753113622,0.1946040391921997,0.005185769405313364,0.016796575519095462,0.07273314546324597,0.03236868180226608,0.0067403727167259534,-0.03038847874268446,-0.12951702268810864,-0.11669132858514786,0.4346477402435551,-0.38387948274612427,-0.0030117303459954873,-0.11346274614334106
0.11000000000000024,0.042814882471234356,-0.05072016268968582,0.030749349959120147,-0.09055381268262863,0.5694163619278394,0.3251417279243469,0.038736462703286165,0.006262443959712982,0.000476423706429513,0.0526183545589447,0.4881445753113622,0.19178682565689087,0.005195561663125962,0.02595798829295501,0.07554097562201331,0.030756969266435195,0.0067482039130565144,-0.03126979013182712,0.11848297731189136,-0.12516272068023682,0.10664774024355511,-0.35282081365585327,0.006988269654004513,-0.11169527471065521
0.12000000000000047,0.042814882471234356,-0.04221537709236145,0.030749349959120147,-0.09564021229743958,0.5724163619278394,0.3224557936191559,0.05073646270328616,-0.011578865349292755,0.000476423706429513,0.03788548707962036,0.5451445753113622,0.18798407912254333,0.008017159177424378,0.030811964571299946,0.07833979597868442,0.02997179011976627,0.006863320815823045,-0.03138621776425197,0.2694829773118914,-0.12752625346183777,0.26564774024355514,-0.33707395195961,0.01798826965400451,-0.10976998507976532
0.13000000000000025,0.04381488247123436,-0.019073551520705223,0.030749349959120147,-0.10507115721702576,0.5784163619278394,0.34920167922973633,0.06373646270328616,-0.003914676606655121,-0.000523576293570487,0.04303552210330963,0.6191445753113621,0.18180203437805176,0.010839754910778671,0.0213964303508287,0.08113863291520663,0.02685200252119204,0.0069861982344164575,-0.025246335366358362,0.08948297731189137,-0.11587788164615631,0.569647740243555,-0.3554602265357971,0.020988269654004514,-0.11789914965629578
0.14000000000000049,0.04481488247123436,0.015094053000211716,0.030749349959120147,-0.09560935199260712,0.5764163619278394,0.3383568227291107,0.07673646270328616,-0.05181713029742241,-0.000523576293570487,0.01710069179534912,0.6391445753113622,0.16279226541519165,0.010861574416906107,0.025450254360671283,0.08675560793837804,0.02688155640885916,0.007017637373568481,-0.024457515656527724,-0.13451702268810864,-0.1625846028327942,0.604647740243555,-0.3017686605453491,0.022988269654004512,-0.14404331147670746
0.15000000000000027,0.04581488247123436,-0.01948380470275879,0.030749349959120147,-0.1009402796626091,0.5854163619278394,0.36256617307662964,0.09073646270328617,0.03933822736144066,-0.002523576293570487,0.042342230677604675,0.7201445753113621,0.17777308821678162,0.008069349816161094,0.00948744543439704,0.09238285102734936,0.02619344790424733,0.006922688691497207,-0.02232075050356271,-0.09751702268810863,-0.10183355212211609,0.34164774024355515,-0.4080486297607422,0.011988269654004513,-0.11236166954040527
0.1600000000000005,0.04781488247123436,0.005845298990607262,0.029749349959120146,-0.09036073088645935,0.6034163619278394,0.3388318121433258,0.11073646270328616,-0.027576705440878868,-0.004523576293570487,0.01513931155204773,0.8261445753113621,0.15896660089492798,0.008079944894903386,0.01838358727522912,0.09519211980190746,0.027524979025650972,0.006934701633969416,-0.024001326531576075,0.17048297731189135,-0.16124194860458374,0.10864774024355511,-0.3352697193622589,-0.020011730345995488,-0.14014658331871033
0.1700000000000003,0.04981488247123436,0.01450122706592083,0.029749349959120146,-0.09223097562789917,0.6174163619278394,0.3345318138599396,0.12873646270328618,-0.03845776617527008,-0.006523576293570487,0.007909238338470459,0.9241445753113622,0.15708324313163757,0.01090603943541472,0.02250716696701458,0.09799216304205464,0.027150610625421977,0.007081106565432267,-0.023728740895644827,0.24448297731189136,-0.16474229097366333,0.11264774024355512,-0.3158237040042877,0.011988269654004513,-0.14206671714782715
0.18000000000000052,0.051814882471234364,-0.005910767242312431,0.02874934995912015,-0.09834019094705582,0.6304163619278395,0.35340288281440735,0.14573646270328616,0.016034122556447983,-0.008523576293570487,0.026705697178840637,1.0161445753113623,0.16766119003295898,0.013721507828724047,0.012327642672908383,0.09798252138690335,0.026353980510188967,0.0072154383338105055,-0.02206728194089383,0.02248297731189137,-0.12407062947750092,0.12564774024355513,-0.38143378496170044,0.007988269654004513,-0.1229371577501297
0.1900000000000003,0.053814882471234365,-0.02874794974923134,0.02874934995912015,-0.1006031483411789,0.6374163619278395,0.37600237131118774,0.16373646270328615,0.07193155586719513,-0.008523576293570487,0.05158427357673645,1.0871445753113622,0.17435911297798157,0.01373338701169235,-0.0022075497450427784,0.10079221702931215,0.02769273865140559,0.0072353163595215726,-0.021177532227781633,-0.11651702268810864,-0.08970163017511368,0.07064774024355512,-0.45458000898361206,0.014988269654004512,-0.10744398832321167
0.20000000000000054,0.054814882471234366,-0.01898338459432125,0.02874934995912015,-0.09269431233406067,0.6464163619278395,0.359123557806015,0.17773646270328616,0.03668440505862236,-0.010523576293570487,0.04037807881832123,1.1571445753113623,0.16303512454032898,0.010917329168273602,0.0016170332039314153,0.10080187416525135,0.029142765397770446,0.007097099060633552,-0.022266693303968143,0.017482977311891374,-0.127187579870224,0.003647740243555122,-0.4155614376068115,-0.0020117303459954872,-0.12500974535942078
0.21000000000000033,0.056814882471234354,-0.04333950951695442,0.02874934995912015,-0.09796412289142609,0.6574163619278395,0.3748892843723297,0.19073646270328617,0.09213469922542572,-0.010523576293570487,0.06353001296520233,1.2361445753113622,0.17513898015022278,0.013721507828724047,-0.008059810256791542,0.09798252138690335,0.030744550219520946,0.0072154383338105055,-0.022087163084637502,0.23148297731189135,-0.08991984277963638,-0.09235225975644488,-0.4787289798259735,0.004988269654004513,-0.10567229986190796
0.22000000000000056,0.058814882471234356,-0.03280380740761757,0.02874934995912015,-0.09218630939722061,0.6704163619278395,0.36068040132522583,0.20773646270328616,0.05891496315598488,-0.012523576293570487,0.05348396301269531,1.3211445753113622,0.1658555567264557,0.01653700357380365,-0.003866112264244802,0.09797270028197745,0.03137321268147946,0.007349757842717152,-0.02272927531544456,0.21548297731189137,-0.12094446271657944,-0.08435225975644488,-0.4417608082294464,0.010988269654004512,-0.12076956033706665
0.23000000000000034,0.06281488247123436,-0.028871070593595505,0.02874934995912015,-0.09261344373226166,0.6824163619278395,0.3544345200061798,0.22973646270328615,0.048765670508146286,-0.01652357629357049,0.04914708435535431,1.4151445753113623,0.16634246706962585,0.01653700357380365,-0.0007825927100647639,0.09797270028197745,0.030768512212715253,0.007349757842717152,-0.022883652916131182,-0.006517022688108628,-0.12976670265197754,-0.08235225975644488,-0.42598646879196167,0.02998826965400451,-0.12429602444171906
0.24000000000000057,0.06581488247123436,-0.02910614013671875,0.027749349959120147,-0.09346398711204529,0.7044163619278394,0.3516908586025238,0.24873646270328617,0.04755369946360588,-0.019523576293570488,0.048004671931266785,1.5261445753113623,0.16790327429771423,0.01653700357380365,0.0008052390119754402,0.09797270028197745,0.030496694740741535,0.007349757842717152,-0.023122939361275616,-0.07551702268810863,-0.13007953763008118,-0.08135225975644489,-0.4226088225841522,0.023988269654004513,-0.12365126609802246
0.2500000000000004,0.06881488247123435,-0.02908613532781601,0.027749349959120147,-0.09414282441139221,0.7234163619278394,0.3509121537208557,0.26773646270328616,0.04635072872042656,-0.021523576293570486,0.04730886220932007,1.6241445753113621,0.16860148310661316,0.016524639006584955,0.0017367945255892985,0.09516327012909932,0.0302968950887475,0.007326051614087646,-0.02324609275841982,0.10348297731189136,-0.12960369884967804,-0.10935225975644489,-0.42066165804862976,-0.005011730345995487,-0.12301790714263916
0.2600000000000006,0.07181488247123435,-0.05149855464696884,0.027749349959120147,-0.09873329848051071,0.7424163619278394,0.3712763488292694,0.2857364627032861,0.09991157054901123,-0.02352357629357049,0.0694301575422287,1.7151445753113623,0.17870178818702698,0.019339591869428064,-0.008692139253477496,0.09515329005451656,0.03187979614374083,0.0074564760544705835,-0.022815095971307826,0.2514829773118914,-0.08919130265712738,-0.24735225975644487,-0.48595431447029114,0.001988269654004513,-0.1029922217130661
0.2700000000000004,0.07481488247123436,-0.02781142294406891,0.027749349959120147,-0.08991190046072006,0.7484163619278394,0.34889093041419983,0.30073646270328613,0.03800705447793007,-0.025523576293570487,0.04640950262546539,1.7391445753113624,0.1638639271259308,0.01932677491111926,0.0008655820653023262,0.09234411668877918,0.03135719481724581,0.007428947120641746,-0.02359538319329395,0.20348297731189136,-0.14059174060821533,-0.2663522597564449,-0.41605958342552185,0.016988269654004514,-0.12847234308719635
0.28000000000000064,0.07781488247123436,-0.0021313466131687164,0.027749349959120147,-0.08784803748130798,0.7664163619278395,0.3311716914176941,0.31673646270328615,-0.015644609928131104,-0.02752357629357049,0.022702082991600037,1.8231445753113622,0.15753412246704102,0.02212797350349982,0.013328131457093887,0.08952509889108448,0.02927934812931542,0.00752413395056145,-0.024160769826296044,0.01448297731189137,-0.17507889866828918,-0.22735225975644488,-0.34651970863342285,0.011988269654004513,-0.14502505958080292
0.2900000000000004,0.08181488247123436,0.008535560220479965,0.026749349959120147,-0.09148512780666351,0.7924163619278395,0.33278802037239075,0.33173646270328616,-0.02288801409304142,-0.03652357629357048,0.016753703355789185,1.9531445753113623,0.15792769193649292,0.022114871331108125,0.01719400958223065,0.08671640281533831,0.02770739675747856,0.007492848123287382,-0.023371329529991797,-0.0035170226881086285,-0.16962812840938568,-0.22135225975644487,-0.3327224850654602,0.006988269654004513,-0.14457140862941742
0.30000000000000066,0.08481488247123435,-0.02489209920167923,0.02574934995912015,-0.09873998165130615,0.8164163619278395,0.36089780926704407,0.3457364627032861,0.058920275419950485,-0.039523576293570485,0.045236483216285706,2.0521445753113623,0.17437011003494263,0.02210190430393025,0.0025632629680876263,0.08390793513552393,0.027734990665157173,0.007461622539714661,-0.02194707719896071,0.16248297731189137,-0.10833621025085449,-0.29935225975644486,-0.4324502646923065,0.01798826965400451,-0.11408405005931854
0.31000000000000044,0.08881488247123435,-0.056223008781671524,0.024749349959120148,-0.09976590424776077,0.8384163619278394,0.3828684091567993,0.36073646270328613,0.11983628571033478,-0.045523576293570484,0.07333850860595703,2.1401445753113624,0.18062561750411987,0.024901489472216702,-0.011994716835402222,0.08108953155591742,0.03177926451284932,0.007541489058720569,-0.022497222795055,0.24048297731189136,-0.0681871771812439,-0.35135225975644485,-0.5126328468322754,0.016988269654004514,-0.09320740401744843
0.32000000000000023,0.09181488247123436,-0.04547015577554703,0.024749349959120148,-0.09294839203357697,0.8564163619278394,0.3673052489757538,0.37173646270328614,0.08200143277645111,-0.04952357629357049,0.06362231075763702,2.202144575311362,0.16804850101470947,0.027700308759386255,-0.008229607546088846,0.07827127243070779,0.033055631864970764,0.007613671336890151,-0.023149013101957362,0.16948297731189135,-0.1059720516204834,-0.41635225975644485,-0.47180694341659546,0.010988269654004512,-0.11235980689525604
0.33000000000000046,0.09581488247123436,-0.05520959571003914,0.023749349959120147,-0.09633050113916397,0.8784163619278395,0.37278467416763306,0.38373646270328615,0.10383856296539307,-0.053523576293570484,0.07429677248001099,2.284144575311362,0.17420142889022827,0.03048466712299305,-0.011996969581779171,0.07264561075924135,0.03393371338609945,0.007635601855757708,-0.02309552689361874,0.07448297731189137,-0.09333214163780212,-0.4443522597564449,-0.49465832114219666,0.018988269654004512,-0.10587450861930847
0.34000000000000025,0.09981488247123435,-0.031314264982938766,0.023749349959120147,-0.08839359134435654,0.9014163619278395,0.3451433479785919,0.39573646270328616,0.038456130772829056,-0.05852357629357048,0.04757681488990784,2.3651445753113625,0.162981778383255,0.030471098942875686,0.00034070990574011845,0.06983824338163641,0.03235366785469401,0.007593090816860721,-0.024048998709344183,0.12148297731189137,-0.14633361995220184,-0.41835225975644486,-0.4168348014354706,0.01798826965400451,-0.13020706176757812
0.3500000000000005,0.10481488247123436,-0.024370744824409485,0.022749349959120146,-0.09251728653907776,0.9294163619278395,0.34344905614852905,0.4067364627032861,0.03093637153506279,-0.06552357629357049,0.0430251806974411,2.468144575311362,0.16638922691345215,0.030444510354057392,0.004620915265649469,0.06422403101137227,0.030305237550822796,0.007508254620877777,-0.02368935925591851,0.21148297731189136,-0.14459013938903809,-0.47435225975644485,-0.40151992440223694,0.010988269654004512,-0.12981095910072327
0.36000000000000026,0.10881488247123436,-0.054162148386240005,0.021749349959120146,-0.09968167543411255,0.9514163619278394,0.37213635444641113,0.4167364627032861,0.10676155984401703,-0.07252357629357048,0.07262051105499268,2.529144575311362,0.18172281980514526,0.033227890555427894,-0.009349770693932169,0.05860033521923838,0.03187232897307283,0.007503796818271772,-0.02285032865128131,0.2934829773118914,-0.08597055822610855,-0.6433522597564449,-0.493460088968277,0.005988269654004513,-0.10123945772647858
0.3700000000000005,0.11281488247123436,-0.02405129373073578,0.021749349959120146,-0.08612522482872009,0.9804163619278394,0.3358851969242096,0.42473646270328613,0.017187785357236862,-0.07552357629357048,0.03561452031135559,2.6201445753113624,0.162042498588562,0.03593822357103519,0.00651106044123007,0.05302635414151825,0.031430579382014816,0.004676309656137781,-0.024927748142477214,0.24348297731189136,-0.15902580320835114,-0.6893522597564449,-0.39141279458999634,-0.0010117303459954872,-0.1340622752904892
0.3800000000000003,0.11481488247123436,-0.03963715583086014,0.020749349959120145,-0.09535650163888931,0.9934163619278394,0.34277117252349854,0.42073646270328613,0.04819594696164131,-0.07952357629357049,0.04571044445037842,2.6281445753113624,0.1746223270893097,0.03871945761381009,0.006046086985707252,0.04460206214883015,0.030510313524772816,0.004588959180828031,-0.02494504744399749,0.17048297731189135,-0.125969797372818,-0.7273522597564449,-0.42008888721466064,0.005988269654004513,-0.11555662751197815
0.3900000000000005,0.12081488247123436,-0.05469125881791115,0.019749349959120147,-0.09962282329797745,1.0284163619278395,0.3560069501399994,0.43273646270328614,0.07670983672142029,-0.08652357629357048,0.05897466838359833,2.7291445753113623,0.18074193596839905,0.04150967331802336,9.078919877183901e-05,0.038984601246770445,0.031281593081386165,0.004535880620136434,-0.024667803540798967,0.23548297731189136,-0.09935261309146881,-0.8263522597564449,-0.45769256353378296,0.004988269654004513,-0.102073535323143
0.4000000000000003,0.12581488247123437,-0.08668842911720276,0.018749349959120146,-0.10359004884958267,1.0494163619278394,0.37797513604164124,0.43973646270328615,0.14036357402801514,-0.09452357629357049,0.08809246122837067,2.780144575311362,0.1910519301891327,0.044291786190145024,-0.013009172778304599,0.030562623604129667,0.03526536247007938,0.0044068871811563815,-0.025044310716974855,0.34148297731189137,-0.05304189771413803,-0.9423522597564449,-0.5377873182296753,-0.0030117303459954873,-0.07804647088050842
0.41000000000000053,0.13081488247123438,-0.06225701794028282,0.01774934995912015,-0.09004081040620804,1.0854163619278394,0.3342505097389221,0.44373646270328615,0.05090111121535301,-0.10252357629357048,0.05034862458705902,2.877144575311362,0.17367616295814514,0.04706787449032519,0.004726375540602467,0.01933708165229431,0.03476678176218246,0.0041908010431921895,-0.027903506083138022,0.3874829773118914,-0.13236956298351288,-1.036352259756445,-0.43427982926368713,-0.005011730345995487,-0.1111944317817688
0.4200000000000003,0.14081488247123436,-0.035296764224767685,0.009749349959120147,-0.0931924507021904,1.1064163619278395,0.31981775164604187,0.4647364627032861,-0.00593586266040802,-0.1395235762935705,0.02943570911884308,2.913144575311362,0.1710580289363861,0.055451091371911516,0.019349669098039333,0.010982350509663237,0.0313058024544872,0.0012381436122868969,-0.02863155648431332,0.3944829773118914,-0.1603947877883911,-1.3233522597564449,-0.3595140278339386,-0.02501173034599549,-0.1255267709493637
0.43000000000000055,0.14481488247123436,-0.025908738374710083,0.008749349959120148,-0.10144069790840149,1.1354163619278395,0.3352331519126892,0.4647364627032861,0.004049867391586304,-0.1465235762935705,0.03512518107891083,2.960144575311362,0.1747605800628662,0.058251531634369934,0.01777002238598258,-0.002960387145054942,0.028731066506122553,-0.0019485567475719288,-0.025969734404849475,0.4294829773118914,-0.1379794180393219,-1.669352259756445,-0.3687587082386017,-0.016011730345995488,-0.12163837254047394
0.44000000000000034,0.14981488247123437,-0.057475145906209946,0.006749349959120147,-0.10490275919437408,1.1654163619278395,0.34496304392814636,0.4637364627032861,0.062172893434762955,-0.1535235762935705,0.05434577167034149,2.9871445753113623,0.18713408708572388,0.06388706855716995,0.009807274707235315,-0.01977795768220487,0.030051015705820562,-0.0024800040085541384,-0.02664061152489002,0.3974829773118914,-0.09871713817119598,-1.925352259756445,-0.4388216733932495,-0.006011730345995487,-0.09870399534702301
0.45000000000000057,0.15481488247123437,-0.07839836180210114,0.004749349959120147,-0.10891629010438919,1.1884163619278394,0.36813169717788696,0.4617364627032861,0.11279711127281189,-0.1605235762935705,0.0807921290397644,2.9391445753113623,0.1932673156261444,0.06673848938924404,-0.0032590657408567906,-0.039401565099849364,0.03222671792828703,-0.003145621464022592,-0.02563959433590641,0.3814829773118914,-0.06340257823467255,-2.249352259756445,-0.5056256055831909,-0.019011730345995487,-0.08391599357128143
0.46000000000000035,0.15981488247123438,-0.037612445652484894,0.003749349959120147,-0.0982792004942894,1.2184163619278394,0.350071519613266,0.45673646270328616,0.03594681993126869,-0.1665235762935705,0.05560272932052612,2.932144575311362,0.1718340516090393,0.0725331470871884,0.005104999761693301,-0.06453111224114233,0.030983451205461334,-0.006954101087071612,-0.0250714083465859,0.3844829773118914,-0.13046014308929443,-2.604352259756445,-0.418964147567749,-0.04601173034599548,-0.12279149889945984
0.4700000000000006,0.16481488247123438,-0.016468683257699013,0.0017493499591201469,-0.09911458194255829,1.2474163619278396,0.35370925068855286,0.45073646270328616,0.024386268109083176,-0.17152357629357048,0.05071192979812622,2.913144575311362,0.1684606671333313,0.07552771800389917,0.005674409469562534,-0.0925730523396931,0.028678303972903944,-0.008084125437967209,-0.02282879646718159,0.3884829773118914,-0.13872534036636353,-2.9093522597564445,-0.398396760225296,-0.055011730345995484,-0.1331430971622467
0.48000000000000037,0.16881488247123438,0.006525201722979546,-0.00025065004087985315,-0.09217946231365204,1.2764163619278395,0.33552804589271545,0.44573646270328615,-0.01644349843263626,-0.1765235762935705,0.02948644757270813,2.8861445753113624,0.1587086319923401,0.0787728480658635,0.01435603591319336,-0.12333016367188934,0.02821771282332514,-0.012230588666348444,-0.023463561117591725,0.4404829773118914,-0.17406880855560303,-3.2553522597564446,-0.34580111503601074,-0.09501173034599548,-0.15091806650161743
0.4900000000000006,0.17381488247123436,0.015637651085853577,-0.002250650040879853,-0.09352795034646988,1.2984163619278395,0.3362634778022766,0.43873646270328615,-0.01806102879345417,-0.1805235762935705,0.024203285574913025,2.796144575311362,0.15751513838768005,0.08505010266928945,0.01646801782950828,-0.15689276995358672,0.027179280807362167,-0.016831386883418852,-0.02262919411521526,0.4834829773118914,-0.17070996761322021,-3.6553522597564445,-0.33804479241371155,-0.1390117303459955,-0.15110942721366882
0.5000000000000003,0.17781488247123436,0.021956894546747208,-0.0032506500408798523,-0.09327054023742676,1.3264163619278395,0.3369777202606201,0.43273646270328614,-0.021396061405539513,-0.1845235762935705,0.019292518496513367,2.755144575311362,0.1549624502658844,0.0915980608763087,0.01729656351825212,-0.1932898781155664,0.026783257358736417,-0.021808569371118573,-0.02218157040708922,0.5394829773118914,-0.17182694375514984,-4.031352259756445,-0.3333214819431305,-0.1980117303459955,-0.15286944806575775
0.5100000000000006,0.18181488247123437,0.021411770954728127,-0.005250650040879854,-0.09385523200035095,1.3534163619278394,0.33926787972450256,0.42373646270328613,-0.014733877032995224,-0.1885235762935705,0.019266098737716675,2.7081445753113624,0.15488067269325256,0.0985528624626759,0.01647893454872985,-0.2353671617609795,0.026620636162729527,-0.027369140406389863,-0.02187575534138275,0.5944829773118914,-0.16695013642311096,-4.307352259756445,-0.3407967686653137,-0.2340117303459955,-0.15094685554504395
0.5200000000000004,0.18681488247123437,0.05628301203250885,-0.007250650040879852,-0.092133529484272,1.3804163619278393,0.3553374409675598,0.4157364627032861,-0.04484689235687256,-0.1915235762935705,0.009074673056602478,2.658144575311362,0.14229634404182434,0.10595979888203493,0.013377094627087291,-0.2803508839004783,0.02405070841980375,-0.03347028272436355,-0.01767972125209107,0.6474829773118914,-0.17922386527061462,-4.469352259756445,-0.3070162832736969,-0.2860117303459955,-0.16697406768798828
0.5300000000000006,0.19081488247123438,0.02539471909403801,-0.009250650040879854,-0.09316045790910721,1.4074163619278395,0.4023309051990509,0.4047364627032861,0.0683666318655014,-0.1955235762935705,0.04479926824569702,2.6031445753113625,0.1575712263584137,0.1142772720849522,-0.012182610040366321,-0.32528972115441496,0.023671735445967013,-0.04293798290900035,-0.015216848799915729,0.6884829773118913,-0.11017078161239624,-4.542352259756445,-0.44504404067993164,-0.3340117303459955,-0.135801300406456
0.5400000000000004,0.19481488247123438,0.04139971733093262,-0.011250650040879853,-0.07623597979545593,1.4234163619278395,0.36138755083084106,0.3987364627032861,-0.001623988151550293,-0.1995235762935705,0.018587589263916016,2.4781445753113625,0.13599500060081482,0.12619828091350085,-0.0017681921778883792,-0.37026572958230664,0.02629507671139013,-0.0535217166138329,-0.017562348130425894,0.7394829773118914,-0.17798000574111938,-4.601352259756445,-0.3672984540462494,-0.3860117303459955,-0.16656357049942017
0.5500000000000006,0.19881488247123438,0.03968099504709244,-0.013250650040879854,-0.09472258388996124,1.4474163619278395,0.34851014614105225,0.38573646270328615,0.05222698673605919,-0.20352357629357049,0.06511758267879486,2.416144575311362,0.14723306894302368,0.1359302458461179,-0.0014437263565264264,-0.4154314474779794,0.02667158301474477,-0.06430180188187001,-0.01813797412931395,0.6814829773118914,-0.1834278702735901,-4.475352259756445,-0.42304661870002747,-0.20401173034599548,-0.19141201674938202
0.5600000000000004,0.20281488247123436,0.018954627215862274,-0.015250650040879853,-0.09988008439540863,1.4714163619278395,0.37599828839302063,0.37173646270328614,0.14173026382923126,-0.2075235762935705,0.11058774590492249,2.3551445753113622,0.1584005355834961,0.1455822369478077,-0.018108148314620615,-0.4580768578409602,0.029360685505960642,-0.07253029616595118,-0.01762415215334253,0.4444829773118914,-0.14449435472488403,-4.042352259756445,-0.5254124999046326,-0.08001173034599549,-0.18106615543365479
0.5700000000000006,0.20581488247123436,0.008544379845261574,-0.017250650040879854,-0.0964556485414505,1.5184163619278395,0.3859391510486603,0.3497364627032861,0.18191182613372803,-0.2105235762935705,0.13900601863861084,2.4511445753113623,0.1551465094089508,0.1510740771435067,-0.028482881013053095,-0.4985497273558196,0.034641398117377833,-0.07422791931192478,-0.018542845865801794,0.17148297731189135,-0.13717849552631378,-3.5423522597564445,-0.5740227103233337,-0.06301173034599548,-0.18269596993923187
0.5800000000000004,0.19081488247123438,-0.0210092943161726,-0.010250650040879852,-0.08398984372615814,1.5654163619278394,0.33436787128448486,0.22173646270328617,0.14832703769207,-0.1595235762935705,0.1128036230802536,2.529144575311362,0.1544817090034485,0.1476841863813208,-0.015620367489914036,-0.5461427503106031,0.03973540050192951,-0.0626565075416749,-0.022902376921417063,-0.021517022688108626,-0.17589278519153595,-3.115352259756445,-0.5269263982772827,-0.5600117303459955,-0.17673185467720032
0.5900000000000002,0.19281488247123438,-0.0839691162109375,-0.012250650040879853,-0.09500424563884735,1.5904163619278395,0.31109145283699036,0.20073646270328616,0.17062747478485107,-0.1645235762935705,0.11345109343528748,2.4701445753113624,0.18133237957954407,0.15399968599621291,-0.005292095080315155,-0.577388700769315,0.04295337983419438,-0.07876195279142796,-0.029386740593199297,-0.16551702268810864,-0.14253905415534973,-2.660352259756445,-0.5450534820556641,-1.0920117303459955,-0.13172219693660736
0.6000000000000004,0.19281488247123438,-0.12197582423686981,-0.013250650040879854,-0.10801051557064056,1.6124163619278395,0.3073982000350952,0.16173646270328615,0.17308250069618225,-0.1695235762935705,0.12185594439506531,2.401144575311362,0.19980978965759277,0.16336066171483524,0.0021938942678730896,-0.5997876893493118,0.04358132793472634,-0.09533268102781742,-0.03368587807269187,0.2914829773118914,-0.11225825548171997,-1.8923522597564448,-0.5526856780052185,-1.4940117303459954,-0.10235951840877533
0.6100000000000002,0.19381488247123438,-0.10553663969039917,-0.015250650040879853,-0.11597268283367157,1.6354163619278395,0.36308905482292175,0.12873646270328618,0.15777312219142914,-0.1745235762935705,0.12620022892951965,2.352144575311362,0.19939953088760376,0.1807042857929948,-0.009988044733469295,-0.6125030021616416,0.03965260728097304,-0.11965685790430423,-0.027525799791206906,1.1944829773118912,-0.06930085271596909,-0.7113522597564449,-0.5489539504051208,-1.7460117303459954,-0.08666220307350159
0.6200000000000004,0.19581488247123438,-0.09916454553604126,-0.017250650040879854,-0.11065156757831573,1.6594163619278395,0.38556036353111267,0.09373646270328616,0.16519132256507874,-0.1805235762935705,0.1268332302570343,2.304144575311362,0.19364970922470093,0.20781551972412823,-0.019770549402445225,-0.612997412697343,0.04100632547063444,-0.14002543666030542,-0.025484633321590337,2.143482977311891,-0.05545176565647125,0.46764774024355515,-0.5660429000854492,-1.7960117303459955,-0.08348585665225983
0.6300000000000002,0.19581488247123438,-0.04013822600245476,-0.020250650040879854,-0.09044250100851059,1.6864163619278394,0.3449402451515198,0.055736462703286166,0.04073231294751167,-0.1905235762935705,0.0675775408744812,2.271144575311362,0.16634798049926758,0.2458542787825067,-0.0011842208432662686,-0.6005259903863182,0.035098186907051264,-0.16205288819796856,-0.02509961520819698,2.6904829773118912,-0.15704865753650665,1.229647740243555,-0.4227023422718048,-1.9510117303459955,-0.13498204946517944
0.6400000000000005,0.19581488247123438,-0.05789661034941673,-0.022250650040879855,-0.09988581389188766,1.7084163619278394,0.36720040440559387,0.02573646270328616,0.10239996016025543,-0.1965235762935705,0.08328615128993988,2.215144575311362,0.18281713128089905,0.2844760536733798,-0.009395599211646774,-0.5819159678357212,0.033827317540311576,-0.17986688030422202,-0.02366263684466603,2.8384829773118914,-0.10268998891115189,1.5756477402435551,-0.48693615198135376,-1.9900117303459954,-0.10844193398952484
0.6500000000000002,0.19681488247123438,-0.11791214346885681,-0.02525065004087985,-0.10302166640758514,1.7274163619278395,0.3338342607021332,0.0037364627032861614,0.16825823485851288,-0.2065235762935705,0.10699106752872467,2.139144575311362,0.19858676195144653,0.32345791699820664,-0.006512995567945391,-0.559166076205007,0.041616451992806364,-0.20227398686490197,-0.030705853037971836,2.9074829773118913,-0.08381026983261108,1.8496477402435552,-0.5618351697921753,-1.9020117303459954,-0.08769607543945312
0.6600000000000005,0.19681488247123438,-0.1325177401304245,-0.028250650040879854,-0.10760615020990372,1.7434163619278396,0.31251057982444763,-0.01326353729671384,0.14701706171035767,-0.2145235762935705,0.10672520101070404,2.057144575311362,0.20307716727256775,0.35989697401044696,0.005158962083867707,-0.5369586152389969,0.04208943361846838,-0.21734162033780172,-0.0350427805014943,2.9474829773118914,-0.09808927774429321,2.037647740243555,-0.5365722179412842,-1.8080117303459955,-0.08675369620323181
0.6700000000000003,0.19681488247123438,-0.13545694947242737,-0.031250650040879846,-0.11423347890377045,1.7634163619278393,0.3044869899749756,-0.03126353729671384,0.12099391222000122,-0.2215235762935705,0.10431893169879913,1.9851445753113623,0.2102716863155365,0.39665713335018715,0.01533074273754763,-0.5090907690113419,0.03993930412622864,-0.2275520025382022,-0.037575408371424694,2.9784829773118915,-0.10090015083551407,2.1996477402435555,-0.5046828985214233,-1.7930117303459954,-0.08367639780044556
0.6800000000000005,0.19781488247123438,-0.1639365553855896,-0.03525065004087985,-0.12898096442222595,1.7804163619278395,0.3243549168109894,-0.04326353729671384,0.1753641813993454,-0.2315235762935705,0.13984465599060059,1.9041445753113622,0.22892284393310547,0.4310545232602186,0.007889408058033806,-0.48027380662337427,0.040773453686744655,-0.2419013381935778,-0.037053883659709345,2.7344829773118913,-0.048446714878082275,2.0716477402435554,-0.5729377269744873,-2.0450117303459954,-0.06134938821196556
0.6900000000000003,0.19681488247123438,-0.16625423729419708,-0.03725065004087985,-0.13319402933120728,1.7984163619278395,0.3543470799922943,-0.05926353729671384,0.21046259999275208,-0.2385235762935705,0.16658025979995728,1.8311445753113622,0.22912660241127014,0.46411741466676576,-0.005950360405390659,-0.45189608582715185,0.04340856010939865,-0.2521908110290491,-0.03391406530805078,2.400482977311891,-0.023090898990631104,1.8436477402435552,-0.6233885288238525,-2.1450117303459955,-0.05864777788519859
0.7000000000000005,0.19681488247123438,-0.15452483296394348,-0.041250650040879855,-0.1266741305589676,1.8134163619278394,0.3594086170196533,-0.07026353729671383,0.2095385491847992,-0.2465235762935705,0.16930490732192993,1.7471445753113621,0.21848508715629578,0.49319068342758876,-0.011337614321662921,-0.4282786353304232,0.045713558684902754,-0.26790663308476614,-0.032577512962826,1.9214829773118913,-0.0379842147231102,1.467647740243555,-0.6241536140441895,-2.2090117303459955,-0.07168878614902496
0.7100000000000003,0.19681488247123438,-0.14929793775081635,-0.04525065004087986,-0.12265664339065552,1.8274163619278394,0.35888686776161194,-0.08126353729671383,0.2126356065273285,-0.2575235762935705,0.17044931650161743,1.6651445753113623,0.21367985010147095,0.5162527748141836,-0.014257383229816071,-0.4044767611926263,0.04722794814393419,-0.2845494782320554,-0.03202213872435283,1.3234829773118912,-0.04895917326211929,0.963647740243555,-0.6261110305786133,-2.3010117303459956,-0.07933880388736725
0.7200000000000005,0.19681488247123438,-0.12438499927520752,-0.04825065004087985,-0.0971406102180481,1.8434163619278394,0.36981427669525146,-0.09426353729671384,0.113841712474823,-0.2655235762935705,0.09148277342319489,1.5881445753113623,0.19679847359657288,0.5365955522397368,-0.010470225656408197,-0.3835687840596128,0.0412133959726692,-0.3009744643190083,-0.02890936854930737,0.9764829773118914,-0.0499967485666275,0.6886477402435551,-0.49966681003570557,-2.3890117303459952,-0.050812769681215286
0.7300000000000003,0.19581488247123438,-0.12072934210300446,-0.05125065004087985,-0.09059588611125946,1.8584163619278395,0.36811551451683044,-0.10526353729671384,0.07114045321941376,-0.2745235762935705,0.04847012460231781,1.5081445753113623,0.19630718231201172,0.5518264886795268,-0.005771893630512991,-0.36526563050557875,0.03744111366068817,-0.31969065014214265,-0.028282979258761255,0.7044829773118914,-0.046189211308956146,0.4816477402435551,-0.4532836973667145,-2.4810117303459953,-0.034125667065382004
0.7400000000000005,0.19481488247123438,-0.1315709799528122,-0.05425065004087985,-0.09088367968797684,1.8734163619278394,0.37727847695350647,-0.11826353729671384,0.07412737607955933,-0.28352357629357045,0.03664098680019379,1.4321445753113622,0.20115253329277039,0.564980154516255,-0.007428363898694031,-0.34913372777294993,0.03630916940276616,-0.34139473624014505,-0.02817104108878805,0.6024829773118914,-0.016346320509910583,0.40964774024355516,-0.46267256140708923,-2.5340117303459953,-0.012683283537626266
0.7500000000000003,0.19381488247123438,-0.11676129698753357,-0.058250650040879856,-0.08554697781801224,1.8844163619278393,0.36339133977890015,-0.12826353729671383,0.025724221020936966,-0.29452357629357045,0.007123887538909912,1.3441445753113623,0.1927834153175354,0.5778094591041206,0.0007546958440520464,-0.33278765812016387,0.03382358832856736,-0.3628277559855307,-0.028466039875211513,0.6274829773118914,-0.04131941497325897,0.4186477402435551,-0.41137075424194336,-2.4140117303459956,-0.02206655964255333
0.7600000000000006,0.19281488247123438,-0.13158562779426575,-0.061250650040879845,-0.09052066504955292,1.8814163619278395,0.3773037791252136,-0.12826353729671383,0.053874921053647995,-0.29752357629357046,0.015252739191055298,1.2131445753113623,0.20223015546798706,0.5924772471663917,-0.003591817319548658,-0.31732313885978036,0.03322549816838136,-0.37884732919366426,-0.028178926718487214,0.5844829773118914,-0.003258734941482544,0.5066477402435551,-0.44568151235580444,-1.5280117303459955,-0.002288438379764557
0.7700000000000004,0.19181488247123438,-0.12999878823757172,-0.06625065004087985,-0.08899190276861191,1.8994163619278395,0.3757282793521881,-0.15126353729671382,0.04264352098107338,-0.3195235762935705,0.009159892797470093,1.1671445753113623,0.19869419932365417,0.5999365969796872,-0.002618469119345947,-0.3052907492806397,0.033051388013941314,-0.3854189561129568,-0.028284951760260146,0.5334829773118914,-0.004230603575706482,0.6136477402435551,-0.4370485544204712,-0.8790117303459954,-0.0028889738023281097
0.7800000000000006,0.18981488247123438,-0.09635137021541595,-0.07125065004087985,-0.08084960281848907,1.9124163619278394,0.3477539122104645,-0.17226353729671384,-0.034944355487823486,-0.3395235762935705,-0.02766215056180954,1.1091445753113622,0.1855621337890625,0.6045061735817078,0.012789521295019588,-0.2980859261304362,0.030400974220882872,-0.3869670362345011,-0.02895980776281788,0.4214829773118914,-0.06584540009498596,0.714647740243555,-0.34601667523384094,-0.2730117303459955,-0.032632436603307724
0.7900000000000004,0.18881488247123437,-0.09985820949077606,-0.07425065004087984,-0.08715792000293732,1.9114163619278395,0.35567423701286316,-0.18426353729671383,-0.018369344994425774,-0.35552357629357045,-0.023009710013866425,1.0101445753113623,0.1941259801387787,0.6075418949211332,0.013374492137842095,-0.28992826702626795,0.028455656126087556,-0.3818986219088228,-0.028251658459463494,0.3144829773118914,-0.03926374763250351,0.7696477402435551,-0.3601669371128082,0.2829882696540045,-0.02044684812426567
0.8000000000000006,0.18681488247123437,-0.0995752364397049,-0.07825065004087985,-0.08866234123706818,1.9214163619278395,0.3597332239151001,-0.20726353729671385,-0.01854288950562477,-0.3795235762935705,-0.02394651621580124,0.9551445753113621,0.19457119703292847,0.6081587400446704,0.013267361066688101,-0.28580032868211236,0.02796141120523159,-0.3746909627163335,-0.02798861503931126,0.16848297731189135,-0.031066343188285828,0.8736477402435551,-0.36324119567871094,0.8069882696540046,-0.017233919352293015
0.8100000000000004,0.18581488247123437,-0.09404760599136353,-0.07925065004087985,-0.0882420688867569,1.9274163619278395,0.3570033609867096,-0.21626353729671383,-0.029926279559731483,-0.3895235762935705,-0.02912898361682892,0.9881445753113621,0.19211551547050476,0.6081587400446704,0.015768560775933818,-0.28580032868211236,0.02770068682384716,-0.3746909627163335,-0.028071028179341862,0.02248297731189137,-0.037440888583660126,0.8616477402435551,-0.3509347438812256,1.2069882696540046,-0.02119237557053566
0.8200000000000006,0.18281488247123437,-0.07008425891399384,-0.08825065004087985,-0.08320842683315277,1.9094163619278395,0.3410397171974182,-0.24126353729671385,-0.08084090054035187,-0.43152357629357047,-0.05254237353801727,0.7641445753113622,0.18215101957321167,0.6046024849315269,0.026422755782928478,-0.2873947602066789,0.02759640880810751,-0.33878228053022935,-0.028805842846999698,-0.17451702268810865,-0.07494457811117172,0.8986477402435551,-0.28971290588378906,1.5589882696540045,-0.039311330765485764
0.8300000000000004,0.17881488247123437,-0.09280160069465637,-0.09325065004087985,-0.09175724536180496,1.9374163619278395,0.3658469319343567,-0.2842635372967139,-0.02033877931535244,-0.47552357629357045,-0.028513751924037933,0.7871445753113622,0.19694507122039795,0.5955121450654987,0.016308463493690955,-0.28716583561675246,0.02596901659084901,-0.32212638911781805,-0.0269331293273956,-0.3895170226881086,-0.015696320682764053,0.8756477402435551,-0.3599942922592163,1.9129882696540046,-0.011780589818954468
0.8400000000000002,0.17581488247123436,-0.11325453221797943,-0.09925065004087985,-0.09721765667200089,1.9554163619278395,0.3693751096725464,-0.31926353729671386,0.022347543388605118,-0.5155235762935705,-0.0025035440921783447,0.7801445753113622,0.20272669196128845,0.5835030518589011,0.009707193812035554,-0.2915152358786189,0.028052329597219556,-0.30049973246340583,-0.028256628205349365,-0.6785170226881087,8.562207221984863e-05,0.817647740243555,-0.41779834032058716,2.3639882696540044,-0.00874246284365654
0.8500000000000004,0.17281488247123436,-0.08873942494392395,-0.10525065004087986,-0.08930663764476776,1.9684163619278394,0.3478720486164093,-0.3532635372967139,-0.035854071378707886,-0.5555235762935705,-0.02443818747997284,0.7631445753113621,0.1890796422958374,0.568142207806753,0.01993223612881007,-0.29682120666878936,0.02854631332864556,-0.2756283094975376,-0.02941175618378989,-0.9615170226881086,-0.05414117872714996,0.7486477402435551,-0.3478737473487854,2.6419882696540045,-0.035236191004514694
0.8600000000000002,0.16881488247123438,-0.06673747301101685,-0.11125065004087985,-0.08722028881311417,1.9474163619278395,0.33160561323165894,-0.37626353729671386,-0.07862882316112518,-0.5895235762935704,-0.041803039610385895,0.6911445753113621,0.18320012092590332,0.5492281974045383,0.03178080626863604,-0.30712393819203065,0.02851297064382705,-0.24276906563642592,-0.03045723873068728,-1.2865170226881086,-0.08575417101383209,0.6896477402435551,-0.2900557518005371,2.8449882696540048,-0.05055880919098854
0.8700000000000004,0.16481488247123438,-0.06897753477096558,-0.11725065004087985,-0.10146626830101013,1.9704163619278394,0.35027334094047546,-0.4142635372967139,-0.027880897745490074,-0.6335235762935705,-0.008370265364646912,0.7071445753113621,0.1926966905593872,0.5248004959069547,0.02419631897800061,-0.3126186418798433,0.026606327618580772,-0.2163536226916539,-0.027611917585733406,-1.6975170226881087,-0.05472137778997421,0.5346477402435551,-0.3513462543487549,2.7999882696540044,-0.050617899745702744
0.8800000000000002,0.16081488247123438,-0.0632534772157669,-0.12325065004087986,-0.09955525398254395,1.9854163619278395,0.36507555842399597,-0.44626353729671386,-0.01438993215560913,-0.6695235762935705,-0.00216849148273468,0.6971445753113621,0.1886521875858307,0.4983694685330809,0.01604556833232441,-0.3233046081624107,0.026045519698939035,-0.19098259656902192,-0.02546269752789406,-2.195517022688109,-0.05107676982879639,0.31664774024355513,-0.3693827986717224,2.8119882696540044,-0.05382431671023369
0.8900000000000005,0.15681488247123437,-0.07259692251682281,-0.13025065004087985,-0.10095091164112091,1.9784163619278394,0.3861537277698517,-0.4622635372967139,0.036648523062467575,-0.6955235762935704,0.022297188639640808,0.6111445753113621,0.19142788648605347,0.46488613646693466,0.0020510370368056205,-0.33518114932754695,0.026686995883176367,-0.15864940593921925,-0.023654466027610444,-2.7655170226881087,-0.02793174609541893,0.01964774024355512,-0.4321364760398865,2.9079882696540045,-0.049078334122896194
0.9000000000000002,0.15181488247123437,-0.05958358570933342,-0.13725065004087986,-0.09923459589481354,1.9954163619278396,0.38641735911369324,-0.49326353729671385,0.04864780232310295,-0.7285235762935705,0.03928002715110779,0.6051445753113621,0.18192410469055176,0.42691679288916273,-0.003968524261062431,-0.34752340704465884,0.028356091518060903,-0.13414878885689144,-0.022831733161059554,-3.3265170226881087,-0.05305104702711105,-0.20835225975644486,-0.4493449032306671,2.8099882696540046,-0.07483406364917755
0.9100000000000005,0.15181488247123437,-0.06726737320423126,-0.13725065004087986,-0.09680537134408951,1.9954163619278396,0.4025222957134247,-0.49326353729671385,0.09519638121128082,-0.7275235762935705,0.06064315140247345,0.6051445753113621,0.18204447627067566,0.42691679288916273,-0.016076495546718427,-0.34752340704465884,0.03117353401289847,-0.13414878885689144,-0.022267185023134677,-4.044517022688109,-0.03673205524682999,-0.43535225975644487,-0.5004468560218811,2.8429882696540045,-0.07067520916461945
0.9200000000000003,0.14281488247123436,-0.006015881896018982,-0.14925065004087987,-0.08055055886507034,1.9944163619278394,0.3603421151638031,-0.5302635372967138,-0.018381116911768913,-0.7645235762935705,0.02072322368621826,0.5161445753113622,0.15315744280815125,0.32702065065683855,0.000626764870827499,-0.3732310541901099,0.028485026921474296,-0.08275701757151781,-0.021288516167421702,-4.802517022688109,-0.14580634236335754,-0.5743522597564449,-0.3673207461833954,2.9699882696540048,-0.13261094689369202
0.9300000000000005,0.13681488247123438,-0.010775070637464523,-0.15825065004087988,-0.09275144338607788,2.010416361927839,0.38966187834739685,-0.5592635372967139,0.06897670030593872,-0.7905235762935705,0.057653263211250305,0.5031445753113621,0.16753077507019043,0.2649696863640775,-0.013159418060916302,-0.3861359269754383,0.02756244728908011,-0.05548048257859711,-0.018653205066010026,-5.447517022688109,-0.10386944562196732,-0.6843522597564449,-0.45916417241096497,3.0339882696540044,-0.12495741248130798
0.9400000000000003,0.12981488247123438,0.009825976565480232,-0.16525065004087985,-0.08687435835599899,2.0204163619278392,0.3860766887664795,-0.5832635372967138,0.0653114914894104,-0.8085235762935705,0.06508632004261017,0.47214457531136217,0.1530947983264923,0.1966500741684469,-0.01593098657672255,-0.4007213115802674,0.028461130806361094,-0.02649964211889744,-0.01792665553601588,-5.903517022688109,-0.13017691671848297,-0.8213522597564449,-0.45444583892822266,3.0349882696540047,-0.1501411348581314
0.9500000000000005,0.12381488247123436,-0.007792875170707703,-0.17225065004087986,-0.08369433879852295,2.018416361927839,0.40200838446617126,-0.5992635372967138,0.11648887395858765,-0.8165235762935704,0.07855230569839478,0.3981445753113622,0.15608730912208557,0.12476433285293567,-0.02654863495956226,-0.4167410943063499,0.03203175064905417,0.004009065493115621,-0.018362279964485962,-6.153517022688109,-0.10208180546760559,-1.028352259756445,-0.5091399550437927,3.0519882696540046,-0.1322977989912033
0.9600000000000003,0.11781488247123435,0.008263840340077877,-0.18125065004087987,-0.07388526946306229,2.021416361927839,0.3656838834285736,-0.6192635372967138,0.057307351380586624,-0.8275235762935704,0.0541546493768692,0.34814457531136217,0.14169055223464966,0.04903708913257655,-0.01549079928712342,-0.42827725812494694,0.03207246642178474,0.03655697223295597,-0.018918582571025015,-6.293517022688109,-0.1593131124973297,-1.153352259756445,-0.43908125162124634,2.9369882696540044,-0.15794336795806885
0.9700000000000005,0.11181488247123436,-0.0046914974227547646,-0.18725065004087987,-0.08059503883123398,2.030416361927839,0.3534397482872009,-0.6452635372967138,0.07250358164310455,-0.8315235762935704,0.057272180914878845,0.3221445753113622,0.15174779295921326,-0.02921183744122402,-0.011043550162914256,-0.4409352201665541,0.032138345990588624,0.06486246810212365,-0.020272703865555904,-6.0455170226881085,-0.15699124336242676,-1.0633522597564449,-0.44821497797966003,2.4399882696540045,-0.15256060659885406
0.9800000000000003,0.10381488247123435,-0.009841501712799072,-0.19425065004087985,-0.07966704666614532,2.0354163619278394,0.32483628392219543,-0.6722635372967138,0.03491095080971718,-0.8305235762935704,0.03708094358444214,0.28514457531136217,0.1536320149898529,-0.10136935525597356,0.0031423394222497517,-0.44965747330850764,0.032192634952584,0.08982639346538748,-0.023614813732883565,-5.427517022688109,-0.17998330295085907,-0.7093522597564449,-0.39951443672180176,2.3529882696540048,-0.15223108232021332
0.9900000000000005,0.09781488247123436,-0.03987549617886543,-0.20225065004087986,-0.09245682507753372,2.0354163619278394,0.32948580384254456,-0.6972635372967139,0.06992286443710327,-0.8295235762935704,0.05241873860359192,0.23314457531136215,0.17146700620651245,-0.1651247343307535,0.004524118539263581,-0.45173919898198406,0.032350356838795634,0.11594506946600514,-0.025413559450806866,-4.742517022688109,-0.1396290361881256,-0.2633522597564449,-0.43815356492996216,2.3149882696540045,-0.126066192984581
1.0000000000000004,0.08981488247123436,-0.04400348663330078,-0.20825065004087986,-0.10022437572479248,2.038416361927839,0.33760198950767517,-0.7272635372967138,0.07379220426082611,-0.8165235762935704,0.0644293874502182,0.19314457531136217,0.17537054419517517,-0.22230047845466094,0.004087584756288363,-0.44738353709777284,0.032133534954185416,0.14008197101898218,-0.025452254735347596,-4.057517022688109,-0.1299782395362854,0.33964774024355515,-0.4490850865840912,2.1839882696540047,-0.12452924251556396
1.0100000000000007,0.08281488247123436,-0.041396018117666245,-0.21525065004087987,-0.10005240142345428,2.0404163619278393,0.33934009075164795,-0.7552635372967138,0.05989241227507591,-0.8035235762935705,0.06051483750343323,0.14814457531136216,0.17452546954154968,-0.268805403260252,0.005770084117231985,-0.4374837881746932,0.031729759362157196,0.15799223680586105,-0.02554738145268794,-3.4795170226881087,-0.13248807191848755,0.853647740243555,-0.4335973858833313,1.9609882696540046,-0.12415638566017151
1.0200000000000005,0.07481488247123436,-0.05901983752846718,-0.22125065004087988,-0.10612098127603531,2.038416361927839,0.3582022488117218,-0.7842635372967138,0.10500487685203552,-0.7835235762935705,0.08248046040534973,0.09514457531136217,0.18413344025611877,-0.3074744800278726,-0.0031962168899472604,-0.4223242994926378,0.032605009937707874,0.17003060348154833,-0.02465346776020591,-3.1305170226881085,-0.09760865569114685,1.1236477402435552,-0.48946332931518555,1.6669882696540046,-0.10899025201797485
1.0300000000000007,0.06681488247123436,-0.02880873903632164,-0.22825065004087985,-0.09672445058822632,2.0394163619278394,0.3325938284397125,-0.8142635372967139,0.03413252905011177,-0.7695235762935705,0.057513922452926636,0.057144575311362175,0.16845884919166565,-0.34638237082352585,0.008858065224880802,-0.4064242805365988,0.03180758184723215,0.18439344693750048,-0.026002252474186926,-2.9875170226881087,-0.15839949250221252,1.150647740243555,-0.40838387608528137,1.3679882696540047,-0.14031121134757996
1.0400000000000005,0.05981488247123436,-0.05393553152680397,-0.23525065004087986,-0.09892243146896362,2.0394163619278394,0.32709676027297974,-0.8442635372967138,0.05311248078942299,-0.7475235762935705,0.053929999470710754,0.02014457531136217,0.18097636103630066,-0.3778663437887327,0.012667353381999783,-0.3917878145457978,0.03221505320255247,0.19112932143361636,-0.028315600427759328,-2.7415170226881087,-0.13088923692703247,1.183647740243555,-0.4203047454357147,1.2199882696540045,-0.11374278366565704
1.0500000000000007,0.051814882471234364,-0.06813755631446838,-0.24225065004087987,-0.1065368726849556,2.0014163619278396,0.3435928225517273,-0.8572635372967138,0.0777873694896698,-0.7145235762935704,0.06773228943347931,-0.14585542468863785,0.18911579251289368,-0.40410127647387395,0.007312418771830144,-0.3829283279017729,0.032000302102612566,0.1830848158416595,-0.027412485278976852,-2.3915170226881086,-0.09897027909755707,1.1966477402435551,-0.455426424741745,1.0939882696540046,-0.09834916889667511
1.0600000000000005,0.042814882471234356,-0.06976436078548431,-0.24825065004087987,-0.11230099201202393,2.0194163619278394,0.3792286813259125,-0.9042635372967138,0.12227758765220642,-0.6895235762935704,0.09602713584899902,-0.07985542468863782,0.19142529368400574,-0.4333815482763921,-0.0087801297009973,-0.364032373678811,0.03272600326972147,0.19645853452327217,-0.02401594000048778,-1.8935170226881086,-0.06791497766971588,1.352647740243555,-0.5180310010910034,0.7749882696540046,-0.09462802112102509
1.0700000000000007,0.03381488247123436,-0.014086419716477394,-0.2532506500408799,-0.09390648454427719,2.0274163619278394,0.34590932726860046,-0.9452635372967139,0.01655742898583412,-0.6555235762935705,0.05531720817089081,-0.06385542468863784,0.1627926230430603,-0.44901050479038024,0.00518006450376173,-0.34455246877058415,0.03059065275897892,0.2007655898947654,-0.02385032192512156,-0.9105170226881086,-0.16196401417255402,1.870647740243555,-0.39555808901786804,0.4269882696540045,-0.14690066874027252
1.0800000000000005,0.02481488247123436,0.014222078025341034,-0.2592506500408799,-0.09229861944913864,2.038416361927839,0.33235907554626465,-0.9872635372967138,-0.02118389680981636,-0.6195235762935705,0.03429947793483734,-0.032855424688637835,0.15675783157348633,-0.45716831734437485,0.015240309881727844,-0.3207792957233682,0.02824415744172924,0.1994801588192118,-0.023373992253038912,-0.3285170226881086,-0.18645012378692627,2.029647740243555,-0.3378676772117615,0.3849882696540045,-0.1609567552804947
1.0900000000000003,0.01581488247123436,0.010961568914353848,-0.2652506500408799,-0.09690822660923004,2.0354163619278394,0.33768224716186523,-1.0212635372967138,0.007514338940382004,-0.5795235762935704,0.04072558879852295,-0.05485542468863783,0.16160395741462708,-0.4567436473757723,0.013374734606795613,-0.30465100517954546,0.027389765171170158,0.19260532715737141,-0.022493778366858064,-0.5095170226881086,-0.16618920862674713,1.626647740243555,-0.3662978410720825,0.3779882696540045,-0.15385355055332184
1.1000000000000005,0.005814882471234361,-0.06021834537386894,-0.27125065004087984,-0.1003684550523758,2.034416361927839,0.3498844504356384,-1.056263537296714,0.1095571368932724,-0.5425235762935705,0.0694839209318161,-0.06785542468863782,0.1864311397075653,-0.4656449091655648,0.0008274933028485624,-0.2871088251413436,0.031509232482374146,0.1898400313149788,-0.025514298713024623,-1.3145170226881087,-0.09157998859882355,1.277647740243555,-0.4871836006641388,0.4149882696540045,-0.1004544049501419
1.1100000000000003,-0.0021851175287656392,-0.0961218923330307,-0.27425065004087984,-0.10527681559324265,2.013416361927839,0.36413413286209106,-1.0672635372967139,0.15172632038593292,-0.49552357629357047,0.09444485604763031,-0.17885542468863785,0.19375893473625183,-0.47710410685824073,-0.008485062302504582,-0.28082503066972947,0.03630573969483199,0.17557596718902474,-0.027001491340395034,-1.6345170226881087,-0.05626069754362106,1.292647740243555,-0.5469666123390198,0.3819882696540045,-0.07819664478302002
1.1200000000000006,-0.01218511752876564,-0.06604377925395966,-0.27925065004087984,-0.10112032294273376,2.0124163619278392,0.35616037249565125,-1.0992635372967139,0.0883072167634964,-0.4555235762935705,0.07906687259674072,-0.19385542468863784,0.1782943308353424,-0.49215097981742245,-0.0031019744789303337,-0.26633838877307814,0.03478987855643302,0.1713397343990844,-0.02602979460628967,-1.4685170226881088,-0.10538114607334137,1.543647740243555,-0.4793180525302887,0.2689882696540045,-0.10780540108680725
1.1300000000000003,-0.02218511752876564,-0.050813063979148865,-0.28225065004087985,-0.1008002907037735,2.017416361927839,0.350974977016449,-1.129263537296714,0.06609126925468445,-0.41052357629357045,0.07052591443061829,-0.17885542468863785,0.17648348212242126,-0.5042325927816342,0.0005085702617691235,-0.24876794207927047,0.03281885202882772,0.16857885392257618,-0.025303221944948384,-0.5665170226881086,-0.12265647202730179,2.009647740243555,-0.44876226782798767,0.12098826965400451,-0.11862435936927795
1.1400000000000006,-0.03318511752876564,-0.029811199754476547,-0.28625065004087985,-0.10147254168987274,2.0154163619278394,0.3587287366390228,-1.161263537296714,0.056217972189188004,-0.36252357629357046,0.0692436695098877,-0.18385542468863783,0.1721557378768921,-0.5033244435127454,-0.0009014207740429781,-0.22812965363820378,0.030578581750807052,0.1572664503751531,-0.02294202809920102,0.4504829773118914,-0.12905292212963104,2.3326477402435555,-0.4359568953514099,0.08098826965400452,-0.12988869845867157
1.1500000000000004,-0.04318511752876564,-0.0049470579251646996,-0.28925065004087985,-0.09104359894990921,2.0114163619278393,0.3322707712650299,-1.1842635372967139,-0.0001902654767036438,-0.31152357629357047,0.039142265915870667,-0.19885542468863784,0.16068190336227417,-0.49690758120172956,0.011296314755893478,-0.20792573716559076,0.029842439828027173,0.14546275803828237,-0.024346997999877613,0.7444829773118914,-0.17623436450958252,2.0786477402435555,-0.36488527059555054,-0.06401173034599549,-0.1503874957561493
1.1600000000000006,-0.055185117528765634,0.007654584478586912,-0.29225065004087986,-0.0918557271361351,2.010416361927839,0.3237875998020172,-1.2102635372967139,-0.022241534665226936,-0.2635235762935705,0.02461904287338257,-0.20385542468863785,0.15879085659980774,-0.4882436936813092,0.019684971586681338,-0.19059198501712163,0.028717248152556402,0.13430814263320207,-0.02486684377043145,0.4724829773118914,-0.18247506022453308,1.481647740243555,-0.3313741683959961,-0.031011730345995487,-0.15226081013679504
1.1700000000000004,-0.06618511752876564,-0.02262984961271286,-0.29425065004087986,-0.0992177426815033,2.0114163619278393,0.3396264314651489,-1.230263537296714,0.03783945366740227,-0.2145235762935705,0.04227638244628906,-0.18985542468863784,0.1736713945865631,-0.4808916659785111,0.01225162633165383,-0.17733393624914434,0.02857394022104127,0.13026231010421696,-0.024493426285335688,0.3754829773118914,-0.1313823163509369,1.312647740243555,-0.4019583761692047,-0.03501173034599549,-0.12366282939910889
