t,x,x_pred,y,y_pred,z,z_pred,vx,vx_pred,vy,vy_pred,vz,vz_pred,roll,roll_pred,pitch,pitch_pred,yaw,yaw_pred,wx,wx_pred,wy,wy_pred,wz,wz_pred
0.00999999999999921,0.037267828776721225,0.20896242558956146,0.027947036866745295,-0.03344274312257767,0.5514001279470127,1.1777043342590332,-0.0006156210354796278,-0.4267520010471344,-0.01935401847585586,-0.45584002137184143,0.031826154331480935,0.5965180993080139,-0.018837219371144798,0.07477350024930089,0.005036615254765236,0.02849339512874163,-0.006018187377008816,-0.04602686698337391,-1.9050529531116762,1.188772201538086,0.9257756145978795,0.003017023205757141,-0.0022703201851818804,0.6931852102279663
0.01999999999999944,0.03826782877672122,0.1888185441493988,0.027947036866745295,-0.13620348274707794,0.5554001279470127,0.9604544043540955,0.0013843789645203723,-0.4667588770389557,-0.015354018475855859,-0.23757708072662354,0.07882615433148094,0.36354756355285645,-0.038516729590492536,0.06976629644584047,0.016200846768593003,0.033346804119994695,-0.006276619121503341,-0.013574844893317797,-1.4040529531116763,0.7727020978927612,0.8347756145978794,0.10664808005094528,0.011729679814818119,0.3590942919254303
0.029999999999999225,0.03826782877672122,0.10748974978923798,0.02894703686674529,-0.14124858379364014,0.5584001279470127,0.780248761177063,0.0033843789645203724,-0.2931050956249237,-0.010354018475855858,-0.11154152452945709,0.11782615433148094,0.31480446457862854,-0.05538948627455106,0.06943725952965271,0.024564211607074834,0.013110380240677918,-0.006636465266847423,-0.007259446130776333,-0.5860529531116763,0.5215321183204651,0.5867756145978794,-0.06292591989040375,-0.03127032018518188,0.1933840960264206
0.03999999999999946,0.03826782877672122,0.06974659860134125,0.02894703686674529,-0.09712568670511246,0.5604001279470127,0.6043341755867004,0.007384378964520372,-0.23247991502285004,-0.0033540184758558585,-0.04200349003076553,0.15382615433148095,0.27101317048072815,-0.06383588364370019,0.06756870171137865,0.030146621792170303,0.012970465834969818,-0.006911855483346864,-0.016377973782214592,-0.31705295311167625,0.2358403354883194,0.39777561459787947,-0.11118776351213455,-0.05727032018518188,0.03482011705636978
0.049999999999999246,0.03826782877672122,0.0480872243642807,0.02894703686674529,-0.07178455591201782,0.5554001279470127,0.5014261603355408,0.012384378964520371,-0.17385458946228027,0.00664598152414414,0.007531523704528809,0.16582615433148093,0.2539888024330139,-0.06947802680741759,0.060809374324391215,0.035737178488775556,0.016573997850502842,-0.007184556426022322,-0.020562714279603732,-0.7490529531116763,0.09743712842464447,0.37577561459787945,-0.15191319584846497,-0.045270320185181886,-0.03726951405405998
0.05999999999999903,0.03826782877672122,-0.011803656816482544,0.02994703686674529,-0.07614335417747498,0.5604001279470127,0.49160557985305786,0.019384378964520374,0.007219202816486359,0.019645981524144145,0.07051034271717072,0.23282615433148093,0.2626119554042816,-0.07510956556949523,0.02202507274351102,0.03852206382321872,0.013109077611589661,-0.007385144150825531,-0.01910108815843081,-1.0180529531116762,0.11472216248512268,0.6457756145978795,-0.35548824071884155,-0.046270320185181874,-0.02810538187623024
0.06999999999999926,0.03826782877672122,0.01934833824634552,0.03094703686674529,-0.05658956244587898,0.5634001279470127,0.42921364307403564,0.026384378964520373,-0.03906809538602829,0.03064598152414414,0.05030262470245361,0.2828261543314809,0.21500974893569946,-0.08356813273185058,0.02015421272312502,0.04410010034210011,0.019222619366805613,-0.007772161796452878,-0.0212877684777425,-0.7520529531116763,-0.029508985579013824,0.6367756145978795,-0.3090709149837494,-0.04027032018518188,-0.09800319373607635
0.07999999999999904,0.03926782877672122,0.0038486523553729057,0.03094703686674529,-0.0622379407286644,0.5684001279470127,0.40347012877464294,0.03238437896452037,0.003209192305803299,0.04464598152414414,0.05432635545730591,0.3428261543314809,0.20399406552314758,-0.09491172251490296,0.013095552911798588,0.04953525993089443,0.02226881637542678,-0.011078937783227535,-0.022017704094667294,-0.27605295311167627,-0.055708758533000946,0.5257756145978795,-0.35364803671836853,-0.06927032018518188,-0.10299631953239441
0.08999999999999928,0.03926782877672122,-0.01831618882715702,0.03194703686674529,-0.07033118605613708,0.5654001279470127,0.3960089087486267,0.04238437896452037,0.052640024572610855,0.056645981524144136,0.06490711867809296,0.3778261543314809,0.1974967122077942,-0.097791373317992,0.002104506237647245,0.05793167109266447,0.025419861650217652,-0.011550047507233511,-0.022432218082581667,-0.05405295311167627,-0.05918392539024353,0.3457756145978794,-0.41799816489219666,-0.02427032018518188,-0.09928034245967865
0.09999999999999906,0.04026782877672122,-0.036679595708847046,0.03294703686674529,-0.07849020510911942,0.5724001279470127,0.41092440485954285,0.05138437896452037,0.11031955480575562,0.07164598152414414,0.08620743453502655,0.44982615433148093,0.19235235452651978,-0.09781533248207706,-0.014493431440913378,0.060735763908863476,0.0293807641724158,-0.011684727580494861,-0.021709619723824104,-0.32805295311167626,-0.044669173657894135,0.32077561459787945,-0.49622124433517456,-0.0042703201851818804,-0.09277892112731934
0.10999999999999929,0.04126782877672122,-0.03325630724430084,0.033947036866745293,-0.07715052366256714,0.5814001279470126,0.3973536193370819,0.06238437896452037,0.10252887010574341,0.08764598152414413,0.08319389820098877,0.5168261543314809,0.17551302909851074,-0.10065285342175902,-0.017338492886404943,0.06352379527769313,0.03274421358628231,-0.011906488627929689,-0.021814622289026416,-0.5480529531116763,-0.07786379009485245,0.5117756145978795,-0.49303725361824036,-0.01327032018518188,-0.10949581861495972
0.11999999999999908,0.04126782877672122,-0.04901139810681343,0.03494703686674529,-0.08041884005069733,0.5864001279470126,0.3884909451007843,0.07038437896452036,0.12360876798629761,0.10164598152414414,0.08748498558998108,0.5728261543314809,0.1745024025440216,-0.10633240003605123,-0.02023791949977333,0.06909874801532567,0.03600373914622011,-0.012373448736146599,-0.022737421440755044,-0.31305295311167625,-0.08129341155290604,0.6107756145978794,-0.516704797744751,-0.0062703201851818805,-0.10623256862163544
0.1299999999999993,0.04226782877672122,-0.05936582759022713,0.03694703686674529,-0.08366762846708298,0.5964001279470126,0.38290464878082275,0.08438437896452038,0.13292689621448517,0.12064598152414416,0.09132720530033112,0.6448261543314809,0.17322590947151184,-0.10920306938057883,-0.021594437130313726,0.07468966220757457,0.038274772281827,-0.012769404544878736,-0.02335986294831651,0.1379470468883237,-0.08373838663101196,0.5117756145978795,-0.5285511016845703,-0.00027032018518188036,-0.1044270396232605
0.1399999999999991,0.04326782877672122,-0.07042035460472107,0.03794703686674529,-0.08637872338294983,0.5934001279470126,0.3771957755088806,0.09638437896452037,0.13973914086818695,0.13764598152414415,0.09371402859687805,0.6708261543314809,0.17405655980110168,-0.11207819845306163,-0.021743507035945617,0.08028024163902323,0.040044588172569937,-0.01318135655962702,-0.024147702369537186,0.18894704688832373,-0.08384838700294495,0.43877561459787945,-0.5365292429924011,-0.00927032018518188,-0.10067354142665863
0.14999999999999933,0.044267828776721224,-0.02936270833015442,0.03894703686674529,-0.07973594963550568,0.6024001279470126,0.34261828660964966,0.10638437896452037,0.040087517350912094,0.15064598152414416,0.05382496118545532,0.7418261543314809,0.15832510590553284,-0.10944081954995899,-0.003806346340649908,0.0857581618038546,0.03461276977707119,-0.016183426071918618,-0.024048259706428946,-0.06005295311167627,-0.16046103835105896,0.4117756145978794,-0.4203937351703644,0.0007296798148181197,-0.13844861090183258
0.15999999999999912,0.04526782877672122,-0.0479029081761837,0.04094703686674529,-0.09217213094234467,0.6104001279470126,0.3668813705444336,0.12038437896452037,0.0994768887758255,0.16764598152414414,0.07387244701385498,0.8058261543314809,0.17551067471504211,-0.10947641927003673,-0.011733670499139206,0.08856298006893688,0.03361181829006208,-0.016335413905147173,-0.02279142094208149,-0.13005295311167628,-0.10724344104528427,0.46277561459787947,-0.4840376079082489,0.01072967981481812,-0.11273601651191711
0.16999999999999935,0.04626782877672122,-0.05977989360690117,0.04294703686674529,-0.09233049303293228,0.6194001279470126,0.3746243417263031,0.13438437896452038,0.12158569693565369,0.18464598152414416,0.08341813087463379,0.8698261543314809,0.17518237233161926,-0.10954958653206529,-0.01686592558074695,0.094173178932413,0.036091657782807735,-0.01663992518279044,-0.023224637138359754,0.11994704688832372,-0.09058067202568054,0.5607756145978794,-0.514206051826477,0.01572967981481812,-0.10415707528591156
0.17999999999999913,0.04826782877672122,-0.059566397219896317,0.04594703686674529,-0.0903201475739479,0.6254001279470126,0.36581483483314514,0.15038437896452037,0.10790160298347473,0.20364598152414415,0.07814638316631317,0.919826154331481,0.1707581877708435,-0.10962536554268942,-0.014336438484829515,0.09978417121997277,0.036742374914411756,-0.016945173718909964,-0.023830274174594195,0.32894704688832377,-0.10397391766309738,0.5737756145978794,-0.4990450143814087,0.02472967981481812,-0.10908418893814087
0.18999999999999936,0.04926782877672122,-0.04455287754535675,0.04694703686674529,-0.08852066844701767,0.6354001279470126,0.3507896065711975,0.16738437896452038,0.06674082577228546,0.21664598152414416,0.060811445116996765,0.9918261543314808,0.16591966152191162,-0.10688301833805029,-0.005970076914250721,0.10541950118958728,0.03442251082353644,-0.01710643701257377,-0.024068682664193233,0.31594704688832376,-0.13337814807891846,0.5227756145978795,-0.44895443320274353,0.04772967981481811,-0.12239474058151245
0.19999999999999915,0.05326782877672122,-0.02900218591094017,0.05394703686674529,-0.08898015320301056,0.6664001279470126,0.34009724855422974,0.20638437896452036,0.03251032903790474,0.25664598152414414,0.04472813010215759,1.1528261543314808,0.16416728496551514,-0.10139902063624506,0.002620557797675878,0.11669470832137122,0.03173928047658333,-0.017384535779679983,-0.0242351300071394,0.28394704688832373,-0.15190057456493378,0.5167756145978795,-0.40469151735305786,0.05472967981481812,-0.13091957569122314
0.20999999999999938,0.05326782877672122,-0.03159455209970474,0.05394703686674529,-0.09421464055776596,0.6664001279470126,0.350178599357605,0.20638437896452036,0.04954129084944725,0.25664598152414414,0.050047919154167175,1.1528261543314808,0.16983705759048462,-0.10139902063624506,0.0008414745065219389,0.11669470832137122,0.03050289953364918,-0.017384535779679983,-0.023341680980820543,0.28694704688832373,-0.13119688630104065,0.5287756145978795,-0.4230651259422302,0.05472967981481812,-0.12228435277938843
0.21999999999999917,0.05826782877672122,-0.05977916345000267,0.05994703686674529,-0.09882554411888123,0.6894001279470127,0.377803772687912,0.24938437896452037,0.11850087344646454,0.2886459815241441,0.07777057588100433,1.2858261543314808,0.18120557069778442,-0.09591464594343337,-0.013156581994307009,0.12797615224587924,0.033162205869756496,-0.017603299276627085,-0.022912264704018432,0.41394704688832373,-0.07887442409992218,0.6507756145978795,-0.5091296434402466,0.09872967981481812,-0.09660355746746063
0.2299999999999994,0.06126782877672122,-0.06788703799247742,0.0629470368667453,-0.09648013859987259,0.7054001279470126,0.39093518257141113,0.2733843789645204,0.14004191756248474,0.3046459815241441,0.09184285998344421,1.363826154331481,0.17651382088661194,-0.09019896840922816,-0.021474365155195498,0.13657673993994976,0.036904814497797034,-0.014811856417317602,-0.022999136414599886,0.6509470468883237,-0.06594759970903397,0.7747756145978795,-0.54068922996521,0.12972967981481812,-0.09264905750751495
0.2399999999999992,0.06126782877672122,-0.05095037817955017,0.0629470368667453,-0.08805154263973236,0.7054001279470126,0.3643134832382202,0.2733843789645204,0.08736306428909302,0.3046459815241441,0.07034185528755188,1.363826154331481,0.16415125131607056,-0.09019896840922816,-0.012697585786017158,0.13657673993994976,0.03614579422300202,-0.014811856417317602,-0.023493332612981407,0.7609470468883237,-0.11620315909385681,0.7377756145978794,-0.47886160016059875,0.1407296798148181,-0.11628563702106476
0.24999999999999942,0.06426782877672123,-0.06707997620105743,0.0659470368667453,-0.09359423816204071,0.7204001279470126,0.3677505552768707,0.29738437896452036,0.11613067984580994,0.31764598152414414,0.07995304465293884,1.435826154331481,0.17507719993591309,-0.08178856345976611,-0.014723323899355881,0.14225862862670197,0.036694869631881975,-0.014478789567598944,-0.024067264564096226,0.7229470468883237,-0.09513044357299805,0.6797756145978795,-0.5074049830436707,0.16172967981481812,-0.10267738997936249
0.25999999999999923,0.06626782877672123,-0.06354448199272156,0.0679470368667453,-0.09450747072696686,0.7274001279470126,0.3752923011779785,0.31338437896452037,0.11657647788524628,0.32064598152414414,0.0844920426607132,1.453826154331481,0.17333653569221497,-0.07340628254337776,-0.017147480649469877,0.1507539750661759,0.03679472476357045,-0.014203441667738124,-0.023402889426346198,0.7819470468883237,-0.09162668883800507,0.7917756145978795,-0.5106971859931946,0.2027296798148181,-0.10383841395378113
0.26999999999999946,0.06826782877672123,-0.04425938054919243,0.06994703686674529,-0.0902266576886177,0.7354001279470126,0.3647889196872711,0.3333843789645204,0.08068415522575378,0.32764598152414415,0.07064278423786163,1.479826154331481,0.16509681940078735,-0.06497964930417525,-0.012127481608586444,0.15643809357854846,0.03490882248374256,-0.013765207427912266,-0.02284162255322823,0.9599470468883237,-0.12120379507541656,0.9107756145978795,-0.4684922397136688,0.2357296798148181,-0.12085378170013428
0.27999999999999925,0.07226782877672124,-0.03422006592154503,0.0739470368667453,-0.08984627574682236,0.7504001279470126,0.36019644141197205,0.36038437896452036,0.0674608051776886,0.3356459815241441,0.0625593513250351,1.5438261543314808,0.16418758034706116,-0.05637616030734323,-0.008879897728237421,0.16783030834092164,0.03308814777055044,-0.010608939393388266,-0.02239577876519916,1.0919470468883237,-0.13107307255268097,0.9317756145978795,-0.4491177201271057,0.2387296798148181,-0.12646552920341492
0.2899999999999995,0.07526782877672122,-0.04678665101528168,0.0769470368667453,-0.09103375673294067,0.7664001279470126,0.3612382113933563,0.3843843789645204,0.0876101404428482,0.3416459815241441,0.06553705036640167,1.604826154331481,0.16999611258506775,-0.04510603875249201,-0.00998532058823754,0.1763357471047938,0.03376130078471756,-0.009875745961890565,-0.023041688078919154,1.1739470468883237,-0.11488355696201324,0.8287756145978794,-0.4701371192932129,0.30972967981481814,-0.11471198499202728
0.29999999999999927,0.07926782877672123,-0.005254185758531094,0.0799470368667453,-0.08187204599380493,0.7834001279470126,0.33245620131492615,0.41138437896452035,-0.009337600320577621,0.3466459815241441,0.0255739688873291,1.657826154331481,0.1532076597213745,-0.03355847032472126,0.007349556782328947,0.18488720684272492,0.030496027187916698,-0.006206247238816411,-0.02370993183077508,1.3089470468883238,-0.18197277188301086,0.8587756145978794,-0.3576051592826843,0.36772967981481813,-0.14754246175289154
0.30999999999999905,0.08326782877672123,-0.006650462746620178,0.0839470368667453,-0.09016254544258118,0.7944001279470126,0.3437720537185669,0.43538437896452037,0.013490743935108185,0.3476459815241441,0.030140355229377747,1.6828261543314809,0.16147318482398987,-0.01911794250265354,0.006906541672905594,0.19340974920660103,0.028302772667843798,-0.002165330688507941,-0.022343955796450342,1.4589470468883237,-0.15283846855163574,0.9847756145978794,-0.37688449025154114,0.39872967981481816,-0.13515605032444
0.3199999999999993,0.08726782877672123,0.0016060145571827888,0.08694703686674529,-0.08890355378389359,0.8114001279470127,0.34001457691192627,0.4613843789645204,-0.004793934524059296,0.3496459815241441,0.0203322172164917,1.714826154331481,0.15732350945472717,-0.004620422558120143,0.01055283138296707,0.20188853849950616,0.02792009964146009,0.0020038110052020114,-0.02260562338260567,1.6579470468883237,-0.1619388461112976,1.0837756145978794,-0.3571803867816925,0.5077296798148181,-0.13965709507465363
0.32999999999999907,0.09426782877672123,-0.03653079271316528,0.0929470368667453,-0.09655995666980743,0.8424001279470126,0.37949138879776,0.49838437896452037,0.09089785814285278,0.3576459815241441,0.05544048547744751,1.796826154331481,0.17596027255058289,0.01309890158373939,-0.008426428008683024,0.2131182149922054,0.02903670386725403,0.009467972853756048,-0.021013513334532063,1.9019470468883237,-0.08643792569637299,1.1177756145978794,-0.4741347134113312,0.562729679814818,-0.10172984004020691
0.3399999999999993,0.09826782877672123,-0.05229747295379639,0.0949470368667453,-0.09356065094470978,0.8564001279470126,0.38969749212265015,0.5103843789645204,0.11604942381381989,0.3466459815241441,0.07081633806228638,1.7798261543314808,0.17201149463653564,0.03349165965507041,-0.01723498484043571,0.22426529570854253,0.033305135182967696,0.014603692230096678,-0.021859097891408837,2.1539470468883235,-0.07204136252403259,1.1647756145978794,-0.511664628982544,0.6547296798148181,-0.09492351114749908
0.3499999999999991,0.10326782877672123,-0.02641114592552185,0.0979470368667453,-0.08558788150548935,0.8744001279470126,0.3740072548389435,0.5323843789645204,0.05483250692486763,0.3426459815241441,0.049180254340171814,1.7758261543314808,0.156497985124588,0.057190445588414004,-0.01096023496618295,0.23523156607614054,0.032000778671133996,0.023173054977474003,-0.021133500663948836,2.4339470468883238,-0.12016955018043518,1.2327756145978794,-0.44202569127082825,0.7487296798148181,-0.12024137377738953
0.3599999999999993,0.10726782877672122,0.002308267168700695,0.10094703686674529,-0.0806521326303482,0.8864001279470126,0.3532198369503021,0.5443843789645204,-0.005345895886421204,0.3346459815241441,0.02027963101863861,1.723826154331481,0.14875292778015137,0.08043087639261513,0.0003630587838148716,0.24908955851181377,0.028981603865586125,0.02641699940044392,-0.020746043782133676,2.759947046888324,-0.16383033990859985,1.3147756145978795,-0.36536410450935364,0.8827296798148181,-0.14105390012264252
0.3699999999999991,0.11326782877672123,-0.01889760233461857,0.1049470368667453,-0.08651399612426758,0.9034001279470126,0.36776119470596313,0.5633843789645203,0.0466412715613842,0.32764598152414415,0.03289659321308136,1.7008261543314809,0.16244828701019287,0.11058015474548603,-0.005790981895535684,0.25954589957016566,0.028871112612625892,0.039193068261745095,-0.020429102613543793,3.0239470468883236,-0.12005317211151123,1.3837756145978795,-0.4211578369140625,0.947729679814818,-0.11637912690639496
0.37999999999999934,0.11926782877672124,-0.02055983617901802,0.1069470368667453,-0.08489056676626205,0.9214001279470126,0.35488611459732056,0.5803843789645203,0.032864246517419815,0.31664598152414414,0.028241604566574097,1.679826154331481,0.15928354859352112,0.14360540210417255,-0.0015623233619839606,0.27264468079897336,0.02983271473757856,0.05005939777424581,-0.021909937828793927,3.1119470468883237,-0.13364987075328827,1.3887756145978793,-0.4080955684185028,0.9827296798148181,-0.1216106116771698
0.3899999999999991,0.12426782877672123,-0.052013661712408066,0.1099470368667453,-0.09125740081071854,0.9384001279470127,0.3737461566925049,0.5973843789645203,0.09146854281425476,0.30864598152414413,0.051287874579429626,1.6448261543314808,0.17339035868644714,0.18022880078717793,-0.010711228906944703,0.2851387751477275,0.03185264401417141,0.06470373584060556,-0.022393801383309084,3.126947046888324,-0.08499450981616974,1.2887756145978795,-0.47721049189567566,1.0777296798148182,-0.09378562867641449
0.39999999999999936,0.13426782877672122,-0.013869240880012512,0.1149470368667453,-0.07981809228658676,0.9604001279470126,0.33680230379104614,0.6313843789645204,-0.014226626604795456,0.30564598152414413,0.01096576452255249,1.633826154331481,0.15383180975914001,0.2134870404979834,0.007707426284846458,0.29791640097621275,0.03024279228699724,0.0737003190032127,-0.023939105542890207,3.114947046888324,-0.16512244939804077,1.1697756145978795,-0.35753604769706726,1.1167296798148183,-0.1317051649093628
0.40999999999999914,0.14026782877672123,-0.010041659697890282,0.11794703686674529,-0.08697936683893204,0.9764001279470126,0.3333808481693268,0.6483843789645204,-0.017809642478823662,0.2946459815241441,0.007823854684829712,1.591826154331481,0.1598164141178131,0.25058924844506203,0.014556516706324034,0.30686080580002234,0.028491796526837993,0.08900439775172996,-0.024181422139476088,3.1249470468883236,-0.15635493397712708,0.9777756145978794,-0.34324824810028076,1.2307296798148182,-0.12727324664592743
0.4199999999999994,0.1452678287767212,-0.0005388753488659859,0.1199470368667453,-0.08859968930482864,0.9894001279470126,0.3308012783527374,0.6523843789645204,-0.038452278822660446,0.2756459815241441,-0.0019520223140716553,1.5258261543314808,0.15808910131454468,0.287722604828223,0.020163178547597155,0.31255211178128145,0.027827548558228294,0.10425928662611085,-0.02445516313281999,3.1779470468883235,-0.16070803999900818,0.7787756145978795,-0.31841686367988586,1.2627296798148182,-0.1292574107646942
0.42999999999999916,0.1522678287767212,0.005455693695694208,0.1219470368667453,-0.09051232784986496,1.0044001279470125,0.3314475119113922,0.6693843789645204,-0.04833430051803589,0.26364598152414415,-0.007685542106628418,1.477826154331481,0.15717482566833496,0.325523672465613,0.023500503800394864,0.31735105627548643,0.027348437634329634,0.12266971411475264,-0.024370196510514426,3.2049470468883237,-0.1587560921907425,0.5247756145978795,-0.3060372471809387,1.2587296798148182,-0.12866267561912537
0.4399999999999994,0.1572678287767212,-0.03094949945807457,0.1239470368667453,-0.10142839699983597,1.0174001279470124,0.36488398909568787,0.6803843789645204,0.04935341700911522,0.24164598152414415,0.033946841955184937,1.4148261543314808,0.17703428864479065,0.3627583551288,0.005497550213364517,0.3193044801790674,0.026670538278508873,0.13788190576530798,-0.022175942400405796,3.033947046888324,-0.09070472419261932,0.24477561459787944,-0.4269946813583374,1.0897296798148182,-0.09975472092628479
0.4499999999999992,0.16426782877672122,-0.04971121996641159,0.1259470368667453,-0.1018841341137886,1.0314001279470124,0.3830127418041229,0.6953843789645203,0.09725068509578705,0.22664598152414414,0.06273281574249268,1.361826154331481,0.17842522263526917,0.3993099114144606,-0.008046821634280775,0.31859056802319224,0.02983147240700937,0.14972492214198194,-0.022213558848099484,2.7369470468883237,-0.06933463364839554,0.012775614597879428,-0.49177977442741394,0.944729679814818,-0.0938330590724945
0.4599999999999994,0.17126782877672123,-0.007907308638095856,0.1279470368667453,-0.08805852383375168,1.0434001279470124,0.34697070717811584,0.7143843789645203,0.0003681592643260956,0.20964598152414415,0.03029686212539673,1.304826154331481,0.1557285189628601,0.4296165764167799,0.006469397840943108,0.3152479328133632,0.029287517783417028,0.15998458158348053,-0.023116103486164472,2.239947046888324,-0.15721029043197632,-0.25022438540212055,-0.37901273369789124,0.7947296798148181,-0.13974246382713318
0.4699999999999992,0.1782678287767212,-0.0185093991458416,0.1299470368667453,-0.09629582613706589,1.0564001279470125,0.36007529497146606,0.7313843789645204,0.04646545276045799,0.19064598152414414,0.04814821481704712,1.250826154331481,0.16770434379577637,0.45907794047301537,0.0009415843360782993,0.30955194098315764,0.028410173445021936,0.16660458293835234,-0.021733476223803963,1.7369470468883237,-0.12407630681991577,-0.44422438540212056,-0.4230433702468872,0.6817296798148181,-0.1259603351354599
0.4799999999999994,0.1862678287767212,-0.005955273285508156,0.1309470368667453,-0.09227856993675232,1.0684001279470126,0.3496491611003876,0.7503843789645204,0.02155217155814171,0.16864598152414415,0.04018905758857727,1.197826154331481,0.16020768880844116,0.4796773242813414,0.0046465996387265365,0.30446801335810336,0.02860812707802735,0.171773852947596,-0.022130568613182952,1.3249470468883238,-0.14874029159545898,-0.5112243854021206,-0.3940802216529846,0.5127296798148181,-0.13964974880218506
0.4899999999999992,0.19326782877672122,-0.011410335078835487,0.1329470368667453,-0.09532803297042847,1.0824001279470126,0.35994866490364075,0.7693843789645204,0.04796711727976799,0.14564598152414415,0.050376102328300476,1.151826154331481,0.1645631194114685,0.4968396991562812,-0.0002796742742790082,0.29682818235581215,0.028457937125183446,0.1756331260159592,-0.0211927816015765,1.0089470468883237,-0.1310480386018753,-0.5622243854021206,-0.422400563955307,0.4167296798148181,-0.13262490928173065
0.49999999999999944,0.20526782877672123,-0.036608364433050156,0.1349470368667453,-0.09732222557067871,1.0984001279470126,0.3822524845600128,0.7963843789645204,0.11022859811782837,0.12064598152414416,0.0757606029510498,1.111826154331481,0.17295092344284058,0.5077040899478686,-0.013663440332814728,0.2903568570212523,0.0312900579592046,0.17573728555536006,-0.021103381892734644,0.8709470468883237,-0.09089279919862747,-0.5232243854021206,-0.4991196095943451,0.33672967981481816,-0.1125853955745697
0.5099999999999992,0.2162678287767212,-0.05424445495009422,0.1359470368667453,-0.09407878667116165,1.1114001279470125,0.38122814893722534,0.8233843789645203,0.13165108859539032,0.09264598152414413,0.08710631728172302,1.0738261543314809,0.1713007688522339,0.5156181299938649,-0.018592601268136215,0.28414618485526827,0.03571182457752377,0.1753714765917801,-0.022593851131335024,0.7699470468883237,-0.08506270498037338,-0.5292243854021206,-0.5271937251091003,0.2977296798148181,-0.10709591209888458
0.5199999999999995,0.22526782877672122,-0.04313940927386284,0.1369470368667453,-0.08789536356925964,1.1234001279470125,0.352233350276947,0.8473843789645203,0.07834836840629578,0.06264598152414413,0.06591394543647766,1.034826154331481,0.16304424405097961,0.5235337398677369,-0.007727905969301035,0.2779448529347307,0.035204479853435715,0.1749628996701085,-0.023959482743273787,0.7069470468883237,-0.13260595500469208,-0.6482243854021206,-0.4637131989002228,0.26472967981481815,-0.12592384219169617
0.5299999999999992,0.22926782877672122,-0.03438841551542282,0.1359470368667453,-0.09104815870523453,1.1334001279470125,0.34305664896965027,0.8513843789645203,0.05254565551877022,0.03064598152414414,0.055418163537979126,0.9798261543314809,0.16548475623130798,0.5313293045152663,-0.00013956209606548174,0.26830789873128447,0.03273199196438284,0.1764712719891344,-0.024252535119248405,0.6669470468883237,-0.1447414755821228,-0.8382243854021205,-0.42802128195762634,0.2417296798148181,-0.13005474209785461
0.5399999999999995,0.2412678287767212,-0.01769929938018322,0.1359470368667453,-0.09183505177497864,1.1434001279470125,0.3341197669506073,0.8793843789645204,0.018351111561059952,-0.0023540184758558593,0.04168684780597687,0.9418261543314809,0.16305050253868103,0.5389179468605009,0.008147102693817597,0.2628566508513394,0.030600374604150223,0.17319004317255082,-0.02445852493910774,0.5779470468883237,-0.1620686948299408,-0.9842243854021205,-0.38530221581459045,0.1397296798148181,-0.13928598165512085
0.5499999999999993,0.2462678287767212,-0.029795672744512558,0.1359470368667453,-0.09969425946474075,1.1484001279470124,0.35389912128448486,0.8883843789645204,0.06456571817398071,-0.034354018475855855,0.06077881157398224,0.8818261543314809,0.17323565483093262,0.5456433572025032,0.000530203287350862,0.25201375029861317,0.029930142900268908,0.16821628795677934,-0.022931770994178785,0.29894704688832374,-0.12412044405937195,-1.1682243854021206,-0.43957117199897766,0.06272967981481813,-0.12442430853843689
0.5599999999999995,0.2542678287767212,-0.045289065688848495,0.1349470368667453,-0.1008325070142746,1.1544001279470124,0.3784312605857849,0.9043843789645204,0.1133301705121994,-0.06835401847585586,0.08269138634204865,0.8358261543314809,0.1770339012145996,0.5465571414276674,-0.01238101214421026,0.24168164320483354,0.03216365221581873,0.16250298899366408,-0.02204161500468543,0.06394704688832373,-0.09057921171188354,-1.2392243854021205,-0.5028662085533142,-0.0032703201851818804,-0.1105770468711853
0.5699999999999993,0.2632678287767212,-0.03800590708851814,0.1349470368667453,-0.09547846019268036,1.1714001279470125,0.3767167627811432,0.9273843789645204,0.10406404733657837,-0.10635401847585585,0.08334909379482269,0.8188261543314809,0.1674010157585144,0.5478321916277846,-0.014523033124131956,0.2306157010840441,0.03370376440072999,0.1595573745026079,-0.021850164096645155,-0.1740529531116763,-0.10706774145364761,-1.1852243854021205,-0.4953492283821106,-0.06327032018518187,-0.12230579555034637
0.5799999999999991,0.27726782877672124,-0.02519046887755394,0.1319470368667453,-0.09016477316617966,1.1794001279470125,0.3584478497505188,0.9643843789645203,0.0704001933336258,-0.15135401847585586,0.0685281753540039,0.789826154331481,0.1605932116508484,0.5454153385658914,-0.008187146172518367,0.22201632382790207,0.033021045187476755,0.14804428720105864,-0.022226285112157212,-0.4140529531116762,-0.14053349196910858,-1.0072243854021206,-0.45277172327041626,-0.11227032018518188,-0.13786602020263672
0.5899999999999993,0.2892678287767212,-0.05052343010902405,0.1299470368667453,-0.09545107930898666,1.1874001279470126,0.37088891863822937,0.9933843789645204,0.12291152775287628,-0.19435401847585584,0.0865907222032547,0.7638261543314809,0.1735633909702301,0.5410915642041356,-0.015288453545167686,0.21483402299938872,0.034995707516717864,0.14257410908667886,-0.022698650350523354,-0.6020529531116763,-0.10243704915046692,-0.9892243854021205,-0.511185348033905,-0.09727032018518188,-0.11563675105571747
0.5999999999999991,0.3002678287767212,-0.06341296434402466,0.1279470368667453,-0.0944192185997963,1.1984001279470125,0.37338340282440186,1.0183843789645204,0.13635575771331787,-0.23835401847585586,0.09345005452632904,0.7528261543314809,0.17357385158538818,0.5339036484156199,-0.01845675765149546,0.20782928611173682,0.03773529565754889,0.13685143916501968,-0.02354722741537239,-0.6390529531116763,-0.09200283885002136,-1.0672243854021206,-0.5297996401786804,-0.09427032018518187,-0.10770554840564728
0.6099999999999993,0.3102678287767212,-0.07227697968482971,0.1249470368667453,-0.09488153457641602,1.2064001279470125,0.3728468418121338,1.0393843789645205,0.1429665982723236,-0.2803540184758559,0.09816354513168335,0.7288261543314809,0.17444831132888794,0.5266903231523036,-0.019742521109264877,0.19735747558033512,0.03955221691287433,0.13317426689327982,-0.024203660570866235,-0.6620529531116763,-0.08898547291755676,-1.2562243854021204,-0.539038896560669,-0.12327032018518187,-0.10433278977870941
0.6199999999999991,0.3162678287767212,-0.030964046716690063,0.1239470368667453,-0.08356829732656479,1.2074001279470126,0.33094319701194763,1.0303843789645204,0.032952453941106796,-0.31235401847585587,0.05173127353191376,0.666826154331481,0.1585642695426941,0.5183173704542946,0.0013483083521499107,0.18697466440791002,0.03462382140027424,0.11784402389754367,-0.02537380280579846,-0.7110529531116763,-0.17387419939041138,-1.4172243854021205,-0.4098922908306122,-0.1622703201851819,-0.1432396024465561
0.6299999999999993,0.3292678287767212,-0.045982930809259415,0.11894703686674529,-0.09875356405973434,1.2174001279470126,0.36602920293807983,1.0583843789645204,0.10090398788452148,-0.35935401847585585,0.07935795187950134,0.654826154331481,0.17745283246040344,0.5110985105812521,-0.009674856861213362,0.1771217605938675,0.03270877531756725,0.11161615313074542,-0.022708870870172308,-0.7320529531116763,-0.10948411375284195,-1.3992243854021205,-0.4848098158836365,-0.1662703201851819,-0.11679625511169434
0.6399999999999991,0.34026782877672124,-0.019029561430215836,0.1159470368667453,-0.09773701429367065,1.2234001279470126,0.334807425737381,1.0763843789645204,0.0820263922214508,-0.4013540184758559,0.059312403202056885,0.6348261543314809,0.18280377984046936,0.5035047984646999,-0.0016423354522518514,0.16519423466902933,0.029903641615167478,0.10201122441995178,-0.02007331309254185,-0.8990529531116763,-0.13462617993354797,-1.2362243854021207,-0.4484702944755554,-0.15327032018518189,-0.15540939569473267
0.6499999999999994,0.3472678287767212,-0.03273693844676018,0.1129470368667453,-0.09500711411237717,1.2274001279470126,0.3525276184082031,1.0723843789645204,0.09351441264152527,-0.43635401847585586,0.06381984055042267,0.5968261543314809,0.17808812856674194,0.4929863043705567,-0.0045122228922181,0.1540084050975674,0.03112778709488952,0.08956048080632167,-0.021579329543228793,-1.1950529531116763,-0.12207604944705963,-1.1752243854021205,-0.46451127529144287,-0.1542703201851819,-0.13226675987243652
0.6599999999999991,0.3562678287767212,-0.01676340214908123,0.1089470368667453,-0.08845481276512146,1.2374001279470126,0.3402125835418701,1.0823843789645204,0.03964327648282051,-0.4763540184758559,0.04408581554889679,0.5878261543314809,0.1646714210510254,0.48012885166550706,0.004137063468900082,0.14151332143391346,0.030586189003818928,0.082549596705302,-0.023349654194780762,-1.2760529531116762,-0.15798091888427734,-1.1232243854021207,-0.4073527157306671,-0.1632703201851819,-0.1434948742389679
0.6699999999999994,0.3662678287767212,-0.017628908157348633,0.1039470368667453,-0.0932832658290863,1.2404001279470125,0.3517933189868927,1.0943843789645205,0.048870328813791275,-0.5173540184758558,0.0482722669839859,0.5618261543314809,0.1669386625289917,0.46744497975619465,0.002252535436357819,0.13231252416106426,0.029425442783042786,0.07362443567677046,-0.022496958697100663,-1.2270529531116763,-0.14125359058380127,-1.0682243854021205,-0.41846194863319397,-0.14827032018518188,-0.13459879159927368
0.6799999999999992,0.3772678287767212,0.004989461041986942,0.0989470368667453,-0.08734376728534698,1.2454001279470126,0.33512088656425476,1.1073843789645206,-0.007850605994462967,-0.5593540184758559,0.024487823247909546,0.5478261543314809,0.15547412633895874,0.45216555136622233,0.01213411894174082,0.12248803185911984,0.02873745634848995,0.06741027850828725,-0.023489653866742864,-1.2470529531116763,-0.17888756096363068,-1.0342243854021205,-0.35354819893836975,-0.1582703201851819,-0.15117007493972778
0.6899999999999994,0.3882678287767212,-0.016895737498998642,0.0939470368667453,-0.09581334888935089,1.2564001279470125,0.3591057062149048,1.1233843789645206,0.05356796458363533,-0.6003540184758558,0.04601915180683136,0.5478261543314809,0.16886109113693237,0.4400259091810027,0.001869178470284955,0.11523736173047269,0.02816160356488289,0.0621280687345396,-0.02175365238066815,-1.3390529531116764,-0.12630245089530945,-1.0132243854021206,-0.42459678649902344,-0.1292703201851819,-0.1256793588399887
0.6999999999999992,0.40026782877672124,-0.027326934039592743,0.08794703686674529,-0.0953507199883461,1.2624001279470125,0.36872074007987976,1.1353843789645204,0.07440073788166046,-0.6423540184758558,0.05699865520000458,0.538826154331481,0.1684478223323822,0.42494558604257066,-0.005005178198959811,0.10526334452041917,0.029844358133348747,0.056200856027414085,-0.02170592844486406,-1.4510529531116763,-0.11317910254001617,-1.0052243854021206,-0.455350786447525,-0.1312703201851819,-0.11980079114437103
0.7099999999999994,0.4112678287767212,-0.004935049451887608,0.0819470368667453,-0.08829719573259354,1.2674001279470124,0.34922486543655396,1.1473843789645204,0.017918098717927933,-0.6823540184758559,0.036303237080574036,0.532826154331481,0.1558580994606018,0.4130822617134233,0.0034914917151955224,0.09732841995713841,0.02934736800591398,0.05389439850004401,-0.022247052857153626,-1.4940529531116764,-0.15832212567329407,-1.0382243854021205,-0.39006760716438293,-0.12427032018518187,-0.14228017628192902
0.7199999999999992,0.4232678287767212,-0.030251581221818924,0.0749470368667453,-0.09447819739580154,1.2734001279470124,0.36128008365631104,1.1583843789645205,0.07065260410308838,-0.7223540184758558,0.053796976804733276,0.526826154331481,0.16969463229179382,0.3953197276746873,-0.0031133170516861397,0.0872997985376463,0.030101388443403748,0.0481302303942323,-0.02224759740928399,-1.4940529531116764,-0.11752116680145264,-1.1592243854021205,-0.44766852259635925,-0.14927032018518188,-0.11907845735549927
0.7299999999999994,0.4342678287767212,0.002662455663084984,0.0679470368667453,-0.0870179682970047,1.2774001279470124,0.3402130603790283,1.1693843789645204,-0.0054078176617622375,-0.7553540184758558,0.027031004428863525,0.5138261543314809,0.15370991826057434,0.3805169295488357,0.008468209331338081,0.07712129786755803,0.02894794016904561,0.042659571119163284,-0.022767175428554436,-1.4450529531116763,-0.1723649501800537,-1.1172243854021207,-0.3617747128009796,-0.1292703201851819,-0.14789055287837982
0.7399999999999992,0.4462678287767212,-0.0050865644589066505,0.05994703686674529,-0.09308141469955444,1.2874001279470124,0.35241398215293884,1.1783843789645205,0.026288282126188278,-0.7943540184758558,0.036116376519203186,0.532826154331481,0.16207566857337952,0.3658938087820983,0.00471696067398159,0.06637281268366789,0.027846271674554356,0.04010988786866819,-0.02151246471942303,-1.4690529531116763,-0.14279967546463013,-1.0562243854021205,-0.3931905925273895,-0.1252703201851819,-0.13425199687480927
0.7499999999999994,0.45826782877672123,-0.041065603494644165,0.05394703686674529,-0.09731490910053253,1.2914001279470124,0.37980467081069946,1.1873843789645204,0.10573002696037292,-0.8213540184758559,0.06710702180862427,0.5188261543314809,0.17570552229881287,0.3512621712958787,-0.011089424689171824,0.056071537173827866,0.030623489099934006,0.03495272572485699,-0.021469321814336115,-1.5710529531116764,-0.08630490303039551,-1.0712243854021206,-0.49242252111434937,-0.11827032018518188,-0.10481378436088562
0.7599999999999992,0.47026782877672124,-0.06050730124115944,0.04594703686674529,-0.09559231251478195,1.2964001279470125,0.39074915647506714,1.1953843789645204,0.138514444231987,-0.8513540184758558,0.08607721328735352,0.5098261543314809,0.17438587546348572,0.3340651895103321,-0.020368076466847376,0.0476024033266727,0.035504965250505185,0.03588324227565871,-0.02249883854518518,-1.6130529531116764,-0.06757117062807083,-1.0832243854021206,-0.5373310446739197,-0.1382703201851819,-0.09524506330490112
0.7699999999999995,0.4822678287767212,-0.0431939996778965,0.03794703686674529,-0.08962393552064896,1.2954001279470124,0.3732183873653412,1.2013843789645204,0.09318186342716217,-0.8793540184758558,0.07335339486598969,0.4908261543314809,0.16205373406410217,0.3195657422153353,-0.015001170409650539,0.037201228027155184,0.035265567695409394,0.031031016914597656,-0.022411995571460033,-1.5480529531116762,-0.11088600754737854,-1.1302243854021206,-0.48634758591651917,-0.11327032018518188,-0.11867621541023254
0.7799999999999992,0.4942678287767212,-0.04813458397984505,0.02994703686674529,-0.09156546741724014,1.3044001279470125,0.37077125906944275,1.2063843789645206,0.10141970217227936,-0.9083540184758558,0.07538209855556488,0.4948261543314809,0.1671140491962433,0.30234678235011536,-0.014976062399580225,0.026359728807946018,0.03524006880098838,0.029069335390934547,-0.022611890957911506,-1.5600529531116762,-0.10857465863227844,-1.1412243854021205,-0.49108895659446716,-0.1292703201851819,-0.11575429141521454
0.7899999999999995,0.5072678287767213,-0.03063173219561577,0.02094703686674529,-0.08931678533554077,1.3114001279470124,0.3591497242450714,1.2093843789645204,0.06709475815296173,-0.9363540184758559,0.06381116807460785,0.4958261543314809,0.16121837496757507,0.28515976514565355,-0.009027969431876805,0.015876886465423946,0.03334636134430852,0.024515125831702605,-0.02231346124869287,-1.6000529531116763,-0.13577766716480255,-1.0862243854021205,-0.45004233717918396,-0.11527032018518188,-0.13143686950206757
0.7999999999999993,0.5192678287767213,-0.019571293145418167,0.011947036866745291,-0.08956000208854675,1.3134001279470124,0.3556409776210785,1.2123843789645206,0.05281103029847145,-0.9623540184758558,0.056247010827064514,0.4868261543314809,0.16047513484954834,0.2708790048420906,-0.005548020227747835,0.0049234021062224765,0.03146585306765176,0.02292823179678237,-0.021784832801367816,-1.6020529531116763,-0.1443357616662979,-0.9692243854021205,-0.4292563498020172,-0.12227032018518187,-0.13678447902202606
0.8099999999999995,0.5312678287767213,-0.0076166968792676926,0.002947036866745292,-0.08609737455844879,1.3224001279470126,0.33969882130622864,1.2143843789645206,0.018627945333719254,-0.9873540184758558,0.0371394157409668,0.4918261543314809,0.156624436378479,0.25381963240138977,0.0034142149796403667,-0.005676075297149457,0.030242240652001148,0.01872016309599249,-0.02267699186881369,-1.6320529531116763,-0.1666899174451828,-1.0072243854021206,-0.38544508814811707,-0.062270320185181874,-0.1446000635623932
0.8199999999999993,0.5432678287767213,-0.009183935821056366,-0.005052963133254708,-0.08940224349498749,1.3294001279470125,0.34048524498939514,1.2153843789645205,0.02006632462143898,-1.008354018475856,0.03343720734119415,0.4928261543314809,0.16046547889709473,0.23680228891858165,0.006211980291941421,-0.016667967677670432,0.029223802409097086,0.017476983122495068,-0.022796913621015456,-1.6840529531116764,-0.15604375302791595,-1.0902243854021205,-0.3838633894920349,-0.06927032018518188,-0.1372612714767456
0.8299999999999991,0.5562678287767213,-0.00931164063513279,-0.014052963133254708,-0.09123983979225159,1.3354001279470125,0.3423200845718384,1.2143843789645206,0.017438318580389023,-1.0273540184758558,0.030863583087921143,0.4918261543314809,0.1613723635673523,0.21981525069418267,0.0076298434236498555,-0.027681350459682626,0.028748018745976097,0.016417439080180528,-0.022860338556394456,-1.6800529531116764,-0.150923952460289,-1.1342243854021206,-0.3820177912712097,-0.07427032018518187,-0.13403275609016418
0.8399999999999993,0.5862678287767212,-0.03180256858468056,-0.03805296313325471,-0.09831630438566208,1.3484001279470126,0.3737778961658478,1.2203843789645206,0.0850134938955307,-1.0723540184758558,0.059958457946777344,0.4848261543314809,0.17325648665428162,0.18591780273572595,-0.006972222118795937,-0.046969732506563174,0.02944089675344037,0.01510124422987015,-0.02118670213001045,-1.6480529531116763,-0.09953291714191437,-1.1092243854021206,-0.4668829143047333,-0.04027032018518188,-0.11213338375091553
0.8499999999999991,0.5862678287767212,0.007123046088963747,-0.03805296313325471,-0.08378520607948303,1.3484001279470126,0.34038886427879333,1.2203843789645206,-0.013074282556772232,-1.0723540184758558,0.022328436374664307,0.4848261543314809,0.1505415141582489,0.18591780273572595,0.008003593093134675,-0.046969732506563174,0.028888607397268472,0.01510124422987015,-0.022481238972887087,-1.6480529531116763,-0.1776324063539505,-1.1092243854021206,-0.3556539714336395,-0.04027032018518188,-0.15071037411689758
0.8599999999999993,0.5982678287767212,0.026150589808821678,-0.04905296313325471,-0.08498982340097427,1.3534001279470125,0.32849621772766113,1.2153843789645205,-0.04710661619901657,-1.0883540184758558,0.004592522978782654,0.4758261543314809,0.14765316247940063,0.1690627817575653,0.01868077331505063,-0.06060007744962904,0.0275447382179234,0.011539000437861121,-0.0228183715957272,-1.6800529531116764,-0.19247832894325256,-1.0962243854021205,-0.30482274293899536,-0.03227032018518188,-0.15748251974582672
0.8699999999999991,0.6102678287767213,0.002107422798871994,-0.06005296313325471,-0.09361452609300613,1.3584001279470126,0.351094514131546,1.2113843789645204,0.017805326730012894,-1.1043540184758558,0.025101155042648315,0.4648261543314809,0.16209512948989868,0.15215703059590288,0.008919731493111442,-0.06890280457024058,0.026466088190716774,0.011416541526000324,-0.021156588222701004,-1.7670529531116763,-0.1385193169116974,-1.0732243854021206,-0.38036099076271057,-0.0062703201851818805,-0.13137008249759674
0.8799999999999993,0.6182678287767213,-0.00836152769625187,-0.0650529631332547,-0.0941305160522461,1.3634001279470125,0.362364798784256,1.1763843789645205,0.03873622044920921,-1.0883540184758558,0.035332679748535156,0.4538261543314809,0.16278290748596191,0.13299630069993662,0.0019436641284802686,-0.08189674503321089,0.027320068859551086,-0.002856436024452177,-0.020873231152784482,-1.8370529531116764,-0.12473885715007782,-1.1002243854021205,-0.4118087589740753,0.02972967981481812,-0.12525422871112823
0.8899999999999991,0.6342678287767213,-0.011191608384251595,-0.0800529631332547,-0.09369008243083954,1.3654001279470125,0.3689568340778351,1.1853843789645204,0.04908306524157524,-1.111354018475856,0.04323762655258179,0.4298261543314809,0.16140159964561462,0.11578337725227465,-0.002890408677466778,-0.09361030845683299,0.028136804320266745,0.005610291270089684,-0.020449040233329302,-1.8030529531116763,-0.12176939845085144,-1.0512243854021206,-0.4269300103187561,0.02572967981481812,-0.12601785361766815
0.8999999999999994,0.6472678287767213,0.013173887506127357,-0.0920529631332547,-0.08645883947610855,1.3744001279470126,0.35007286071777344,1.1843843789645205,-0.0062864236533641815,-1.1263540184758558,0.022812113165855408,0.4368261543314809,0.14936143159866333,0.0960777450161118,0.005518502192390145,-0.1047800954113225,0.0276700800266451,0.00598531215636978,-0.020781806140423142,-1.6850529531116762,-0.16670125722885132,-0.9062243854021206,-0.36136993765830994,0.02772967981481812,-0.1491120159626007
0.9099999999999991,0.6542678287767213,0.008060789667069912,-0.0980529631332547,-0.08821678906679153,1.3784001279470126,0.3492651879787445,1.1473843789645204,0.004741646349430084,-1.1123540184758558,0.021782875061035156,0.4288261543314809,0.15423089265823364,0.07698886206354616,0.006526493686258655,-0.11553599454511451,0.027320025991784295,-0.004694175272884976,-0.02085472678257962,-1.6250529531116764,-0.15559601783752441,-0.8422243854021205,-0.36765339970588684,0.11272967981481813,-0.14091208577156067
0.9199999999999994,0.6682678287767213,0.0013333074748516083,-0.1110529631332547,-0.0889788493514061,1.3854001279470125,0.34662604331970215,1.1443843789645205,0.008001796901226044,-1.1243540184758558,0.020904019474983215,0.4288261543314809,0.15656757354736328,0.05993969588795579,0.007687527823414347,-0.12408478048069309,0.02771060868877364,-0.001171296603294319,-0.02164479223486355,-1.5830529531116764,-0.1508452445268631,-0.7872243854021206,-0.371700644493103,0.13272967981481812,-0.13566730916500092
0.9299999999999992,0.6812678287767213,-0.00277666375041008,-0.1230529631332547,-0.09057652205228806,1.3844001279470126,0.3465843200683594,1.1393843789645204,0.008790273219347,-1.133354018475856,0.021293997764587402,0.3988261543314809,0.15838375687599182,0.045671434792462086,0.008473005896281562,-0.1325884128923913,0.027813885364347056,0.0023151763233143314,-0.022043050776419958,-1.5580529531116762,-0.1465868353843689,-0.6872243854021206,-0.3733893632888794,0.16172967981481812,-0.13207803666591644
0.9399999999999994,0.6922678287767212,-0.020004652440547943,-0.1350529631332547,-0.09569995850324631,1.3934001279470125,0.3656693696975708,1.1273843789645204,0.052947234362363815,-1.137354018475856,0.04122227430343628,0.4068261543314809,0.16705435514450073,0.028726587404689016,-0.000813462654179308,-0.13819205989287672,0.02812533159136519,0.0033315785812812527,-0.021122165289109925,-1.5440529531116762,-0.11274231970310211,-0.6442243854021206,-0.428602010011673,0.1737296798148181,-0.11694951355457306
0.9499999999999992,0.7042678287767212,-0.02404089644551277,-0.1450529631332547,-0.09292089939117432,1.4004001279470124,0.36387473344802856,1.1143843789645205,0.052244577556848526,-1.139354018475856,0.04352584481239319,0.4068261543314809,0.16429772973060608,0.011760629063982073,-0.002438531549621723,-0.146603043250251,0.02950107078876849,0.00442671467024336,-0.02173018960844209,-1.5730529531116764,-0.11780248582363129,-0.6912243854021206,-0.4311123490333557,0.1757296798148181,-0.11878365278244019
0.9599999999999994,0.7142678287767212,-0.01566026546061039,-0.1560529631332547,-0.09189186245203018,1.4054001279470125,0.35940441489219666,1.0993843789645206,0.0367886908352375,-1.139354018475856,0.04100000858306885,0.4038261543314809,0.1607283353805542,-0.005226356231914821,-0.0006815782675095034,-0.1521924957226097,0.029276495834053156,0.005655378249635091,-0.02157737317760554,-1.5780529531116763,-0.13278867304325104,-0.6402243854021206,-0.41299954056739807,0.16172967981481812,-0.12825201451778412
0.9699999999999992,0.7252678287767212,-0.043405696749687195,-0.1660529631332547,-0.09639425575733185,1.4104001279470124,0.38266631960868835,1.0843843789645204,0.10532818734645844,-1.1363540184758558,0.06857666373252869,0.3978261543314809,0.1737111508846283,-0.019417282676090702,-0.013575368974739155,-0.160597729803996,0.031562291690196156,0.006789581751727578,-0.02140319251873593,-1.5130529531116763,-0.08530391752719879,-0.6372243854021206,-0.4942933917045593,0.19172967981481812,-0.10435238480567932
0.9799999999999994,0.7292678287767212,-0.03343367949128151,-0.17105296313325472,-0.09017618745565414,1.4064001279470124,0.3737054169178009,1.0413843789645205,0.07883551716804504,-1.1043540184758558,0.06248486042022705,0.3588261543314809,0.16272777318954468,-0.038376841873493044,-0.012037635439913874,-0.16918939781894177,0.032561457775343375,-0.0028301635746665324,-0.021577890160418174,-1.5170529531116763,-0.11079223453998566,-0.6132243854021205,-0.46689435839653015,0.22272967981481812,-0.1185525506734848
0.9899999999999992,0.7362678287767213,-0.04381316527724266,-0.1780529631332547,-0.09273925423622131,1.4124001279470124,0.3835184574127197,1.0123843789645204,0.10968990623950958,-1.0873540184758559,0.07627823948860168,0.3628261543314809,0.16804581880569458,-0.055185452563091916,-0.018072493985953696,-0.1777348947146128,0.03408537043211173,-0.004034514055671386,-0.02149729406192427,-1.4280529531116763,-0.09400896728038788,-0.48922438540212054,-0.5018975734710693,0.1827296798148181,-0.11113053560256958
0.9999999999999994,0.7462678287767213,-0.04886895790696144,-0.1890529631332547,-0.09107363224029541,1.4164001279470124,0.38602399826049805,0.9963843789645204,0.12219162285327911,-1.0833540184758559,0.08399924635887146,0.3568261543314809,0.16641497611999512,-0.0722565825492169,-0.02177697755916251,-0.18339742322060976,0.03625197469871978,-0.00235805524769678,-0.02178664748585574,-1.0980529531116763,-0.09085728973150253,-0.18522438540212055,-0.5178402662277222,0.19372967981481812,-0.1104680746793747
1.0099999999999991,0.7602678287767213,-0.038302380591630936,-0.20205296313325471,-0.08636438846588135,1.4234001279470125,0.37050777673721313,0.9893843789645204,0.09099122881889343,-1.0873540184758559,0.07142840325832367,0.3668261543314809,0.15960988402366638,-0.08413433528113136,-0.01654735440365297,-0.18317731874969015,0.03559512932688898,0.00433614458917916,-0.021891084994276507,-0.8740529531116763,-0.11961668729782104,0.01877561459787943,-0.4802526533603668,0.25172967981481814,-0.12383182346820831
1.0199999999999994,0.7662678287767213,-0.014237560331821442,-0.2080529631332547,-0.07941246777772903,1.4224001279470124,0.3343735337257385,0.9553843789645203,0.014811988919973373,-1.0583540184758558,0.03378988802433014,0.3478261543314809,0.1526380479335785,-0.09502680643562246,0.0014688039435201254,-0.18622962437212104,0.03235253474437223,-0.00019168088085335787,-0.023444447745663215,-0.8560529531116763,-0.1764076203107834,0.08177561459787942,-0.3852425515651703,0.22872967981481812,-0.14525720477104187
1.0299999999999991,0.7782678287767213,-0.002400430850684643,-0.2220529631332547,-0.08375188708305359,1.4304001279470124,0.32345208525657654,0.9443843789645203,-0.016212642192840576,-1.0563540184758557,0.016172662377357483,0.3558261543314809,0.155305415391922,-0.1037871223815284,0.013625418219498883,-0.1832705409824852,0.029749011556778567,0.0032765587312321323,-0.02444067418132123,-0.9880529531116763,-0.18181845545768738,0.01077561459787943,-0.3402228057384491,0.2477296798148181,-0.14461660385131836
1.0399999999999994,0.7842678287767213,-0.019911829382181168,-0.2280529631332547,-0.09360557049512863,1.4344001279470124,0.34049320220947266,0.9113843789645204,0.025884289294481277,-1.0303540184758557,0.03078654408454895,0.3548261543314809,0.16791647672653198,-0.1149452872939701,0.009217272152260793,-0.186223270664554,0.02868343859237412,0.0016172567891132462,-0.023625316032867136,-1.0630529531116764,-0.13768967986106873,-0.03522438540212057,-0.3900960087776184,0.25872967981481815,-0.1231587827205658
1.0499999999999992,0.7912678287767213,-0.04619729518890381,-0.2360529631332547,-0.10020920634269714,1.4384001279470124,0.3755924105644226,0.8873843789645204,0.0962609350681305,-1.0093540184758558,0.06284730136394501,0.3518261543314809,0.17911669611930847,-0.12892213837710553,-0.007502724986962817,-0.18638516091826546,0.03011732285377994,7.330922028413468e-05,-0.02210031850205254,-1.0080529531116762,-0.08329266309738159,-0.07222438540212058,-0.48265907168388367,0.22572967981481812,-0.0994964987039566
1.0599999999999994,0.8112678287767213,-0.059134434908628464,-0.2580529631332547,-0.0977635607123375,1.4464001279470124,0.38972100615501404,0.8553843789645204,0.12594571709632874,-0.9883540184758558,0.0809679627418518,0.3438261543314809,0.1759929358959198,-0.1465204195568658,-0.01756993395384271,-0.18597665534953828,0.034103497864404475,0.007296319187604206,-0.022402893999009695,-0.8100529531116764,-0.06781847029924393,-0.040224385402120574,-0.5242077708244324,0.2377296798148181,-0.09408751130104065
1.0699999999999992,0.8112678287767213,-0.05732174590229988,-0.2580529631332547,-0.09474493563175201,1.4464001279470124,0.3938907980918884,0.8553843789645204,0.1292150765657425,-0.9883540184758558,0.08862389624118805,0.3438261543314809,0.16949760913848877,-0.1465204195568658,-0.02238498228418334,-0.18597665534953828,0.03652276666285872,0.007296319187604206,-0.02217893345962969,-0.7370529531116763,-0.07459695637226105,0.09777561459787942,-0.5308330655097961,0.26372967981481815,-0.10105396807193756
1.079999999999999,0.8182678287767212,-0.02071308344602585,-0.2650529631332547,-0.08263472467660904,1.4504001279470125,0.354502409696579,0.8283843789645203,0.0390474833548069,-0.9603540184758558,0.0510837584733963,0.3398261543314809,0.15301254391670227,-0.15771052567406044,-0.006775399707258547,-0.18896190380377254,0.03318798812188116,0.00571739120687539,-0.022268743848154426,-0.6840529531116764,-0.1538928896188736,0.24377561459787944,-0.42300188541412354,0.27072967981481816,-0.13980822265148163
1.0899999999999992,0.8252678287767212,-0.002907896414399147,-0.2720529631332547,-0.08434602618217468,1.4534001279470126,0.3395081162452698,0.8073843789645204,0.005947958678007126,-0.9393540184758559,0.03232468664646149,0.3348261543314809,0.1540031135082245,-0.16621035598065467,0.00405163714957072,-0.18612583093965995,0.029903373376671212,0.00627256325605493,-0.022389682138112967,-0.7160529531116763,-0.1727750599384308,0.23477561459787943,-0.3727014362812042,0.2787296798148181,-0.1476251184940338
1.099999999999999,0.8362678287767212,-0.043141815811395645,-0.2850529631332547,-0.09459040313959122,1.4584001279470125,0.3731745779514313,0.7963843789645204,0.10451705753803253,-0.9323540184758559,0.066817507147789,0.3298261543314809,0.17642194032669067,-0.17210758113488453,-0.011540827725645747,-0.18306215476516105,0.031413389910682536,0.009380089411444893,-0.021759038967100346,-0.7190529531116763,-0.09520059078931808,0.19077561459787945,-0.4888029098510742,0.27472967981481816,-0.10752634704113007
1.1099999999999992,0.8362678287767212,-0.0194191113114357,-0.2850529631332547,-0.0861123651266098,1.4584001279470125,0.3530086576938629,0.7963843789645204,0.041596610099077225,-0.9323540184758559,0.045856818556785583,0.3298261543314809,0.1587158739566803,-0.17210758113488453,-0.00286428363761938,-0.18306215476516105,0.031152544324956483,0.009380089411444893,-0.022384081512830247,-0.7190529531116763,-0.1443578004837036,0.19077561459787945,-0.42082545161247253,0.27472967981481816,-0.13346123695373535
1.119999999999999,0.8412678287767212,-0.008724380284547806,-0.2910529631332547,-0.08779828250408173,1.4584001279470125,0.34573841094970703,0.7693843789645204,0.020807642489671707,-0.9053540184758558,0.035784006118774414,0.3078261543314809,0.15803539752960205,-0.18059716656456554,0.0031198827958436675,-0.1802135229522165,0.029504689031827232,0.009889739522410108,-0.02233532014854066,-0.6840529531116764,-0.15642499923706055,0.18477561459787945,-0.3904716372489929,0.25572967981481814,-0.13920077681541443
1.1299999999999992,0.8622678287767213,-0.007794393226504326,-0.3150529631332547,-0.09105756878852844,1.4694001279470126,0.35133886337280273,0.7093843789645203,0.0286535806953907,-0.8403540184758558,0.037832751870155334,0.2838261543314809,0.16059374809265137,-0.20326722603094832,0.002483999909758893,-0.17448374111013024,0.028602049260448816,0.011323148037321203,-0.021632752184136135,-0.5910529531116763,-0.14593914151191711,0.23977561459787944,-0.39783844351768494,0.2397296798148181,-0.13555653393268585
1.139999999999999,0.8622678287767213,-0.004318610765039921,-0.3150529631332547,-0.09005182981491089,1.4694001279470126,0.34864577651023865,0.7093843789645203,0.0202646367251873,-0.8403540184758558,0.033016398549079895,0.2838261543314809,0.15855547785758972,-0.20326722603094832,0.004289008972064846,-0.17448374111013024,0.028460000805356267,0.011323148037321203,-0.0217932004549641,-0.5910529531116763,-0.15083158016204834,0.23977561459787944,-0.3880660831928253,0.2397296798148181,-0.1376442015171051
1.1499999999999992,0.8692678287767213,-0.00248612929135561,-0.3230529631332547,-0.09054753184318542,1.4724001279470125,0.3482743203639984,0.6943843789645203,0.016945574432611465,-0.8223540184758559,0.030613452196121216,0.2758261543314809,0.15829840302467346,-0.2092037142211816,0.005475819625863364,-0.17416522953446117,0.02815674199616161,0.01463086539811183,-0.021750325383576925,-0.49505295311167624,-0.15078315138816833,0.33277561459787947,-0.3833896815776825,0.2107296798148181,-0.13748225569725037
1.159999999999999,0.8752678287767213,-0.028061076998710632,-0.3300529631332547,-0.09590236842632294,1.4754001279470126,0.3723362386226654,0.6743843789645204,0.0806935578584671,-0.7983540184758559,0.05600908398628235,0.2708261543314809,0.17022979259490967,-0.21768156633451904,-0.006883818588801973,-0.17130111341192691,0.029371073116336376,0.015051554371639193,-0.021015420504781127,-0.4140529531116762,-0.10403215140104294,0.39777561459787947,-0.4612615704536438,0.2367296798148181,-0.11476181447505951
1.1699999999999993,0.8852678287767213,-0.007747732102870941,-0.34205296313325473,-0.08686657249927521,1.4804001279470125,0.3502407968044281,0.6663843789645204,0.021078210324048996,-0.7883540184758558,0.03446921706199646,0.2678261543314809,0.1556050181388855,-0.2206092721577239,0.001935702365557316,-0.1653764511983709,0.029568547012821956,0.017489382864462263,-0.022065242754455296,-0.38705295311167626,-0.15268447995185852,0.37777561459787945,-0.3946956396102905,0.2167296798148181,-0.13811832666397095
1.179999999999999,0.8922678287767213,-0.0310676209628582,-0.3490529631332547,-0.09373794496059418,1.4834001279470126,0.3630130887031555,0.6513843789645204,0.07119326293468475,-0.7693540184758558,0.05256842076778412,0.26082615433148093,0.16901707649230957,-0.22352256615812802,-0.004395347647860993,-0.15944710452815822,0.030215701025924795,0.019908132888618174,-0.022012756770403274,-0.4090529531116763,-0.1142210066318512,0.2807756145978794,-0.449480265378952,0.19672967981481812,-0.11696355044841766
