t,x,x_pred,y,y_pred,z,z_pred,vx,vx_pred,vy,vy_pred,vz,vz_pred,roll,roll_pred,pitch,pitch_pred,yaw,yaw_pred,wx,wx_pred,wy,wy_pred,wz,wz_pred,thrust,torque_roll,torque_pitch,torque_yaw
0.01,0.023516999557614326,0.023517,0.9010969996452332,0.901097,1.1444180011749268,1.144418,0.0,0.0,0.0,0.0,1.862644971595273e-08,1.862645e-08,0.03073736763246976,0.030737368,0.01713925969388298,0.01713926,0.06011287061996742,0.06011287,3.0728018283843994,3.0728018,1.7138419151306152,1.7138419,-1.23281762576255e-09,-1.6227218e-09,0.5000000596046448,0.0,0.0,-1.563222085110283e-08
0.02,0.023516999557614326,0.023517,0.9010969996452332,0.901097,1.1444180011749268,1.144418,0.0018704571994021535,0.0018704572,-0.0029271754901856184,-0.0029271755,0.0005996412946842611,0.0005996413,0.06151180941803921,0.06151181,0.03427294226721239,0.034272943,0.06092192370727939,0.060921926,3.042405366897583,3.0424054,1.6972557306289673,1.6972557,2.7776613933383487e-05,2.7776223e-05,0.5032118558883667,-0.043467067182064056,-0.02371816709637642,0.00026758952299132943
0.03,0.023535704240202904,0.023535704,0.9010677337646484,0.90106773,1.1444239616394043,1.144424,0.005638082046061754,0.005638082,-0.008823326788842678,-0.008823327,0.001780856167897582,0.0017808562,0.09203588723241561,0.09203589,0.051219246996994774,0.051219247,0.062243645202217486,0.06224364,2.9866783618927,2.9866784,1.666825294494629,1.6668253,0.0001382737245876342,0.00013827335,0.5069617629051208,-0.07968876510858536,-0.043516676872968674,0.00106445187702775
0.04,0.023592084646224976,0.023592085,0.9009795188903809,0.9009795,1.1444417238235474,1.1444417,0.0113142691552639,0.011314269,-0.017705686390399933,-0.017705686,0.0035157050006091595,0.003515705,0.12206974439885107,0.122069746,0.0678251198296799,0.067825116,0.06404741682989902,0.06404742,2.909996509552002,2.9099965,1.6249363422393799,1.6249363,0.000376447249436751,0.00037644658,0.5111990571022034,-0.10965168476104736,-0.05990730971097946,0.002294413512572646
0.05,0.02370522730052471,0.023705227,0.9008024334907532,0.90080243,1.1444768905639648,1.1444769,0.018896862864494324,0.018896863,-0.029569797217845917,-0.029569797,0.005769654177129269,0.005769654,0.151413456911798,0.15141346,0.08396369785523039,0.0839637,0.06629051169041905,0.066290505,2.81618070602417,2.8161807,1.573686122894287,1.5736861,0.0007773729739710689,0.000777373,0.515870988368988,-0.1341475397348404,-0.07330375909805298,0.003862266195937991
0.06,0.02389419637620449,0.023894196,0.9005067348480225,0.90050673,1.1445345878601074,1.1445346,0.028371652588248253,0.028371653,-0.04439190775156021,-0.044391908,0.008504352532327175,0.0085043525,0.17990120161222473,0.1799012,0.09953204684054272,0.099532045,0.06892165660060132,0.068921655,2.7085933685302734,2.7085934,1.5149303674697876,1.5149304,0.001366589218378067,0.001366589,0.5209229588508606,-0.15383195877075195,-0.08405262976884842,0.005676114931702614
0.07,0.0241779126226902,0.024177913,0.9000627994537354,0.9000628,1.1446195840835571,1.1446196,0.03971370309591293,0.039713703,-0.062131091952323914,-0.062131092,0.011680078692734241,0.011680079,0.20739667599902736,0.20739669,0.11444902932473895,0.11444903,0.07188417210209945,0.07188417,2.5902018547058105,2.5902019,1.4503121376037598,1.4503121,0.002160605974495411,0.002160606,0.526300311088562,-0.16926978528499603,-0.09245819598436356,0.007649012841284275
0.08,0.024575049057602882,0.024575049,0.8994414806365967,0.8994415,1.144736409187317,1.1447364,0.052888572216033936,0.052888572,-0.08273117244243622,-0.08273117,0.015257660299539566,0.01525766,0.2337895656956831,0.23378958,0.12865319146594464,0.12865318,0.07511868805856359,0.07511868,2.463623046875,2.463623,1.3812813758850098,1.3812814,0.003167568240314722,0.0031675682,0.5319489240646362,-0.1809619963169098,-0.09879564493894577,0.009700416587293148
0.09,0.025103934109210968,0.025103934,0.8986141681671143,0.89861417,1.144888997077942,1.144889,0.06785345822572708,0.06785346,-0.10612248629331589,-0.10612249,0.01919993944466114,0.01919994,0.2589924573114482,0.25899246,0.14210058549038426,0.14210059,0.0785653863835822,0.07856539,2.331155300140381,2.3311553,1.3091092109680176,1.3091092,0.004388021305203438,0.0043880204,0.5378150343894958,-0.18936516344547272,-0.10332007706165314,0.01175704039633274
0.1,0.025782467797398567,0.025782468,0.8975529670715332,0.89755297,1.1450810432434082,1.145081,0.08455824851989746,0.08455825,-0.13222354650497437,-0.13222355,0.023472921922802925,0.023472922,0.2829383624247691,0.2829384,0.15476266282260964,0.15476266,0.08216584380265195,0.082165845,2.1948020458221436,2.194802,1.2348986864089966,1.2348987,0.005815721116960049,0.00581572,0.5438464879989624,-0.19490118324756622,-0.10627035796642303,0.013753499835729599
0.11,0.026628050953149796,0.026628051,0.8962307572364807,0.89623076,1.1453157663345337,1.1453158,0.10294653475284576,0.102946535,-0.16094261407852173,-0.16094261,0.0280464980751276,0.028046498,0.3055784008422056,0.3055784,0.1666240836464776,0.16662408,0.08586445325996206,0.085864455,2.0562915802001953,2.0562916,1.1595944166183472,1.1595944,0.007438475266098976,0.0074384757,0.5499927997589111,-0.19796524941921234,-0.10787144303321838,0.01563253626227379
0.12,0.027657516300678253,0.027657516,0.8946213126182556,0.8946213,1.1455962657928467,1.1455963,0.1229565218091011,0.12295652,-0.19217915832996368,-0.19217916,0.03289477527141571,0.032894775,0.32687972570976004,0.32687974,0.17768071404611332,0.17768072,0.08960946936718645,0.089609474,1.9170947074890137,1.9170947,1.0839929580688477,1.083993,0.009238997474312782,0.009238998,0.5562047958374023,-0.19892561435699463,-0.10833344608545303,0.01734502986073494
0.13,0.028887081891298294,0.028887082,0.8926995396614075,0.89269954,1.1459251642227173,1.1459252,0.14452187716960907,0.14452188,-0.22582517564296722,-0.22582518,0.03799626976251602,0.03799627,0.3468234857934446,0.3468235,0.18793757368195566,0.18793757,0.0933536796249796,0.09335368,1.778442621231079,1.7784426,1.0087529420852661,1.008753,0.011195718310773373,0.011195716,0.562435507774353,-0.19812636077404022,-0.1078517884016037,0.018849734216928482
0.14,0.030332300812005997,0.0303323,0.8904412984848022,0.8904413,1.1463050842285156,1.1463051,0.16757245361804962,0.16757245,-0.2617664039134979,-0.2617664,0.04333363100886345,0.04333363,0.36540299558956607,0.365403,0.19740704509212653,0.19740705,0.09705481599629157,0.09705482,1.6413458585739136,1.6413459,0.9344071745872498,0.9344072,0.01328356470912695,0.013283566,0.5686394572257996,-0.19588343799114227,-0.10660512000322342,0.020112916827201843
0.15,0.03200802579522133,0.032008026,0.8878236413002014,0.88782364,1.1467384099960327,1.1467384,0.19203497469425201,0.19203497,-0.2998834550380707,-0.29988346,0.04889349639415741,0.048893496,0.38262201090972575,0.38262203,0.2061071939818486,0.2061072,0.10067569089811342,0.100675695,1.5066123008728027,1.5066123,0.8613736033439636,0.8613736,0.015474691987037659,0.015474692,0.5747736096382141,-0.1924876868724823,-0.10475633293390274,0.021107854321599007
0.16,0.03392837569117546,0.033928376,0.884824812412262,0.8848248,1.1472272872924805,1.1472273,0.21783359348773956,0.2178336,-0.3400527238845825,-0.34005272,0.05466585233807564,0.054665852,0.398492867003105,0.39849284,0.21406032769151384,0.21406034,0.10418413772018231,0.10418414,1.374866008758545,1.374866,0.7899678945541382,0.7899679,0.017739135771989822,0.017739136,0.5807964205741882,-0.18820255994796753,-0.10245054960250854,0.021814150735735893
0.17,0.036106713116168976,0.036106713,0.8814243078231812,0.8814243,1.1477739810943604,1.147774,0.24489039182662964,0.24489039,-0.38214728236198425,-0.38214728,0.06064368411898613,0.060643684,0.41303504402207325,0.41303504,0.22129163075826577,0.22129162,0.1075527894222068,0.1075528,1.246566891670227,1.2465669,0.7204155921936035,0.7204156,0.020045418292284012,0.020045418,0.5866687893867493,-0.18326310813426971,-0.09981586039066315,0.022217191755771637
0.18,0.03855561837553978,0.03855562,0.8776028156280518,0.8776028,1.1483803987503052,1.1483804,0.2731257975101471,0.2731258,-0.42603760957717896,-0.4260376,0.06682223826646805,0.06682224,0.4262735656763437,0.42627358,0.22782815315289717,0.22782815,0.11075876683136343,0.110758774,1.1220300197601318,1.12203,0.6528639793395996,0.652864,0.02236108109354973,0.022361081,0.5923531651496887,-0.17787684500217438,-0.09696368128061295,0.022307561710476875
0.19,0.04128687456250191,0.041286875,0.8733424544334412,0.87334245,1.1490485668182373,1.1490486,0.30245888233184814,0.30245888,-0.47159215807914734,-0.47159216,0.07319852709770203,0.07319853,0.43823766038261347,0.43823764,0.23369780528055878,0.2336978,0.11378325779890201,0.113783255,1.0014429092407227,1.0014429,0.5873926281929016,0.5873926,0.02465314045548439,0.02465314,0.5978145599365234,-0.17222650349140167,-0.09399035573005676,0.022080181166529655
0.2,0.044311463832855225,0.044311464,0.8686265349388123,0.86862653,1.149780511856079,1.1497805,0.33280766010284424,0.33280766,-0.5186780095100403,-0.518678,0.07977066189050674,0.07977066,0.4489594641140427,0.44895947,0.23892867087002304,0.23892868,0.1166110995423918,0.1166111,0.8848835825920105,0.8848836,0.5240247249603271,0.5240247,0.026888500899076462,0.0268885,0.6030197739601135,-0.16646839678287506,-0.0909765288233757,0.021533964201807976
0.21,0.04763954132795334,0.04763954,0.8634397387504578,0.86343974,1.150578260421753,1.1505783,0.36408936977386475,0.36408937,-0.5671611428260803,-0.56716114,0.08653738349676132,0.08653738,0.4584730182967005,0.458473,0.24354831427745985,0.2435483,0.11923030258412842,0.1192303,0.7723379135131836,0.7723379,0.46273645758628845,0.46273646,0.02903430350124836,0.029034304,0.6079378724098206,-0.16073456406593323,-0.08798960596323013,0.020671231672167778
0.22,0.0512804351747036,0.051280435,0.8577681183815002,0.8577681,1.151443600654602,1.1514436,0.3962205648422241,0.39622056,-0.6169069409370422,-0.61690694,0.09349745512008667,0.093497455,0.46681313385995915,0.46681315,0.24758341882724788,0.2475834,0.12163162303711571,0.12163163,0.6637139916419983,0.663714,0.40346553921699524,0.40346554,0.031058210879564285,0.03105821,0.6125400066375732,-0.1551360785961151,-0.08508479595184326,0.019496984779834747
0.23,0.055242642760276794,0.055242643,0.8515990376472473,0.85159904,1.1523785591125488,1.1523786,0.4291173815727234,0.42911738,-0.6677805185317993,-0.6677805,0.10064931213855743,0.10064931,0.4740146753872148,0.4740147,0.25105933183532597,0.25105935,0.12380812896495476,0.12380814,0.5588552951812744,0.5588553,0.34611842036247253,0.34611842,0.03292865678668022,0.032928657,0.6167997717857361,-0.1497649848461151,-0.0823073461651802,0.018018636852502823
0.24,0.05953381583094597,0.059533816,0.8449212312698364,0.84492123,1.153385043144226,1.153385,0.46269553899765015,0.46269554,-0.7196469306945801,-0.71964693,0.10799069702625275,0.1079907,0.4801118315244097,0.48011184,0.2539998679564174,0.25399986,0.12575481999241322,0.12575482,0.45755434036254883,0.45755434,0.2905775010585785,0.2905775,0.034615062177181244,0.034615062,0.620693027973175,-0.144693985581398,-0.07969219237565994,0.01624571532011032
0.25,0.0641607716679573,0.06416077,0.8377247452735901,0.83772475,1.1544649600982666,1.154465,0.4968705177307129,0.49687052,-0.7723712921142578,-0.7723713,0.11551820486783981,0.115518205,0.4851373709229419,0.48513737,0.2564269920828222,0.256427,0.12746823940284507,0.12746824,0.35956230759620667,0.3595623,0.2367061823606491,0.23670618,0.036087989807128906,0.036087986,0.6241975426673889,-0.13998176157474518,-0.07726722210645676,0.01418918464332819
0.26,0.06912947446107864,0.069129474,0.8300010561943054,0.83000106,1.1556200981140137,1.1556201,0.5315576791763306,0.5315577,-0.8258192539215088,-0.82581925,0.12322720885276794,0.12322721,0.4891223361405561,0.48912236,0.25836078908233434,0.25836077,0.12894619709257252,0.1289462,0.26459965109825134,0.26459962,0.1843542456626892,0.18435425,0.03731928765773773,0.037319288,0.6272943019866943,-0.13567189872264862,-0.07505273073911667,0.01186149287968874
0.27,0.07444505393505096,0.074445054,0.8217428922653198,0.8217429,1.1568523645401,1.1568524,0.5666723251342773,0.5666723,-0.8798569440841675,-0.87985694,0.13111160695552826,0.1311116,0.49209549711070877,0.4920955,0.25981933450283284,0.25981933,0.13018748072380254,0.13018748,0.1723635494709015,0.17236355,0.13336150348186493,0.1333615,0.038282208144664764,0.03828221,0.6299660205841064,-0.131797194480896,-0.07306379824876785,0.009276147000491619
0.28,0.0801117792725563,0.08011178,0.8129442930221558,0.8129443,1.1581634283065796,1.1581634,0.6021298170089722,0.6021298,-0.9343511462211609,-0.93435115,0.13916370272636414,0.1391637,0.4940831635446108,0.49408317,0.2608186882044389,0.2608187,0.13119164489790727,0.13119164,0.08253518491983414,0.082535185,0.08356130123138428,0.0835613,0.03895150125026703,0.0389515,0.6321983337402344,-0.12838003039360046,-0.0713106319308281,0.006447525694966316
0.29,0.08613307774066925,0.08613308,0.8036007881164551,0.8036008,1.1595550775527954,1.1595551,0.6378455758094788,0.6378456,-0.9891694784164429,-0.9891695,0.14737413823604584,0.14737414,0.49510886551567485,0.49510887,0.26137277259837344,0.26137277,0.13195879751448913,0.1319588,-0.005214236676692963,-0.0052142367,0.034783001989126205,0.034783002,0.0393034927546978,0.039303493,0.633979320526123,-0.12543416023254395,-0.06979990750551224,0.0033908348996192217
0.3,0.09251153469085693,0.092511535,0.7937090992927551,0.7937091,1.1610288619995117,1.1610289,0.6737353205680847,0.6737353,-1.0441806316375732,-1.0441806,0.1557319313287735,0.15573193,0.49519324383288743,0.49519324,0.26149342432369616,0.2614934,0.13248948948808445,0.13248949,-0.09121795743703842,-0.09121796,-0.013145245611667633,-0.013145246,0.039316143840551376,0.039316144,0.635299563407898,-0.12296535819768906,-0.06853440403938293,0.00012188231630716473
0.31,0.09924888610839844,0.099248886,0.7832673192024231,0.7832673,1.1625862121582031,1.1625862,0.7097150087356567,0.709715,-1.0992543697357178,-1.0992544,0.16422443091869354,0.16422443,0.494354033257095,0.494354,0.2611904543218558,0.26119044,0.13278459058316197,0.13278459,-0.17580927908420563,-0.17580928,-0.06039514020085335,-0.060395144,0.03896913677453995,0.038969137,0.6361525654792786,-0.120973140001297,-0.06751499325037003,-0.0033428200986236334
0.32,0.10634603351354599,0.10634603,0.7722747921943665,0.7722748,1.1642284393310547,1.1642284,0.7457010746002197,0.7457011,-1.154261589050293,-1.1542616,0.17283746600151062,0.17283747,0.49260592694623984,0.49260592,0.2604715709462816,0.26047155,0.1328452268262257,0.13284522,-0.25931820273399353,-0.2593182,-0.10713627189397812,-0.10713627,0.038243915885686874,0.038243916,0.6365345120429993,-0.11945211887359619,-0.06673979759216309,-0.006986277177929878
0.33,0.11380304396152496,0.113803044,0.7607321739196777,0.7607322,1.1659568548202515,1.1659569,0.7816104292869568,0.7816104,-1.20907461643219,-1.2090746,0.18155543506145477,0.18155544,0.48996060979272976,0.48996058,0.25934245563659125,0.25934246,0.1326727351375896,0.13267274,-0.34206804633140564,-0.34206805,-0.15353474020957947,-0.15353474,0.037123750895261765,0.03712375,0.6364441514015198,-0.11839210242033005,-0.06620503216981888,-0.010790934786200523
0.34,0.12161915004253387,0.12161915,0.7486414313316345,0.74864143,1.1677724123001099,1.1677724,0.8173606395721436,0.81736064,-1.263567328453064,-1.2635673,0.19036144018173218,0.19036144,0.4864268089318074,0.4864268,0.2578067581195061,0.25780678,0.1322686359020151,0.13226864,-0.42437219619750977,-0.4243722,-0.19975189864635468,-0.1997519,0.03559379279613495,0.035593793,0.6358832716941833,-0.11777814477682114,-0.0659051388502121,-0.014738587662577629
0.35000000000000003,0.12979274988174438,0.12979275,0.7360057830810547,0.7360058,1.1696760654449463,1.1696761,0.8528700470924377,0.85287005,-1.317615270614624,-1.3176153,0.1992374062538147,0.1992374,0.4820104957881046,0.4820105,0.2558662050800646,0.2558662,0.131634701644549,0.1316347,-0.5065308809280396,-0.5065309,-0.24594347178936005,-0.24594347,0.033641163259744644,0.033641163,0.6348565220832825,-0.11759074032306671,-0.06583341956138611,-0.018810348585247993
0.36,0.13832144439220428,0.13832144,0.7228296399116516,0.72282964,1.1716684103012085,1.1716684,0.8880578279495239,0.8880578,-1.3710957765579224,-1.3710958,0.20816431939601898,0.20816432,0.4767148675958947,0.47671485,0.25352052609384396,0.25352052,0.13077295470609537,0.13077295,-0.5888283252716064,-0.5888283,-0.2922572195529938,-0.29225722,0.03125502169132233,0.03125502,0.6333712339401245,-0.11780614405870438,-0.06597989052534103,-0.022986507043242455
0.37,0.1472020149230957,0.14720201,0.709118664264679,0.70911866,1.1737500429153442,1.17375,0.9228441715240479,0.9228442,-1.423888087272644,-1.4238881,0.217122420668602,0.21712242,0.4705406373934541,0.47054064,0.2507676121327395,0.25076762,0.12968577468268208,0.12968576,-0.6715306043624878,-0.6715306,-0.33883270621299744,-0.3388327,0.02842666208744049,0.028426662,0.6314380764961243,-0.11839763075113297,-0.06633424013853073,-0.027246521785855293
0.38,0.1564304530620575,0.15643045,0.6948797702789307,0.6948798,1.1759213209152222,1.1759213,0.957150399684906,0.9571504,-1.4758734703063965,-1.4758735,0.2260913848876953,0.22609138,0.4634862031822443,0.46348622,0.24760355765220388,0.24760357,0.12837599634123326,0.12837599,-0.7548816800117493,-0.7548817,-0.38579854369163513,-0.38579854,0.025149617344141006,0.025149617,0.6290702819824219,-0.11933267116546631,-0.06688243895769119,-0.03156886622309685
0.39,0.16600196063518524,0.16600196,0.6801210641860962,0.68012106,1.1781822443008423,1.1781822,0.9908992052078247,0.9908992,-1.5269355773925781,-1.5269356,0.23505058884620667,0.23505059,0.45554786183245144,0.4555479,0.2440225796341669,0.24402256,0.12684700503677648,0.126847,-0.8390992879867554,-0.8390993,-0.4332708418369293,-0.43327084,0.021419797092676163,0.021419797,0.6262843608856201,-0.12057287245988846,-0.06760822236537933,-0.035930607467889786
0.4,0.17591094970703125,0.17591095,0.664851725101471,0.6648517,1.180532693862915,1.1805327,1.0240145921707153,1.0240146,-1.576960563659668,-1.5769606,0.2439793050289154,0.2439793,0.44672010122524103,0.4467201,0.24001730023314904,0.24001728,0.12510290592550674,0.1251029,-0.9243721961975098,-0.9243722,-0.48135167360305786,-0.48135167,0.017235610634088516,0.01723561,0.6230998635292053,-0.12207573652267456,-0.06849316507577896,-0.0403076596558094
0.41000000000000003,0.18615110218524933,0.1861511,0.6490821242332458,0.6490821,1.1829724311828613,1.1829724,1.056422233581543,1.0564222,-1.625836968421936,-1.625837,0.25285691022872925,0.2528569,0.43699598704348763,0.436996,0.23557880042105755,0.2355788,0.12314869398075062,0.12314869,-1.0108535289764404,-1.0108535,-0.5301249623298645,-0.53012496,0.01259815413504839,0.012598154,0.6195391416549683,-0.12378948926925659,-0.06951319426298141,-0.044674165546894073
0.42,0.1967153251171112,0.19671533,0.6328237652778625,0.63282377,1.185500979423523,1.185501,1.0880494117736816,1.0880494,-1.6734563112258911,-1.6734563,0.2616632282733917,0.26166323,0.42636742317112153,0.42636743,0.23069663493800088,0.23069663,0.12099042162925272,0.120990425,-1.0986568927764893,-1.0986569,-0.5796541571617126,-0.57965416,0.007511371746659279,0.007511372,0.6156278848648071,-0.1256563663482666,-0.07064086198806763,-0.049002669751644135
0.43,0.2075958251953125,0.20759583,0.6160892248153687,0.6160892,1.1881176233291626,1.1881176,1.1188253164291382,1.1188253,-1.7197128534317017,-1.7197129,0.27037861943244934,0.27037862,0.4148256199637086,0.4148256,0.2253591457265357,0.22535914,0.11863541369328891,0.118635416,-1.1878483295440674,-1.1878483,-0.629978358745575,-0.62997836,0.001982281915843487,0.001982282,0.6113944053649902,-0.12760724127292633,-0.07184311747550964,-0.05326356738805771
0.44,0.21878407895565033,0.21878408,0.598892092704773,0.5988921,1.1908214092254639,1.1908214,1.1486811637878418,1.1486812,-1.764504075050354,-1.7645041,0.2789841890335083,0.2789842,0.4023617211444621,0.40236175,0.2195536575044134,0.21955365,0.1160925241097992,0.116092525,-1.2784401178359985,-1.2784401,-0.6811074018478394,-0.6811074,-0.0039788223803043365,-0.0039788224,0.606870174407959,-0.12956452369689941,-0.07308020442724228,-0.05742530897259712
0.45,0.2302708923816681,0.23027089,0.5812470316886902,0.58124703,1.1936112642288208,1.1936113,1.1775503158569336,1.1775503,-1.8077305555343628,-1.8077306,0.28746214509010315,0.28746215,0.3889670842480784,0.3889671,0.21326669971515924,0.2132667,0.1133723006024848,0.1133723,-1.3703815937042236,-1.3703816,-0.7330174446105957,-0.73301744,-0.010358127765357494,-0.010358128,0.6020894050598145,-0.13143682479858398,-0.07430563122034073,-0.06145397946238518
0.46,0.24204640090465546,0.2420464,0.5631697177886963,0.5631697,1.1964858770370483,1.1964859,1.2053682804107666,1.2053683,-1.8492963314056396,-1.8492963,0.29579585790634155,0.29579586,0.37463406175367225,0.3746341,0.20648438266819036,0.20648438,0.11048726410303161,0.11048727,-1.4635505676269531,-1.4635506,-0.7856451869010925,-0.7856452,-0.017138060182332993,-0.01713806,0.5970891714096069,-0.1331208348274231,-0.07546491920948029,-0.06531333923339844
0.47000000000000003,0.25410008430480957,0.25410008,0.5446767807006836,0.5446768,1.1994438171386719,1.1994438,1.2320730686187744,1.2320731,-1.8891090154647827,-1.889109,0.303970068693161,0.30397007,0.35935664295736874,0.35935664,0.1991928241673662,0.19919282,0.1074521210039879,0.107452124,-1.557742953300476,-1.557743,-0.8388817310333252,-0.83888173,-0.024297043681144714,-0.024297044,0.591908872127533,-0.13449858129024506,-0.07649446278810501,-0.0689648762345314
0.48,0.26642081141471863,0.2664208,0.5257856845855713,0.5257857,1.2024835348129272,1.2024835,1.2576051950454712,1.2576052,-1.9270797967910767,-1.9270798,0.31197094917297363,0.31197095,0.34313126399717236,0.34313127,0.19137862246839166,0.19137861,0.10428397870690106,0.10428398,-1.6526610851287842,-1.6526611,-0.8925654292106628,-0.8925654,-0.031809255480766296,-0.031809255,0.5865902304649353,-0.13543540239334106,-0.07732029259204865,-0.07236762344837189
0.49,0.27899685502052307,0.27899686,0.5065149068832397,0.5065149,1.2056032419204712,1.2056032,1.2819079160690308,1.2819079,-1.9631237983703613,-1.9631238,0.31978628039360046,0.31978628,0.3259575312741196,0.32595754,0.18302949821350478,0.18302949,0.10100254011401516,0.10100254,-1.7479047775268555,-1.7479048,-0.9464752078056335,-0.9464752,-0.03964442014694214,-0.03964442,0.5811771154403687,-0.13578404486179352,-0.07785854488611221,-0.07547876238822937
0.5,0.29181593656539917,0.29181594,0.48688367009162903,0.48688367,1.2088011503219604,1.2088012,1.3049269914627075,1.304927,-1.9971600770950317,-1.9971601,0.3274054527282715,0.32740545,0.3078392468753315,0.3078392,0.17413498775540653,0.174135,0.09763021299041237,0.09763022,-1.8429580926895142,-1.8429581,-1.0003242492675781,-1.0003242,-0.04776762053370476,-0.04776762,0.5757148861885071,-0.13537836074829102,-0.0780157819390297,-0.07825350016355515
0.51,0.3048652112483978,0.3048652,0.46691206097602844,0.46691206,1.2120752334594727,1.2120752,1.3266113996505737,1.3266114,-2.029111623764038,-2.0291116,0.3348194658756256,0.33481947,0.28878533207486806,0.28878534,0.16468719631523507,0.1646872,0.09419219809067092,0.0941922,-1.937179684638977,-1.9371798,-1.0537524223327637,-1.0537524,-0.05613917484879494,-0.056139175,0.5702502727508545,-0.13403932750225067,-0.07768765091896057,-0.08064596354961395
0.52,0.31813132762908936,0.31813133,0.4466209411621094,0.44662094,1.2154234647750854,1.2154235,1.3469128608703613,1.3469129,-2.058905601501465,-2.0589056,0.3420209586620331,0.34202096,0.2688109286209636,0.26881096,0.15468178175440647,0.15468179,0.09071646357834043,0.09071647,-2.029794692993164,-2.0297947,-1.1063205003738403,-1.1063205,-0.06471458077430725,-0.06471458,0.5648307800292969,-0.13157564401626587,-0.07676010578870773,-0.08260975033044815
0.53,0.33160045742988586,0.33160046,0.4260318875312805,0.4260319,1.218843698501587,1.2188437,1.3657864332199097,1.3657864,-2.0864734649658203,-2.0864735,0.3490038514137268,0.34900385,0.2479385162448634,0.24793851,0.14411894400204792,0.14411895,0.08723362756414814,0.08723363,-2.119887113571167,-2.119887,-1.1575062274932861,-1.1575062,-0.07344456017017365,-0.07344456,0.5595036745071411,-0.1277868002653122,-0.07511341571807861,-0.08409883081912994
0.54,0.34525832533836365,0.34525833,0.4051671624183655,0.40516716,1.2223337888717651,1.2223338,1.3831905126571655,1.3831905,-2.1117515563964844,-2.1117516,0.3557632565498352,0.35576326,0.22619904381700162,0.22619905,0.13300449375667173,0.1330045,0.08377666940505638,0.08377667,-2.206397533416748,-2.2063975,-1.2067010402679443,-1.206701,-0.08227522671222687,-0.08227523,0.5543159246444702,-0.1224687322974205,-0.07262169569730759,-0.08506879210472107
0.55,0.35909023880958557,0.35909024,0.384049654006958,0.38404965,1.2258914709091187,1.2258915,1.3990869522094727,1.399087,-2.1346805095672607,-2.1346805,0.3622952401638031,0.36229524,0.20363311301572137,0.20363311,0.12135103302553261,0.12135104,0.08038051850671399,0.08038052,-2.288123846054077,-2.2881238,-1.2532107830047607,-1.2532108,-0.09114839881658554,-0.0911484,0.5493128895759583,-0.1154191642999649,-0.06915928423404694,-0.08547822386026382
0.56,0.37308111786842346,0.37308112,0.3627028465270996,0.36270285,1.229514479637146,1.2295145,1.4134414196014404,1.4134414,-2.1552064418792725,-2.1552064,0.3685963451862335,0.36859635,0.18029215311235824,0.18029216,0.10917905584536658,0.10917906,0.07708143069074096,0.077081434,-2.3637282848358154,-2.3637283,-1.2962583303451538,-1.2962583,-0.10000204294919968,-0.10000204,0.5445378422737122,-0.106446772813797,-0.06460298597812653,-0.08529007434844971
0.5700000000000001,0.3872155249118805,0.38721552,0.34115079045295715,0.3411508,1.2332004308700562,1.2332004,1.4262235164642334,1.4262235,-2.173280715942383,-2.1732807,0.37466323375701904,0.37466323,0.15623949674236187,0.15623951,0.09651808823047237,0.096518084,0.07391619470227116,0.0739162,-2.431750535964966,-2.4317505,-1.3349908590316772,-1.3349909,-0.1087709367275238,-0.10877094,0.5400308966636658,-0.0953793004155159,-0.058838602155447006,-0.08447370678186417
0.58,0.40147775411605835,0.40147775,0.3194179832935333,0.31941798,1.2369470596313477,1.2369471,1.4374072551727295,1.4374073,-2.1888604164123535,-2.1888604,0.38049209117889404,0.3804921,0.13155147723129584,0.13155147,0.08340770904654761,0.08340771,0.07092114447554047,0.07092114,-2.490628242492676,-2.4906282,-1.3684930801391602,-1.3684931,-0.11738751083612442,-0.11738751,0.5358277559280396,-0.08207497000694275,-0.0517699271440506,-0.083006352186203
0.59,0.4158518314361572,0.41585183,0.2975293695926666,0.29752937,1.2407519817352295,1.240752,1.4469715356826782,1.4469715,-2.2019097805023193,-2.2019098,0.3860781788825989,0.38607818,0.10631827989468624,0.10631827,0.06989837630191549,0.06989838,0.06813096489230402,0.06813097,-2.5387251377105713,-2.5387251,-1.3958015441894531,-1.3958015,-0.12578287720680237,-0.12578288,0.5319592356681824,-0.06643318384885788,-0.04331972450017929,-0.08087539672851562
0.6,0.4303215444087982,0.43032154,0.2755102813243866,0.27551028,1.2446128129959106,1.2446128,1.4549007415771484,1.4549007,-2.21239972114563,-2.2123997,0.39141520857810974,0.3914152,0.080644725391558,0.08064473,0.05605205813998632,0.05605206,0.06557735805071545,0.06557736,-2.574364185333252,-2.5743642,-1.4159265756607056,-1.4159266,-0.13388802111148834,-0.13388802,0.5284497141838074,-0.04840061441063881,-0.03344101086258888,-0.07807949185371399
0.61,0.44487056136131287,0.44487056,0.2533862888813019,0.2533863,1.248526930809021,1.2485269,1.4611849784851074,1.461185,-2.2203099727630615,-2.22031,0.39649495482444763,0.39649495,0.05465073190161609,0.05465073,0.04194250403763353,0.041942503,0.06328757183597945,0.06328758,-2.5958704948425293,-2.5958705,-1.4278758764266968,-1.4278759,-0.14163514971733093,-0.14163515,0.5253168344497681,-0.0279860720038414,-0.02211977168917656,-0.07463071495294571
0.62,0.4594824016094208,0.4594824,0.23118318617343903,0.23118319,1.25249183177948,1.2524918,1.4658212661743164,1.4658213,-2.2256295680999756,-2.2256296,0.40130677819252014,0.40130678,0.028471620261499152,0.028471619,0.027655202897179137,0.027655203,0.06128288742168603,0.061282888,-2.601611614227295,-2.6016116,-1.4306803941726685,-1.4306804,-0.148959219455719,-0.14895922,0.5225704908370972,-0.005257186945527792,-0.009378318674862385,-0.0705552026629448
0.63,0.47414061427116394,0.4741406,0.20892688632011414,0.20892689,1.2565048933029175,1.2565049,1.4688140153884888,1.468814,-2.228358030319214,-2.228358,0.40583735704421997,0.40583736,0.002258095488634472,0.0022580957,0.013286924327994293,0.013286925,0.05957714075858547,0.05957714,-2.590045690536499,-2.5900457,-1.4234226942062378,-1.4234227,-0.15579944849014282,-0.15579945,0.5202118158340454,0.0196506530046463,0.004720459226518869,-0.06589420139789581
0.64,0.48882874846458435,0.48882875,0.1866433024406433,0.1866433,1.2605632543563843,1.2605633,1.4701762199401855,1.4701762,-2.2285072803497314,-2.2285073,0.4100705683231354,0.41007057,-0.02382410866442612,-0.023824107,-0.0010551696324113233,-0.0010551696,0.05817533206174958,0.05817533,-2.559762477874756,-2.5597625,-1.4052619934082031,-1.405262,-0.1621009111404419,-0.16210091,0.5182332396507263,0.046542663127183914,0.020078260451555252,-0.0607040673494339
0.65,0.5035305023193359,0.5035305,0.1643582284450531,0.16435823,1.2646639347076416,1.2646639,1.4699300527572632,1.46993,-2.226102828979492,-2.2261028,0.41398778557777405,0.4139878,-0.049594880715179264,-0.04959488,-0.0152547567406262,-0.0152547555,0.05707245742258933,0.057072457,-2.509521961212158,-2.509522,-1.3754568099975586,-1.3754568,-0.16781605780124664,-0.16781606,0.5166184306144714,0.07516983151435852,0.036563362926244736,-0.05505596101284027
0.66,0.5182297825813293,0.5182298,0.14209720492362976,0.1420972,1.2688038349151611,1.2688038,1.468108057975769,1.468108,-2.2211856842041016,-2.2211857,0.4175681173801422,0.41756812,-0.07486069893431382,-0.0748607,-0.029187925357208166,-0.029187925,0.05625264471165258,0.056252643,-2.438281297683716,-2.4382813,-1.3333815336227417,-1.3333815,-0.17290616035461426,-0.17290616,0.5153419375419617,0.10524433851242065,0.05401897430419922,-0.04903470352292061
0.67,0.5329108834266663,0.5329109,0.11988534778356552,0.11988535,1.272979497909546,1.2729795,1.4647542238235474,1.4647542,-2.213813543319702,-2.2138135,0.42078927159309387,0.42078927,-0.09941592471428996,-0.09941593,-0.042724967210646024,-0.042724967,0.05568867595624271,0.055688675,-2.3452131748199463,-2.3452132,-1.2785356044769287,-1.2785356,-0.17734253406524658,-0.17734253,0.5143702626228333,0.13645340502262115,0.07227436453104019,-0.042737074196338654
0.68,0.5475584268569946,0.5475584,0.09774721413850784,0.097747214,1.2771873474121094,1.2771873,1.4599244594573975,1.4599245,-2.2040624618530273,-2.2040625,0.4236283302307129,0.42362833,-0.12304423353677488,-0.12304424,-0.05573222887448793,-0.05573223,0.05534192695737309,0.055341925,-2.240873098373413,-2.240873,-1.21726655960083,-1.2172666,-0.1811070591211319,-0.18110706,0.5136610269546509,0.1525166779756546,0.08154252916574478,-0.03626487776637077
0.6900000000000001,0.5621576905250549,0.5621577,0.0757065862417221,0.075706586,1.2814236879348755,1.2814237,1.4536877870559692,1.4536878,-2.1920289993286133,-2.192029,0.4260624945163727,0.4260625,-0.14563374607121773,-0.14563374,-0.06814119683641551,-0.0681412,0.05517267779551338,0.05517268,-2.148944616317749,-2.1489446,-1.1638820171356201,-1.163882,-0.18418541550636292,-0.18418542,0.513163149356842,0.13467636704444885,0.070414699614048,-0.029654836282134056
0.7000000000000001,0.5766945481300354,0.57669455,0.053786296397447586,0.053786296,1.28568434715271,1.2856843,1.446118950843811,1.446119,-2.177818536758423,-2.1778185,0.42807701230049133,0.428077,-0.16731138877711765,-0.16731139,-0.08002756470848392,-0.08002756,0.055161268403545675,0.05516127,-2.065786600112915,-2.0657866,-1.1161925792694092,-1.1161926,-0.18656665086746216,-0.18656665,0.5128630995750427,0.12204586714506149,0.0624171681702137,-0.022939223796129227
0.71,0.5911557674407959,0.59115577,0.03200811147689819,0.03200811,1.2899651527404785,1.2899652,1.4372824430465698,1.4372824,-2.161522626876831,-2.1615226,0.42966288328170776,0.42966288,-0.18816701814361722,-0.188167,-0.09144544045851032,-0.091445446,0.055292151431679544,0.055292152,-1.9886523485183716,-1.9886523,-1.072532296180725,-1.0725323,-0.18824410438537598,-0.1882441,0.5127554535865784,0.11334235221147537,0.05680733174085617,-0.01615951396524906
0.72,0.6055285930633545,0.6055286,0.010392885655164719,0.010392886,1.2942618131637573,1.2942618,1.42723548412323,1.4272355,-2.1432225704193115,-2.1432226,0.43081504106521606,0.43081504,-0.2082624367477927,-0.20826243,-0.10243248691350508,-0.10243248,0.055552118343978094,0.055552118,-1.915490746498108,-1.9154907,-1.031644582748413,-1.0316446,-0.18921534717082977,-0.18921535,0.5128316283226013,0.10756880789995193,0.05300391465425491,-0.009356314316391945
0.73,0.6198009252548218,0.6198009,-0.011039339005947113,-0.011039339,1.298569917678833,1.2985699,1.416029691696167,1.4160297,-2.122992515563965,-2.1229925,0.43153122067451477,0.43153122,-0.2276384048927351,-0.22763841,-0.11301398193276131,-0.11301398,0.055929175266212806,0.055929177,-1.844789743423462,-1.8447897,-0.9925920367240906,-0.99259204,-0.18948203325271606,-0.18948203,0.5130806565284729,0.10395241528749466,0.05055347830057144,-0.0025690882466733456
0.74,0.6339612007141113,0.6339612,-0.03226926177740097,-0.03226926,1.3028851747512817,1.3028852,1.4037127494812012,1.4037127,-2.1009013652801514,-2.1009014,0.43181145191192627,0.43181145,-0.24632005949912136,-0.24632007,-0.12320603925488574,-0.12320604,0.056411867326803325,0.056411866,-1.7754560708999634,-1.7754561,-0.954685628414154,-0.9546856,-0.18904978036880493,-0.18904978,0.5134906768798828,0.1018931046128273,0.04910268262028694,0.004164036363363266
0.75,0.6479983329772949,0.64799833,-0.053278274834156036,-0.053278275,1.3072032928466797,1.3072033,1.3903295993804932,1.3903296,-2.0770151615142822,-2.0770152,0.4316575825214386,0.43165758,-0.26432108971980695,-0.26432106,-0.1330180524769943,-0.13301805,0.05698887013420679,0.05698887,-1.7067192792892456,-1.7067193,-0.9174298048019409,-0.9174298,-0.1879280060529709,-0.187928,0.5140483975410461,0.10092860460281372,0.04837535321712494,0.010806378908455372
0.76,0.6619016528129578,0.66190165,-0.07404842972755432,-0.07404843,1.3115198612213135,1.3115199,1.3759231567382812,1.3759232,-2.0513975620269775,-2.0513976,0.43107306957244873,0.43107307,-0.28164705071588336,-0.28164706,-0.14245471465031914,-0.14245471,0.05764881606345489,0.057648815,-1.638059377670288,-1.6380594,-0.8804780840873718,-0.8804781,-0.18612976372241974,-0.18612976,0.5147399306297302,0.10070080310106277,0.04815817251801491,0.017323071137070656
0.77,0.6756609082221985,0.6756609,-0.09456240385770798,-0.094562404,1.3158305883407593,1.3158306,1.360534906387329,1.3605349,-2.024111270904541,-2.0241113,0.43006277084350586,0.43006277,-0.29829780618942564,-0.2982978,-0.15151746067869434,-0.15151745,0.05838021354498977,0.058380213,-1.5691463947296143,-1.5691464,-0.8435989022254944,-0.84359884,-0.1836715191602707,-0.18367152,0.5155507326126099,0.10093826800584793,0.04828585684299469,0.0236811526119709
0.78,0.6892662644386292,0.68926626,-0.11480351537466049,-0.114803515,1.3201311826705933,1.3201312,1.3442057371139526,1.3442057,-1.9952185153961182,-1.9952185,0.42863306403160095,0.42863306,-0.3142696071571401,-0.3142696,-0.1602056627007672,-0.16020566,0.05917149528471563,0.059171498,-1.4997949600219727,-1.499795,-0.8066473603248596,-0.80664736,-0.18057292699813843,-0.18057293,0.5164664387702942,0.10143470764160156,0.048632875084877014,0.029849823564291
0.79,0.7027083039283752,0.7027083,-0.1347557008266449,-0.1347557,1.3244174718856812,1.3244175,1.3269758224487305,1.3269758,-1.964781641960144,-1.9647816,0.4267916679382324,0.42679167,-0.32955644089057473,-0.32955644,-0.16851747121295044,-0.16851749,0.060011063634597094,0.06001106,-1.4299275875091553,-1.4299276,-0.7695445418357849,-0.76954454,-0.1768566071987152,-0.1768566,0.5174720883369446,0.1020369604229927,0.0491030253469944,0.03580055385828018
0.8,0.7159780859947205,0.7159781,-0.15440352261066437,-0.15440352,1.3286854028701782,1.3286854,1.308885097503662,1.3088851,-1.932863473892212,-1.9328635,0.42454755306243896,0.42454755,-0.34415125300447685,-0.34415126,-0.17645047098843938,-0.17645048,0.060887421896748305,0.06088742,-1.3595459461212158,-1.359546,-0.7322598695755005,-0.73225987,-0.17254789173603058,-0.17254789,0.5185527801513672,0.10263273864984512,0.04962487518787384,0.04150733724236488
0.81,0.7290669083595276,0.7290669,-0.17373216152191162,-0.17373216,1.3329309225082397,1.3329309,1.289973258972168,1.2899733,-1.8995275497436523,-1.8995275,0.4219110310077667,0.42191103,-0.3580467291076742,-0.3580467,-0.18400214595205164,-0.18400215,0.061789265805790645,0.061789263,-1.2887073755264282,-1.2887074,-0.6947975754737854,-0.6947976,-0.16767454147338867,-0.16767454,0.5196937918663025,0.10314395278692245,0.05014612525701523,0.04694655165076256
0.8200000000000001,0.7419666647911072,0.74196666,-0.19272743165493011,-0.19272743,1.337149977684021,1.33715,1.2702802419662476,1.2702802,-1.8648381233215332,-1.8648381,0.4188936948776245,0.4188937,-0.3712360214460578,-0.371236,-0.19117021181529117,-0.19117022,0.06270560913747361,0.062705606,-1.2175076007843018,-1.2175076,-0.6571858525276184,-0.65718585,-0.16226652264595032,-0.16226652,0.5208805203437805,0.10351650416851044,0.05062992498278618,0.05209728330373764
0.8300000000000001,0.7546694874763489,0.7546695,-0.21137581765651703,-0.21137582,1.341338872909546,1.3413389,1.2498458623886108,1.2498459,-1.8288602828979492,-1.8288603,0.41550832986831665,0.41550833,-0.3837131028359943,-0.38371313,-0.19795280666898785,-0.1979528,0.06362588136108675,0.06362588,-1.1460663080215454,-1.1460663,-0.6194696426391602,-0.61946964,-0.15635567903518677,-0.15635568,0.5220987200737,0.10371792316436768,0.05104983597993851,0.05694113299250603
0.84,0.7671679258346558,0.7671679,-0.2296644151210785,-0.22966442,1.3454939126968384,1.3454939,1.2287098169326782,1.2287098,-1.7916600704193115,-1.7916601,0.4117688238620758,0.41176882,-0.395473051034161,-0.39547306,-0.20434869177523973,-0.2043487,0.06454002364399777,0.06454003,-1.074515461921692,-1.0745155,-0.581703245639801,-0.58170325,-0.1499755084514618,-0.14997551,0.523334264755249,0.10373177379369736,0.051389697939157486,0.06146237254142761
0.85,0.7794550061225891,0.779455,-0.24758101999759674,-0.24758102,1.3496116399765015,1.3496116,1.2069121599197388,1.2069122,-1.753304123878479,-1.7533041,0.4076900780200958,0.40769008,-0.4065122351180112,-0.40651223,-0.21035727429935538,-0.21035728,0.06543856104947036,0.06543856,-1.0029922723770142,-1.0029923,-0.5439456701278687,-0.54394567,-0.1431608498096466,-0.14316085,0.5245735049247742,0.10355181246995926,0.05164049565792084,0.06564781069755554
0.86,0.7915241122245789,0.7915241,-0.26511406898498535,-0.26511407,1.3536885976791382,1.3536886,1.1844927072525024,1.1844927,-1.7138599157333374,-1.7138599,0.40328800678253174,0.403288,-0.41682848931624616,-0.41682848,-0.21597861256684794,-0.21597861,0.06631266453863965,0.06631266,-0.9316310882568359,-0.9316311,-0.5062577128410339,-0.5062577,-0.13594768941402435,-0.13594769,0.5258034467697144,0.10318339616060257,0.05179740861058235,0.06948671489953995
0.87,0.8033690452575684,0.80336905,-0.2822526693344116,-0.28225267,1.3577214479446411,1.3577214,1.1614913940429688,1.1614914,-1.6733956336975098,-1.6733956,0.39857929944992065,0.3985793,-0.4264210346675368,-0.42642102,-0.2212134758697369,-0.22121347,0.06715419959407701,0.0671542,-0.86055988073349,-0.8605599,-0.4686984121799469,-0.4686984,-0.12837287783622742,-0.12837288,0.5270112752914429,0.1026366651058197,0.05186067894101143,0.07297074794769287
0.88,0.8149839639663696,0.81498396,-0.29898661375045776,-0.2989866,1.3617072105407715,1.3617072,1.1379481554031372,1.1379482,-1.631980061531067,-1.6319801,0.39358142018318176,0.39358142,-0.4352905034781594,-0.43529055,-0.2260632505498941,-0.22606325,0.06795575174596022,0.06795575,-0.7898964881896973,-0.7898965,-0.43132418394088745,-0.43132418,-0.12047385424375534,-0.120473854,0.5281851887702942,0.10192706435918808,0.05183226987719536,0.0760938972234726
0.89,0.8263634443283081,0.82636344,-0.3153064250946045,-0.31530643,1.36564302444458,1.365643,1.1139029264450073,1.1139029,-1.5896824598312378,-1.5896825,0.3883123993873596,0.3883124,-0.4434388429343953,-0.44343886,-0.230529934373419,-0.23052993,0.06871064031322821,0.06871064,-0.7197463512420654,-0.71974635,-0.39418691396713257,-0.3941869,-0.11228848993778229,-0.11228849,0.5293135643005371,0.10107336938381195,0.05171692743897438,0.07885230332612991
0.9,0.8375024795532227,0.8375025,-0.33120325207710266,-0.33120325,1.3695261478424072,1.3695261,1.089395523071289,1.0893955,-1.5465724468231201,-1.5465724,0.38279080390930176,0.3827908,-0.4508692134090522,-0.4508692,-0.23461607017868813,-0.23461607,0.06941292357018362,0.069412924,-0.650202214717865,-0.6502022,-0.3573339879512787,-0.357334,-0.10385483503341675,-0.103854835,0.5303857326507568,0.10009432584047318,0.0515197291970253,0.08124423772096634
0.91,0.8483964204788208,0.8483964,-0.3466689884662628,-0.346669,1.3733540773391724,1.3733541,1.0644655227661133,1.0644655,-1.502719759941101,-1.5027198,0.37703558802604675,0.3770356,-0.45758588233665365,-0.4575859,-0.23832466405505573,-0.23832466,0.07005739432807417,0.07005739,-0.5813422799110413,-0.5813423,-0.32080748677253723,-0.3208075,-0.09521090984344482,-0.09521091,0.5313917994499207,0.09901149570941925,0.0512470044195652,0.08326983451843262
0.92,0.8590410947799683,0.8590411,-0.36169618368148804,-0.36169618,1.3771244287490845,1.3771244,1.0391525030136108,1.0391525,-1.4581944942474365,-1.4581945,0.3710659146308899,0.3710659,-0.46359413728303706,-0.4635941,-0.2416591627111995,-0.24165915,0.0706395656952912,0.070639566,-0.5132315158843994,-0.5132315,-0.2846447825431824,-0.28464478,-0.0863945484161377,-0.08639455,0.532322347164154,0.09784433990716934,0.050904568284749985,0.08493097126483917
0.93,0.8694326281547546,0.8694326,-0.3762781322002411,-0.37627813,1.3808350563049316,1.380835,1.013495683670044,1.0134957,-1.4130668640136719,-1.4130669,0.3649011552333832,0.36490116,-0.46890010255643816,-0.4689001,-0.24462337136272017,-0.24462338,0.07115565113556294,0.07115565,-0.4459210932254791,-0.4459211,-0.2488783597946167,-0.24887836,-0.07744321972131729,-0.07744322,0.5331689715385437,0.09661296010017395,0.05049861595034599,0.08623115718364716
0.9400000000000001,0.879567563533783,0.87956756,-0.39040881395339966,-0.3904088,1.384484052658081,1.384484,0.98753422498703,0.9875342,-1.3674068450927734,-1.3674068,0.358560711145401,0.3585607,-0.4735106742386692,-0.4735107,-0.24722143111240433,-0.24722143,0.07160254509621064,0.07160254,-0.3794510066509247,-0.379451,-0.21353654563426971,-0.21353655,-0.06839385628700256,-0.06839386,0.5339241027832031,0.09533362835645676,0.050034601241350174,0.08717556297779083
0.9500000000000001,0.8894429206848145,0.8894429,-0.40408289432525635,-0.4040829,1.3880696296691895,1.3880696,0.9613069891929626,0.961307,-1.321284294128418,-1.3212843,0.3520640432834625,0.35206404,-0.47743333636586754,-0.47743332,-0.24945772036845923,-0.24945772,0.07197778650369271,0.07197779,-0.31384941935539246,-0.31384942,-0.1786442995071411,-0.1786443,-0.059282731264829636,-0.05928273,0.5345810055732727,0.09402348846197128,0.049517013132572174,0.0877705067396164
0.96,0.8990560173988342,0.899056,-0.4172957241535187,-0.41729572,1.3915902376174927,1.3915902,0.9348524808883667,0.9348525,-1.2747688293457031,-1.2747688,0.3454303741455078,0.34543037,-0.48067606122240264,-0.48067608,-0.2513368764106841,-0.25133687,0.07227954433063304,0.07227954,-0.24913592636585236,-0.24913593,-0.14422380924224854,-0.1442238,-0.05014532059431076,-0.05014532,0.5351336002349854,0.09269492328166962,0.048949673771858215,0.08802373707294464
0.97,0.908404529094696,0.9084045,-0.43004339933395386,-0.4300434,1.3950445652008057,1.3950446,0.9082088470458984,0.90820885,-1.2279298305511475,-1.2279298,0.33867883682250977,0.33867884,-0.48324728873978995,-0.48324728,-0.2528637887289362,-0.25286376,0.07250659667916734,0.07250659,-0.1853218674659729,-0.18532187,-0.11029502749443054,-0.11029503,-0.04101618751883507,-0.041016188,0.5355771780014038,0.0913596972823143,0.04833575710654259,0.08794399350881577
0.98,0.9174866080284119,0.9174866,-0.442322701215744,-0.4423227,1.3984313011169434,1.3984313,0.8814139366149902,0.88141394,-1.1808360815048218,-1.1808361,0.3318282663822174,0.33182827,-0.48515572134700824,-0.4851557,-0.2540434400027131,-0.25404346,0.0726582720767272,0.07265827,-0.1224125474691391,-0.12241255,-0.07687708735466003,-0.07687709,-0.03192887455224991,-0.031928875,0.5359075665473938,0.0900263786315918,0.047676682472229004,0.08754110336303711
0.99,0.9263007640838623,0.92630076,-0.4541310667991638,-0.45413107,1.401749610900879,1.4017496,0.8545051217079163,0.8545051,-1.1335558891296387,-1.1335559,0.32489722967147827,0.32489723,-0.48641040151897974,-0.4864104,-0.2548810651404089,-0.25488105,0.07273446823734203,0.07273447,-0.060409411787986755,-0.06040941,-0.04398811608552933,-0.043988116,-0.022915823385119438,-0.022915825,0.5361217856407166,0.0887003168463707,0.046974167227745056,0.08682572841644287
1.0,0.9348458051681519,0.9348458,-0.46546661853790283,-0.46546662,1.404998540878296,1.4049985,0.8275192975997925,0.8275193,-1.086156964302063,-1.086157,0.31790390610694885,0.3179039,-0.4870205325786221,-0.48702052,-0.2553820226240649,-0.25538203,0.07273559866758009,0.0727356,0.0006885528564453125,0.00068855286,-0.011647719889879227,-0.01164772,-0.014008276164531708,-0.014008277,0.5362175107002258,0.08738480508327484,0.046226561069488525,0.0858093649148941
1.01,0.9431210160255432,0.943121,-0.47632819414138794,-0.4763282,1.4081776142120361,1.4081776,0.8004928827285767,0.8004929,-1.0387061834335327,-1.0387062,0.3108660578727722,0.31086606,-0.48699551541397884,-0.48699552,-0.2555518779298197,-0.25555187,0.07266259575288031,0.07266259,0.06088262051343918,0.06088262,0.020124033093452454,0.020124037,-0.005236209370195866,-0.0052362094,0.5361937284469604,0.086079902946949,0.045433755964040756,0.08450424671173096
1.02,0.9511259198188782,0.9511259,-0.48671525716781616,-0.48671526,1.4112862348556519,1.4112862,0.7734617590904236,0.77346176,-0.991269588470459,-0.9912696,0.3038010597229004,0.30380106,-0.4863449510751692,-0.48634493,-0.25539636837355645,-0.25539634,0.07251688062643688,0.07251688,0.12017325311899185,0.12017325,0.05130434036254883,0.05130434,0.0033717304468154907,0.0033717295,0.5360501408576965,0.08478406816720963,0.04459249600768089,0.08292315155267715
1.03,0.9588605165481567,0.9588605,-0.49662795662879944,-0.49662796,1.4143242835998535,1.4143243,0.7464610934257507,0.7464611,-0.9439123868942261,-0.9439124,0.2967258095741272,0.2967258,-0.4850785946202821,-0.4850786,-0.2549214390630738,-0.25492147,0.07230036126834341,0.07230036,0.1785569041967392,0.1785569,0.0818672925233841,0.08186729,0.011788292787969112,0.011788293,0.5357875823974609,0.08349116146564484,0.04369911178946495,0.08107954263687134
1.04,0.9663251042366028,0.9663251,-0.5060670971870422,-0.5060671,1.417291522026062,1.4172915,0.7195255160331726,0.7195255,-0.8966986536979675,-0.89669865,0.28965672850608826,0.28965673,-0.4832064062625072,-0.4832064,-0.2541332702617411,-0.25413325,0.07201541078309634,0.07201541,0.23602518439292908,0.23602518,0.1117834746837616,0.111783475,0.01998766139149666,0.019987661,0.5354074835777283,0.08219373971223831,0.04274940863251686,0.07898726314306259
1.05,0.9735203385353088,0.97352034,-0.5150340795516968,-0.5150341,1.420188069343567,1.4201881,0.6926888227462769,0.6926888,-0.8496914505958557,-0.84969145,0.2826097905635834,0.2826098,-0.4807386302714116,-0.48073864,-0.2530383156073128,-0.2530383,0.0716648706819576,0.07166487,0.29256266355514526,0.29256266,0.14101821184158325,0.14101821,0.027945509180426598,0.02794551,0.5349127054214478,0.08088122308254242,0.04173680394887924,0.07666059583425522
1.06,0.9804472327232361,0.98044723,-0.5235310196876526,-0.523531,1.4230141639709473,1.4230142,0.665984034538269,0.66598403,-0.8029525279998779,-0.8029525,0.2756004333496094,0.27560043,-0.47768578574940357,-0.4776858,-0.25164334319421616,-0.25164336,0.07125203210496482,0.07125203,0.3481454849243164,0.34814548,0.1695319563150406,0.16953196,0.03563903644680977,0.035639036,0.5343067049980164,0.07954099029302597,0.040655288845300674,0.07411430031061172
1.07,0.9871070981025696,0.9871071,-0.5315605401992798,-0.53156054,1.4257701635360718,1.4257702,0.6394433975219727,0.6394434,-0.7565423250198364,-0.7565423,0.2686436176300049,0.26864362,-0.47405875087592136,-0.47405872,-0.24995548941227194,-0.2499555,0.0707806424945177,0.07078064,0.40273916721343994,0.40273917,0.19727881252765656,0.19727881,0.043046995997428894,0.043046996,0.5335939526557922,0.0781572014093399,0.039496857672929764,0.07136335968971252
1.08,0.9935015439987183,0.99350154,-0.5391259789466858,-0.539126,1.4284565448760986,1.4284565,0.6130982041358948,0.6130982,-0.7105199098587036,-0.7105199,0.26175370812416077,0.2617537,-0.46986892417869563,-0.46986896,-0.24798237875251908,-0.24798238,0.07025489960952601,0.0702549,0.4562971889972687,0.45629722,0.22420577704906464,0.22420578,0.050149742513895035,0.050149743,0.5327795743942261,0.0767119899392128,0.038252443075180054,0.06842312216758728
1.09,0.9996325373649597,0.99963254,-0.5462311506271362,-0.54623115,1.4310740232467651,1.431074,0.5869787335395813,0.58697873,-0.6649428009986877,-0.6649428,0.25494465231895447,0.25494465,-0.46512824837996114,-0.46512824,-0.2457320414173099,-0.24573204,0.06967943044638965,0.06967943,0.5087593197822571,0.5087593,0.25025227665901184,0.25025228,0.05692923814058304,0.056929234,0.5318695902824402,0.07518503814935684,0.03691239655017853,0.06530911475419998
1.1,1.0055023431777954,1.0055023,-0.552880585193634,-0.5528806,1.4336234331130981,1.4336234,0.5611141920089722,0.5611142,-0.6198668479919434,-0.61986685,0.24822983145713806,0.24822983,-0.45984939923908785,-0.45984942,-0.24321313879208628,-0.24321313,0.0690592997172389,0.0690593,0.5600500106811523,0.56005,0.27534979581832886,0.2753498,0.06336908042430878,0.06336908,0.5308710932731628,0.0735536739230156,0.035466600209474564,0.06203717738389969
1.11,1.0111135244369507,1.0111135,-0.5590792298316956,-0.55907923,1.436105728149414,1.4361057,0.5355327129364014,0.5355327,-0.5753461122512817,-0.5753461,0.24162209033966064,0.24162209,-0.4540458717137705,-0.45404586,-0.24043500390307157,-0.24043499,0.06840000349173772,0.0684,0.610077440738678,0.61007744,0.29942095279693604,0.29942095,0.06945454329252243,0.06945454,0.5297914743423462,0.07179397344589233,0.0339035838842392,0.058623261749744415
1.12,1.01646888256073,1.0164689,-0.5648326873779297,-0.5648327,1.4385219812393188,1.438522,0.5102611780166626,0.5102612,-0.5314329266548157,-0.5314329,0.23513376712799072,0.23513377,-0.4477321912145138,-0.4477322,-0.23740769954682606,-0.2374077,0.06770744596438366,0.06770745,0.6587316393852234,0.6587317,0.32237911224365234,0.3223791,0.0751725509762764,0.07517255,0.5286390781402588,0.06987917423248291,0.03221151605248451,0.0550835020840168
1.1300000000000001,1.0215715169906616,1.0215715,-0.5701470375061035,-0.57014704,1.4408732652664185,1.4408733,0.4853251576423645,0.48532516,-0.4881775379180908,-0.48817754,0.22877660393714905,0.2287766,-0.44092400573073387,-0.440924,-0.2341421659149861,-0.23414217,0.06698792845767576,0.06698793,0.7058835029602051,0.7058835,0.3441280722618103,0.34412807,0.08051174879074097,0.08051175,0.5274224281311035,0.06778095662593842,0.03037804178893566,0.0514342375099659
1.1400000000000001,1.026424765586853,1.0264248,-0.5750288367271423,-0.57502884,1.4431610107421875,1.443161,0.4607488214969635,0.46074882,-0.4456281065940857,-0.4456281,0.22256186604499817,0.22256187,-0.43363832429932664,-0.43363833,-0.23065024758791816,-0.23065025,0.06624812602166762,0.06624813,0.7513849139213562,0.7513849,0.3645620346069336,0.36456203,0.08546243607997894,0.085462436,0.526151180267334,0.06547153741121292,0.02839081920683384,0.04769164323806763
1.1500000000000001,1.0310322046279907,1.0310322,-0.5794851183891296,-0.5794851,1.4453866481781006,1.4453866,0.43655484914779663,0.43655485,-0.4038305878639221,-0.4038306,0.21650013327598572,0.21650013,-0.42589358434227265,-0.4258936,-0.2269448717389347,-0.22694486,0.06549505803043808,0.06549506,0.7950659394264221,0.79506594,0.38356465101242065,0.38356465,0.09001664817333221,0.09001665,0.5248346328735352,0.06291878968477249,0.026236211881041527,0.04387225955724716
1.16,1.0353977680206299,1.0353978,-0.5835234522819519,-0.58352345,1.4475516080856323,1.4475516,0.41276437044143677,0.41276437,-0.3628286123275757,-0.3628286,0.21060141921043396,0.21060142,-0.41770998695754713,-0.41771,-0.22304016314886807,-0.22304016,0.06473605949124545,0.06473605,0.8367359638214111,0.83673596,0.40100982785224915,0.40100983,0.09416810423135757,0.094168104,0.5234829783439636,0.06009221449494362,0.02390170283615589,0.03999238461256027
1.17,1.0395253896713257,1.0395254,-0.5871517658233643,-0.58715177,1.449657678604126,1.4496577,0.3893968164920807,0.38939682,-0.322663277387619,-0.32266328,0.2048751413822174,0.20487514,-0.40910955055509857,-0.40910953,-0.21895147195210132,-0.21895146,0.06397872126025682,0.063978724,0.8761823177337646,0.8761823,0.41676127910614014,0.41676128,0.09791222959756851,0.09791223,0.5221065878868103,0.056959595531225204,0.021374188363552094,0.03606842830777168
1.18,1.043419361114502,1.0434194,-0.5903784036636353,-0.5903784,1.4517064094543457,1.4517064,0.3664698302745819,0.36646983,-0.28337305784225464,-0.28337306,0.19933003187179565,0.19933003,-0.40011640703708623,-0.40011638,-0.21469559089045276,-0.21469559,0.0632308584559961,0.06323086,0.9131714701652527,0.91317147,0.4306727945804596,0.4306728,0.10124613344669342,0.10124613,0.5207158327102661,0.05349025875329971,0.018640967085957527,0.0321166068315506
1.19,1.047084093093872,1.0470841,-0.5932121276855469,-0.5932121,1.4536997079849243,1.4536997,0.34399914741516113,0.34399915,-0.24499362707138062,-0.24499363,0.1939740777015686,0.19397408,-0.39075698122047015,-0.390757,-0.21029080750378434,-0.21029082,0.0625004391663363,0.06250044,0.9474478363990784,0.94744784,0.4425889551639557,0.44258896,0.104168601334095,0.1041686,0.5193208456039429,0.04965182766318321,0.015690265223383904,0.028153132647275925
1.2,1.050524115562439,1.0505241,-0.5956620573997498,-0.59566206,1.4556394815444946,1.4556395,0.3219984769821167,0.32199848,-0.20755773782730103,-0.20755774,0.18881449103355408,0.18881449,-0.3810601139274006,-0.3810601,-0.20575703158800812,-0.20575704,0.06179550953162869,0.061795507,0.9787359237670898,0.9787359,0.4523452818393707,0.45234528,0.10668008774518967,0.10668009,0.5179318785667419,0.045415110886096954,0.012510610744357109,0.024193961173295975
1.21,1.0537440776824951,1.0537441,-0.5977376103401184,-0.5977376,1.4575276374816895,1.4575276,0.3004794120788574,0.3004794,-0.17109501361846924,-0.17109501,0.1838577389717102,0.18385774,-0.371057300421679,-0.37105733,-0.2011158872192011,-0.20111589,0.06112411938479214,0.06112412,1.0067400932312012,1.0067401,0.45976927876472473,0.45976928,0.10878266394138336,0.108782664,0.5165591835975647,0.04075046628713608,0.009091916494071484,0.020254792645573616
1.22,1.056748867034912,1.0567489,-0.599448561668396,-0.59944856,1.4593662023544312,1.4593662,0.27945125102996826,0.27945125,-0.13563179969787598,-0.1356318,0.1791093647480011,0.17910936,-0.3607829006123071,-0.3607829,-0.19639083209118752,-0.19639084,0.06049424320011836,0.06049424,1.0311460494995117,1.031146,0.4646812975406647,0.4646813,0.11048001050949097,0.11048001,0.5152120590209961,0.03563078120350838,0.005425272509455681,0.01635112054646015
1.23,1.0595433712005615,1.0595434,-0.60080486536026,-0.60080487,1.4611573219299316,1.4611573,0.2589208483695984,0.25892085,-0.10119093954563141,-0.10119094,0.17457395792007446,0.17457396,-0.35027422134233815,-0.35027424,-0.19160723140736663,-0.19160724,0.05991366888910323,0.05991367,1.0516237020492554,1.0516237,0.46689561009407043,0.4668956,0.11177738755941391,0.11177739,0.5138998031616211,0.030032560229301453,0.0015032386872917414,0.012498047202825546
1.24,1.0621325969696045,1.0621326,-0.6018167734146118,-0.6018168,1.4629030227661133,1.462903,0.2388925552368164,0.23889256,-0.06779159605503082,-0.067791596,0.1702551394701004,0.17025514,-0.33957173244038985,-0.33957174,-0.18679240990793564,-0.1867924,0.059389907621479866,0.059389908,1.067827820777893,1.0678278,0.46622133255004883,0.46622133,0.11268157511949539,0.112681575,0.512630820274353,0.023933887481689453,-0.00268042110837996,0.008710309863090515
1.25,1.0645215511322021,1.0645216,-0.6024947166442871,-0.6024947,1.4646055698394775,1.4646056,0.21936796605587006,0.21936797,-0.03544902428984642,-0.035449024,0.16615542769432068,0.16615543,-0.3287192105422451,-0.3287192,-0.18197572087005198,-0.18197572,0.05893009578376945,0.058930095,1.0794011354446411,1.0794011,0.46246442198753357,0.46246442,0.1132008358836174,0.113200836,0.5114128589630127,0.017316799610853195,-0.007129126228392124,0.005002204328775406
1.26,1.0667152404785156,1.0667152,-0.6028491854667664,-0.6028492,1.4662671089172363,1.4662671,0.20034579932689667,0.2003458,-0.004174340516328812,-0.0041743405,0.16227619349956512,0.1622762,-0.3177638527862065,-0.31776386,-0.17718861796101962,-0.17718862,0.05854089300698371,0.058540888,1.0859763622283936,1.0859764,0.4554280638694763,0.45542806,0.11334487795829773,0.11334488,0.5102529525756836,0.010166874155402184,-0.011845966801047325,0.0013875728473067284
1.27,1.068718671798706,1.0687187,-0.6028909087181091,-0.6028909,1.4678899049758911,1.4678899,0.18182173371315002,0.18182173,0.02602572552859783,0.026025726,0.15861757099628448,0.15861757,-0.30675635743036467,-0.30675635,-0.17246464634162276,-0.17246465,0.058228383420844375,0.058228385,1.08717942237854,1.0871794,0.44491520524024963,0.4449152,0.1131247952580452,0.113124795,0.5091568827629089,0.0024740411899983883,-0.016830483451485634,-0.0021201358176767826
1.28,1.0705368518829346,1.0705369,-0.6026306748390198,-0.6026307,1.4694761037826538,1.4694761,0.16378819942474365,0.1637882,0.05514908581972122,0.055149086,0.15517844259738922,0.15517844,-0.29575104125129403,-0.29575104,-0.16783942789393824,-0.16783944,0.05799798349723348,0.057997983,1.0826327800750732,1.0826328,0.4307294189929962,0.43072942,0.11255302280187607,0.11255302,0.5081297159194946,-0.00576690724119544,-0.02208130434155464,-0.005508060567080975
1.29,1.0721747875213623,1.0721748,-0.6020792126655579,-0.6020792,1.4710278511047363,1.4710279,0.1462341845035553,0.14623418,0.08319858461618423,0.083198585,0.15195631980895996,0.15195632,-0.2848058266430657,-0.28480583,-0.16335068747402812,-0.16335069,0.05785437155502494,0.057854373,1.0719566345214844,1.0719566,0.41267621517181396,0.4126762,0.11164330691099167,0.11164331,0.5071753263473511,-0.014559059403836727,-0.027595167979598045,-0.00876363180577755
1.3,1.0736371278762817,1.0736371,-0.601247251033783,-0.60124725,1.4725474119186401,1.4725474,0.1291450709104538,0.12914507,0.1101822778582573,0.11018228,0.1489473432302475,0.14894734,-0.2739823848098932,-0.27398238,-0.15903819273491104,-0.15903819,0.05780143398023739,0.057801437,1.054772973060608,1.054773,0.39056429266929626,0.3905643,0.11041063815355301,0.11041064,0.5062965154647827,-0.02390001341700554,-0.0333673395216465,-0.01187469158321619
1.31,1.0749285221099854,1.0749285,-0.6001453995704651,-0.6001454,1.4740369319915771,1.4740369,0.11250240355730057,0.1125024,0.1361137330532074,0.13611373,0.14614617824554443,0.14614618,-0.2633460578162127,-0.26334605,-0.1549436840155931,-0.15494369,0.05784222777217248,0.05784223,1.030707836151123,1.0307078,0.36420756578445435,0.36420757,0.10887125879526138,0.10887126,0.5054948329925537,-0.03378356248140335,-0.03939042240381241,-0.01482935156673193
