,t,x,y,z,qx,qy,qz,qw,yaw,pitch,roll,vx,vy,vz,wx,wy,wz,ros_timestamp,x_poses,y_poses,z_poses,qx_poses,qy_poses,qz_poses,qw_poses,yaw_poses,pitch_poses,roll_poses,m1_thrust,m2_thrust,m3_thrust,m4_thrust,m1_erpm,m2_erpm,m3_erpm,m4_erpm,ros_timestamp_motors,thrust,torque_roll,torque_pitch,torch_yaw,ax,ay,az,ros_timestamp_image_accel,x_setpoint,y_setpoint,z_setpoint,qx_setpoint,qy_setpoint,qz_setpoint,qw_setpoint,yaw_setpoint,pitch_setpoint,roll_setpoint,vx_setpoint,vy_setpoint,vz_setpoint,wx_setpoint,wy_setpoint,wz_setpoint,ros_timestamp_setpoint,Vbat,can_be_armed,is_armed,auto_arm,can_fly,is_flying,is_tumbled,is_locked
0,0.0,0.034,0.021,0.051,-0.0027675412129610777,0.0013837706064805388,-0.00830262340605259,0.999960720539093,-0.01661308,0.0027214803,-0.005557892,0.016,-0.005,0.015,-0.221,0.148,-0.006,52.69269323348999,0.03429859131574631,0.022256366908550262,0.05275196582078934,,,,,,,,0.7722590981918059,0.6619058518348974,0.7807125963225757,0.8966811627374686,104200.0,100700.0,101700.0,101700.0,52.69269323348999,0.41565575646601055,-0.033234149691004806,0.0037842374303807126,0.41565575646601055,0.123,-0.061,11.270190000000001,52.69269323348999,0.034,0.021,0.051,0.0,0.0,-0.00830262340605259,0.9999655485153198,-0.016605439,0.0,0.0,0.0,0.0,0.002,0.0,0.0,0.0,52.69269323348999,3.424999952316284,False,True,False,True,True,False,False
1,0.01,0.034,0.021,0.051,-0.004151311703026295,0.0027675412129610777,-0.00830262340605259,0.9999530911445618,-0.016628461,0.0054659164,-0.008348412,0.016,-0.004,0.037,-0.186,0.203,-0.004,52.70161294937134,0.034361422061920166,0.0223325714468956,0.0530814453959465,,,,,,,,0.7907225146868085,0.6813153276874953,0.7331654840924696,0.8469672693980316,106000.0,101000.0,105300.0,107500.0,52.70161294937134,0.6346074616617075,0.0729228656443122,-0.000579842832074464,0.6346074616617075,0.122,0.183,12.55719,52.70161294937134,0.034,0.021,0.051,0.0,0.0,-0.00830262340605259,0.9999655485153198,-0.016605439,0.0,0.0,0.0,0.0,0.004,0.0,0.0,0.0,52.70161294937134,3.424999952316284,False,True,False,True,True,False,False
2,0.02,0.034,0.021,0.053,-0.004151311703026295,0.0027675412129610777,-0.00830262340605259,0.9999530911445618,-0.016628461,0.0054659164,-0.008348412,0.01,-0.004,0.073,-0.036,0.131,-0.005,52.71169328689575,0.034576416015625,0.022328626364469528,0.05372238904237747,,,,,,,,0.7718471046005951,0.712489509422446,0.6963454642557412,0.7635156786449988,111500.0,104200.0,107100.0,113200.0,52.71169328689575,0.48805981536583504,0.0725108720531014,-0.00012207217517357137,0.48805981536583504,0.165,0.288,13.80419,52.71169328689575,0.034,0.021,0.051,0.0,0.0,-0.00830262340605259,0.9999655485153198,-0.016605439,0.0,0.0,0.0,0.0,0.005,0.0,0.0,0.0,52.71169328689575,3.5260000228881836,False,True,False,True,True,False,False
3,0.03,0.034,0.021,0.046,-0.004151311703026295,0.0027675412129610777,-0.00830262340605259,0.9999530911445618,-0.016628461,0.0054659164,-0.008348412,0.01,-0.003,0.098,0.109,0.002,0.006,52.72897720336914,0.03464345633983612,0.02243475429713726,0.054748598486185074,,,,,,,,0.7670557717250325,0.7749294270237278,0.7073014419775693,0.6991836423285267,112800.0,106800.0,107900.0,112800.0,52.72897720336914,0.484443427176318,0.03352407110704204,-0.003082322423132677,0.484443427176318,0.189,0.309,14.17519,52.72897720336914,0.034,0.021,0.052,0.0,0.0,-0.00830262340605259,0.9999655485153198,-0.016605439,0.0,0.0,0.0,0.0,0.008,0.0,0.0,0.0,52.72897720336914,3.5260000228881836,False,True,False,True,True,False,False
4,0.04,0.034,0.021,0.051,-0.0027675412129610777,0.004151311703026295,-0.00830262340605259,0.9999530911445618,-0.01662878,0.008256372,-0.0056039765,0.028,-0.005,0.157,0.145,0.048,0.035,52.732731103897095,0.03470970690250397,0.02248988300561905,0.05629932880401611,,,,,,,,0.7611047531853208,0.6166323338673991,0.6161440451667048,0.7376668955519952,114100.0,109100.0,107900.0,111900.0,52.732731103897095,0.3722743572137026,-0.03573662928206302,0.0002746623941405356,0.3722743572137026,0.242,0.135,14.043190000000001,52.732731103897095,0.034,0.021,0.052,0.0,0.0,-0.00830262340605259,0.9999655485153198,-0.016605439,0.0,0.0,0.0,0.0,0.01,0.0,0.0,0.0,52.732731103897095,3.5260000228881836,False,True,False,True,True,False,False
5,0.05,0.034,0.021,0.055,-0.0027675412129610777,0.004151311703026295,-0.006918853148818016,0.999963641166687,-0.013861098,0.00826412,-0.005592546,0.029,-0.004,0.209,-0.003,-0.011,0.022,52.75110745429993,0.03495083004236221,0.022402843460440636,0.058471985161304474,,,,,,,,0.6164492256046388,0.5996032654306859,0.6661020828564889,0.6662241550316624,114900.0,107100.0,106000.0,111500.0,52.75110745429993,0.0844739452201114,0.07896543831540398,0.003997863736934462,0.0844739452201114,0.253,-0.046,14.155190000000001,52.75110745429993,0.034,0.021,0.052,0.0,0.0,-0.00830262340605259,0.9999655485153198,-0.016605439,0.0,0.0,0.0,0.0,0.014,0.0,0.0,0.0,52.75110745429993,3.5260000228881836,False,True,False,True,True,False,False
6,0.06,0.034,0.021,0.059,-0.0027675412129610777,0.005535082425922155,-0.006918853148818016,0.9999569058418274,-0.013869035,0.011031616,-0.005611808,0.049,-0.011,0.256,-0.124,-0.215,-0.02,52.75470042228699,0.03487987816333771,0.02271060273051262,0.06049647182226181,,,,,,,,0.5634851606012055,0.5725795376516365,0.6263218127718013,0.6274814984359502,110300.0,106400.0,106000.0,110300.0,52.75470042228699,0.45427634088654917,0.03698786907759213,0.005081254291599909,0.45427634088654917,0.263,-0.005,13.870190000000001,52.75470042228699,0.034,0.021,0.052,0.0,0.0,-0.00830262340605259,0.9999655485153198,-0.016605439,0.0,0.0,0.0,0.0,0.017,0.0,0.0,0.0,52.75470042228699,3.6579999923706055,False,True,False,True,True,False,False
7,0.07,0.034,0.021,0.062,-0.004151311703026295,0.004151311703026295,-0.00830262340605259,0.9999483227729797,-0.016640186,0.0082333535,-0.00837151,0.052,-0.006,0.295,-0.176,-0.176,-0.02,52.76169967651367,0.03496900945901871,0.02276032045483589,0.06357015669345856,,,,,,,,0.558083466849775,0.5055313954375524,0.5648889906157015,0.6378271152819104,106400.0,103800.0,104900.0,108300.0,52.76169967651367,0.474540321965362,-0.016769665064469367,-0.0014648661020828565,0.474540321965362,0.273,0.101,12.96319,52.76169967651367,0.034,0.021,0.052,0.0,0.0,-0.00830262340605259,0.9999655485153198,-0.016605439,0.0,0.0,0.0,0.0,0.021,0.0,0.0,0.0,52.76169967651367,3.6579999923706055,False,True,False,True,True,False,False
8,0.08,0.035,0.021,0.061,-0.004151311703026295,0.004151311703026295,-0.00830262340605259,0.9999483227729797,-0.016640186,0.0082333535,-0.00837151,0.065,-0.01,0.302,-0.109,-0.204,0.007,52.772151708602905,0.035041239112615585,0.023023758083581924,0.066440150141716,,,,,,,,0.594369420920119,0.5492027161058977,0.5521934843976501,0.5957732509346151,103800.0,99300.0,103100.0,106800.0,52.772151708602905,0.37380025940337225,0.08065918974593729,-0.004638742656595712,0.37380025940337225,0.244,0.142,12.136190000000001,52.772151708602905,0.034,0.021,0.052,0.0,0.0,-0.00830262340605259,0.9999655485153198,-0.016605439,0.0,0.0,0.0,0.0,0.026,0.0,0.0,0.0,52.772151708602905,3.6579999923706055,False,True,False,True,True,False,False
9,0.09,0.035,0.022,0.07,-0.004151311703026295,0.0013837706064805388,-0.006918853148818016,0.9999665021896362,-0.013849225,0.0027100071,-0.00832162,0.056,-0.011,0.351,0.072,-0.332,0.019,52.79197645187378,0.03531020134687424,0.023298215121030807,0.07302896678447723,,,,,,,,0.5489585717555505,0.5363546196688792,0.5179522392614634,0.5098039215686274,99700.0,98000.0,98000.0,100000.0,52.79197645187378,0.6546272983901732,-0.004745555809872587,0.0030670634012359807,0.6546272983901732,0.045,0.064,11.09919,52.79197645187378,0.034,0.021,0.053,0.0,0.0,-0.00830262340605259,0.9999655485153198,-0.016605439,0.0,0.0,0.0,0.0,0.037,0.0,0.0,0.001,52.79197645187378,3.6679999828338623,False,True,False,True,True,False,False
10,0.1,0.035,0.022,0.07,-0.004151311703026295,0.0013837706064805388,-0.006918853148818016,0.9999665021896362,-0.013849225,0.0027100071,-0.00832162,0.056,-0.011,0.351,0.072,-0.332,0.019,52.79197645187378,0.03531020134687424,0.023298215121030807,0.07302896678447723,,,,,,,,0.5489585717555505,0.5363546196688792,0.5179522392614634,0.5098039215686274,99700.0,98000.0,98000.0,100000.0,52.79197645187378,0.6546272983901732,-0.004745555809872587,0.0030670634012359807,0.6546272983901732,0.045,0.064,11.09919,52.79197645187378,0.034,0.021,0.053,0.0,0.0,-0.00830262340605259,0.9999655485153198,-0.016605439,0.0,0.0,0.0,0.0,0.037,0.0,0.0,0.001,52.79197645187378,3.6679999828338623,False,True,False,True,True,False,False
11,0.11,0.036,0.022,0.075,-0.0027675412129610777,-0.0,-0.006918853148818016,0.9999722242355347,-0.013837763,-3.829642e-05,-0.005534957,0.062,-0.01,0.366,0.124,-0.373,0.0,52.801998138427734,0.03546324372291565,0.023512540385127068,0.07628127932548523,,,,,,,,0.5256275272755017,0.542900740062562,0.5106736858167391,0.48003356984817275,98000.0,96800.0,95500.0,96200.0,52.801998138427734,0.32640573739223316,0.0067750057221332115,0.006408789196612497,0.32640573739223316,0.033,0.008,10.48919,52.801998138427734,0.034,0.021,0.053,0.0,0.0,-0.00830262340605259,0.9999655485153198,-0.016605439,0.0,0.0,0.0,0.0,0.043,0.0,0.0,0.001,52.801998138427734,3.6679999828338623,False,True,False,True,True,False,False
12,0.12,0.037,0.022,0.07,-0.0027675412129610777,-0.0013837706064805388,-0.006918853148818016,0.9999712705612183,-0.013830145,-0.0028057622,-0.0055158255,0.077,-0.014,0.337,0.087,-0.38,-0.004,52.81198477745056,0.035714201629161835,0.023495621979236603,0.0800575390458107,,,,,,,,0.5679407949950408,0.5625391012436103,0.5572594796673533,0.5606469825284199,96200.0,94900.0,92900.0,92600.0,52.81198477745056,0.4639658197909514,-0.005050736247806516,0.0030518043793392844,0.4639658197909514,0.043,-0.014,9.857190000000001,52.81198477745056,0.034,0.021,0.054,0.0,0.0,-0.006918853148818016,0.9999760389328003,-0.013837816,0.0,0.0,0.0,0.0,0.05,0.0,0.0,0.001,52.81198477745056,3.6679999828338623,False,True,False,True,True,False,False
13,0.13,0.036,0.022,0.08,-0.0013837706064805388,-0.0027675412129610777,-0.006918853148818016,0.9999712705612183,-0.013830303,-0.0055541005,-0.0027292108,0.075,-0.025,0.362,-0.037,-0.349,-0.001,52.82150149345398,0.03574360907077789,0.02383168414235115,0.083188496530056,,,,,,,,0.5300068665598535,0.5112077515831235,0.5318989852750439,0.5425803006027313,96200.0,94300.0,92600.0,93500.0,52.82150149345398,0.09915312428473334,0.014343480582894636,0.000579842832074464,0.09915312428473334,-0.01,-0.07,9.52919,52.82150149345398,0.034,0.021,0.054,0.0,0.0,-0.006918853148818016,0.9999760389328003,-0.013837816,0.0,0.0,0.0,0.0,0.058,0.0,0.0,0.001,52.82150149345398,3.6679999828338623,False,True,False,True,True,False,False
14,0.14,0.036,0.022,0.085,-0.0027675412129610777,-0.0027675412129610777,-0.006918853148818016,0.999968409538269,-0.013822606,-0.005573233,-0.0054967245,0.094,-0.013,0.363,-0.142,-0.39,-0.001,52.83186149597168,0.03570185974240303,0.023984268307685852,0.08677344024181366,,,,,,,,0.5103990234225986,0.4724650949874113,0.5443350881208514,0.5818417639429313,93500.0,92900.0,92300.0,92600.0,52.83186149597168,0.47479972533760584,0.043305104142824444,0.0006256198977645533,0.47479972533760584,-0.061,-0.043,9.296190000000001,52.83186149597168,0.034,0.021,0.055,0.0,0.0,-0.006918853148818016,0.9999760389328003,-0.013837816,0.0,0.0,0.0,0.0,0.065,0.0,0.0,0.002,52.83186149597168,3.6579999923706055,False,True,False,True,True,False,False
15,0.15,0.036,0.022,0.087,-0.004151311703026295,-0.006918853148818016,-0.006918853148818016,0.9999434947967529,-0.013781246,-0.013894816,-0.008207298,0.079,-0.004,0.348,-0.167,-0.462,0.011,52.841976165771484,0.035761866718530655,0.024159420281648636,0.09028936922550201,,,,,,,,0.4834821087968261,0.5504081788357367,0.6155642023346304,0.5388723582818341,92600.0,89600.0,91700.0,92000.0,52.841976165771484,0.4640726329442283,0.04063477531090257,-0.0005951018539711605,0.4640726329442283,-0.083,0.027,9.039190000000001,52.841976165771484,0.034,0.021,0.056,0.0,0.0,-0.006918853148818016,0.9999760389328003,-0.013837816,0.0,0.0,0.0,0.0,0.074,0.0,0.0,0.002,52.841976165771484,3.6579999923706055,False,True,False,True,True,False,False
16,0.16,0.036,0.023,0.092,-0.005535082425922155,-0.00830262340605259,-0.006918853148818016,0.9999262690544128,-0.013747119,-0.016681388,-0.010956204,0.077,-0.003,0.344,-0.172,-0.498,0.007,52.851903438568115,0.035850729793310165,0.024468589574098587,0.09343192726373672,,,,,,,,0.4814373998626688,0.5588311589227131,0.6250553139543755,0.5396047913328755,89800.0,90600.0,92300.0,90600.0,52.851903438568115,0.9542381933318075,-0.014358739604791332,0.0024414435034714275,0.9542381933318075,-0.147,0.024,8.93019,52.851903438568115,0.034,0.021,0.056,0.0,0.0,-0.006918853148818016,0.9999760389328003,-0.013837816,0.0,0.0,0.0,0.0,0.083,0.0,0.0,0.002,52.851903438568115,3.6579999923706055,False,True,False,True,True,False,False
17,0.17,0.036,0.023,0.092,-0.005535082425922155,-0.012453935109078884,-0.006918853148818016,0.9998831748962402,-0.013702928,-0.024984151,-0.010900155,0.057,-0.008,0.32,-0.105,-0.439,-0.017,52.86160755157471,0.035778775811195374,0.024654129520058632,0.09677492082118988,,,,,,,,0.5404287785152971,0.6090333409628442,0.6322270542458228,0.5561760891126879,89600.0,90600.0,96800.0,91500.0,52.86160755157471,0.3778286411841001,-0.04443427176317998,0.0020294499122606243,0.3778286411841001,-0.212,0.051,8.76519,52.86160755157471,0.034,0.021,0.057,0.0,0.0,-0.006918853148818016,0.9999760389328003,-0.013837816,0.0,0.0,0.0,0.0,0.092,0.0,0.0,0.003,52.86160755157471,3.6579999923706055,False,True,False,True,True,False,False
18,0.18,0.036,0.023,0.097,-0.005535082425922155,-0.015221476554870605,-0.005535082425922155,0.9998534917831421,-0.010905328,-0.030504495,-0.010905328,0.053,-0.018,0.318,0.055,-0.287,-0.013,52.87239718437195,0.035852402448654175,0.024966852739453316,0.09969940781593323,,,,,,,,0.6050965133134966,0.6414129854276341,0.5719233997100786,0.5303578240634775,88800.0,93500.0,95200.0,91500.0,52.87239718437195,0.1142748149843595,-0.07306019684138247,0.00332646677347982,0.1142748149843595,-0.311,0.131,8.95419,52.87239718437195,0.034,0.021,0.058,0.0,0.0,-0.006918853148818016,0.9999760389328003,-0.013837816,0.0,0.0,0.0,0.0,0.102,0.0,0.0,0.003,52.87239718437195,3.621000051498413,False,True,False,True,True,False,False
19,0.19,0.036,0.023,0.1,-0.004151311703026295,-0.01660524681210518,-0.006918853148818016,0.9998295903205872,-0.013705493,-0.033268414,-0.008075986,0.051,-0.015,0.31,0.121,-0.094,0.005,52.88487124443054,0.03592921048402786,0.02531053125858307,0.10249151289463043,,,,,,,,0.6448767833981842,0.5983367666132601,0.5656824597543297,0.5943389028763256,91700.0,95200.0,95200.0,90100.0,52.88487124443054,0.8036316472114138,-0.009796292057679103,-0.00016784924086366064,0.8036316472114138,-0.346,0.056,9.078190000000001,52.88487124443054,0.034,0.021,0.059,0.0,0.0,-0.006918853148818016,0.9999760389328003,-0.013837816,0.0,0.0,0.0,0.0,0.113,0.0,0.0,0.003,52.88487124443054,3.621000051498413,False,True,False,True,True,False,False
20,0.2,0.035,0.024,0.103,-0.004151311703026295,-0.01660524681210518,-0.005535082425922155,0.9998381733894348,-0.0109367715,-0.0332572,-0.008122037,0.042,-0.009,0.302,0.044,0.012,0.012,52.895143032073975,0.03596246987581253,0.02557389996945858,0.1054818406701088,,,,,,,,0.5912718394750897,0.5962462806134127,0.6467841611352713,0.6189822232394904,94900.0,95800.0,94300.0,91200.0,52.895143032073975,0.312642099641413,0.008880750743877317,0.0034943160143434807,0.312642099641413,-0.356,-0.008,9.18319,52.895143032073975,0.034,0.021,0.06,0.0,0.0,-0.006918853148818016,0.9999760389328003,-0.013837816,0.0,0.0,0.0,0.0,0.123,0.0,0.0,0.004,52.895143032073975,3.621000051498413,False,True,False,True,True,False,False
21,0.21,0.035,0.024,0.103,-0.004151311703026295,-0.01660524681210518,-0.005535082425922155,0.9998381733894348,-0.0109367715,-0.0332572,-0.008122037,0.037,-0.016,0.283,-0.075,0.069,-0.034,52.90166616439819,0.03597821295261383,0.025873664766550064,0.10824839025735855,,,,,,,,0.6251621271076524,0.6216220340276188,0.662729839017319,0.6760357061112383,95200.0,94600.0,96200.0,94000.0,52.90166616439819,0.809552147707332,0.03598077363241016,0.003295948729686427,0.809552147707332,-0.307,-0.067,9.325190000000001,52.90166616439819,0.034,0.021,0.062,0.0,0.0,-0.006918853148818016,0.9999760389328003,-0.013837816,0.0,0.0,0.0,0.0,0.135,0.0,0.0,0.004,52.90166616439819,3.621000051498413,False,True,False,True,True,False,False
22,0.22,0.035,0.024,0.106,-0.004151311703026295,-0.01660524681210518,-0.005535082425922155,0.9998381733894348,-0.0109367715,-0.0332572,-0.008122037,0.022,-0.008,0.278,-0.084,0.013,-0.017,52.911864042282104,0.03597821295261383,0.025873664766550064,0.10824839025735855,,,,,,,,0.6195773250934615,0.6501564049744412,0.6991378652628366,0.6648966201266499,95200.0,96200.0,99300.0,96200.0,52.911864042282104,0.014785992217898832,0.0311284046692607,-0.0015869382772564279,0.014785992217898832,-0.289,0.003,9.47119,52.911864042282104,0.034,0.021,0.063,0.0,0.0,-0.006918853148818016,0.9999760389328003,-0.013837816,0.0,0.0,0.0,0.0,0.146,0.0,0.0,0.005,52.911864042282104,3.5840001106262207,False,True,False,True,True,False,False
23,0.23,0.035,0.024,0.11,-0.004151311703026295,-0.01660524681210518,-0.005535082425922155,0.9998381733894348,-0.0109367715,-0.0332572,-0.008122037,0.034,-0.013,0.282,-0.006,0.103,-0.017,52.921926498413086,0.03580529987812042,0.026000728830695152,0.11140921711921692,,,,,,,,0.6894026092927443,0.6461890592813001,0.6376134889753566,0.6794232089723049,96800.0,99000.0,100000.0,96800.0,52.921926498413086,0.4790722514686809,-0.05189593347066453,0.002670328831921874,0.4790722514686809,-0.313,0.059,9.82019,52.921926498413086,0.034,0.021,0.065,0.0,0.0,-0.006918853148818016,0.9999760389328003,-0.013837816,0.0,0.0,0.0,0.0,0.159,0.0,0.0,0.005,52.921926498413086,3.5840001106262207,False,True,False,True,True,False,False
24,0.24,0.035,0.025,0.113,-0.004151311703026295,-0.015221476554870605,-0.005535082425922155,0.9998602271080017,-0.010947546,-0.030489376,-0.00813683,0.031,-0.017,0.286,0.053,0.241,-0.008,52.93174886703491,0.03579191118478775,0.026448780670762062,0.11414166539907455,,,,,,,,0.7229877164873731,0.6291752498664835,0.6175478751812009,0.7014724956130312,100000.0,98000.0,101000.0,99000.0,52.93174886703491,0.8160219729915312,0.047226672770275424,0.0003356984817273213,0.8160219729915312,-0.36,0.067,10.10119,52.93174886703491,0.034,0.021,0.066,0.0,0.0,-0.006918853148818016,0.9999760389328003,-0.013837816,0.0,0.0,0.0,0.0,0.171,0.0,0.0,0.005,52.93174886703491,3.5840001106262207,False,True,False,True,True,False,False
25,0.25,0.035,0.025,0.116,-0.005535082425922155,-0.013837706297636032,-0.005535082425922155,0.9998736381530762,-0.0109199975,-0.027736746,-0.0109199975,0.024,-0.004,0.292,0.02,0.275,0.0,52.94491267204285,0.0357210747897625,0.026634076610207558,0.11695684492588043,,,,,,,,0.6760967421988251,0.6345006485084306,0.6766155489433128,0.7032578011749447,102400.0,99000.0,100700.0,100000.0,52.94491267204285,0.9029983978027009,0.09279011215381094,0.006149385824368658,0.9029983978027009,-0.28,0.023,10.41319,52.94491267204285,0.034,0.021,0.068,0.0,0.0,-0.006918853148818016,0.9999760389328003,-0.013837816,0.0,0.0,0.0,0.0,0.184,0.0,0.0,0.006,52.94491267204285,3.5840001106262207,False,True,False,True,True,False,False
26,0.26,0.035,0.025,0.115,-0.004151311703026295,-0.013837706297636032,-0.005535082425922155,0.999880313873291,-0.01095838,-0.027721606,-0.008151666,0.01,-0.015,0.281,0.017,0.146,-0.023,52.951725244522095,0.03547303378582001,0.02729310840368271,0.1227639764547348,,,,,,,,0.6911421377889677,0.7148241397726406,0.7117418173495079,0.684946974898909,104500.0,101000.0,101400.0,102000.0,52.951725244522095,0.41770046540016786,0.08130006866559854,0.0016174563210498208,0.41770046540016786,-0.187,-0.009,10.56419,52.951725244522095,0.034,0.021,0.07,0.0,0.0,-0.006918853148818016,0.9999760389328003,-0.013837816,0.0,0.0,0.0,0.0,0.197,0.0,0.0,0.006,52.951725244522095,3.556999921798706,False,True,False,True,True,False,False
27,0.27,0.035,0.026,0.125,-0.004151311703026295,-0.012453935109078884,-0.005535082425922155,0.9998984932899475,-0.010969276,-0.024953889,-0.008166547,0.017,-0.016,0.32,0.064,0.186,-0.016,52.97182035446167,0.035072557628154755,0.028029102832078934,0.12903182208538055,,,,,,,,0.7387502861066606,0.6468299382009614,0.6211032272831312,0.7152208743419547,105300.0,105300.0,106000.0,105300.0,52.97182035446167,0.3270008392462043,-0.02264438849469749,-0.0029144731822690166,0.3270008392462043,-0.329,-0.011,11.24619,52.97182035446167,0.034,0.021,0.074,0.0,0.0,-0.006918853148818016,0.9999760389328003,-0.013837816,0.0,0.0,0.0,0.0,0.224,0.0,0.0,0.007,52.97182035446167,3.556999921798706,False,True,False,True,True,False,False
28,0.28,0.035,0.026,0.125,-0.004151311703026295,-0.012453935109078884,-0.005535082425922155,0.9998984932899475,-0.010969276,-0.024953889,-0.008166547,0.017,-0.016,0.32,0.064,0.186,-0.016,52.97182035446167,0.035072557628154755,0.028029102832078934,0.12903182208538055,,,,,,,,0.7387502861066606,0.6468299382009614,0.6211032272831312,0.7152208743419547,105300.0,105300.0,106000.0,105300.0,52.97182035446167,0.3270008392462043,-0.02264438849469749,-0.0029144731822690166,0.3270008392462043,-0.329,-0.011,11.24619,52.97182035446167,0.034,0.021,0.074,0.0,0.0,-0.006918853148818016,0.9999760389328003,-0.013837816,0.0,0.0,0.0,0.0,0.224,0.0,0.0,0.007,52.97182035446167,3.556999921798706,False,True,False,True,True,False,False
29,0.29,0.035,0.027,0.13,-0.0027675412129610777,-0.01107016485184431,-0.005535082425922155,0.999919593334198,-0.011010928,-0.022171002,-0.0054134456,0.011,-0.012,0.342,0.083,0.286,0.001,52.98204231262207,0.03499116748571396,0.028427237644791603,0.1322433054447174,,,,,,,,0.7112993057145037,0.6373235675593194,0.6373235675593194,0.694392309452964,106800.0,106000.0,104200.0,105300.0,52.98204231262207,0.13414206149385824,0.06942854962996872,0.0004730296787975891,0.13414206149385824,-0.301,-0.006,11.39319,52.98204231262207,0.034,0.021,0.076,0.0,0.0,-0.006918853148818016,0.9999760389328003,-0.013837816,0.0,0.0,0.0,0.0,0.239,0.0,0.0,0.008,52.98204231262207,3.556999921798706,False,True,False,True,True,False,False
30,0.3,0.035,0.027,0.123,-0.004151311703026295,-0.01107016485184431,-0.005535082425922155,0.9999147653579712,-0.010980233,-0.022186218,-0.008181471,0.018,-0.009,0.313,0.009,0.177,-0.015,52.99187254905701,0.03486703708767891,0.02884828858077526,0.13581401109695435,,,,,,,,0.6951400015259022,0.7261463340199893,0.7644464789806973,0.7339894712748912,108300.0,104900.0,103100.0,106000.0,52.99187254905701,0.9337758449683375,0.08258182650492103,0.004150453955901427,0.9337758449683375,-0.166,0.016,11.26319,52.99187254905701,0.034,0.021,0.079,0.0,0.0,-0.006918853148818016,0.9999760389328003,-0.013837816,0.0,0.0,0.0,0.0,0.252,0.0,0.0,0.008,52.99187254905701,3.572999954223633,False,True,False,True,True,False,False
31,0.31,0.034,0.027,0.132,-0.004151311703026295,-0.009686394594609737,-0.005535082425922155,0.9999291300773621,-0.010991251,-0.019418592,-0.008196442,0.002,0.002,0.352,-0.024,0.075,-0.025,53.00153827667236,0.034635670483112335,0.029372159391641617,0.13929572701454163,,,,,,,,0.6442511635004197,0.6979018844892042,0.7458762493324178,0.6952162966353856,106000.0,105600.0,106400.0,106400.0,53.00153827667236,0.09587243457694362,0.029495689326314183,-6.103608758678569e-05,0.09587243457694362,-0.131,0.022,11.277190000000001,53.00153827667236,0.034,0.021,0.081,0.0,0.0,-0.006918853148818016,0.9999760389328003,-0.013837816,0.0,0.0,0.0,0.0,0.267,0.0,0.0,0.009,53.00153827667236,3.572999954223633,False,True,False,True,True,False,False
32,0.32,0.034,0.028,0.137,-0.0027675412129610777,-0.009686394594609737,-0.005535082425922155,0.9999339580535889,-0.011018115,-0.019403365,-0.005428535,-0.002,-0.012,0.373,0.041,0.069,0.012,53.011950969696045,0.034180331975221634,0.02974729798734188,0.1430225819349289,,,,,,,,0.6989547570000763,0.6907454032196536,0.679819943541619,0.6729533836881056,106000.0,106000.0,106400.0,105300.0,53.011950969696045,0.05420004577706569,-0.025238422217135882,3.0518043793392844e-05,0.05420004577706569,-0.181,0.02,11.392190000000001,53.011950969696045,0.034,0.021,0.084,0.0,0.0,-0.006918853148818016,0.9999760389328003,-0.013837816,0.0,0.0,0.0,0.0,0.281,0.0,0.0,0.009,53.011950969696045,3.572999954223633,False,True,False,True,True,False,False
33,0.33,0.034,0.028,0.141,-0.0027675412129610777,-0.009686394594609737,-0.005535082425922155,0.9999339580535889,-0.011018115,-0.019403365,-0.005428535,-0.001,-0.007,0.388,0.079,0.194,0.002,53.02168607711792,0.034180331975221634,0.02974729798734188,0.1430225819349289,,,,,,,,0.7094377050431068,0.657251850156405,0.6621347371633478,0.7054703593499657,105300.0,105300.0,106000.0,104500.0,53.02168607711792,0.6302891584649424,-0.016113527122911423,0.002273594262607767,0.6302891584649424,-0.198,0.027,11.36919,53.02168607711792,0.034,0.021,0.087,0.0,0.0,-0.006918853148818016,0.9999760389328003,-0.013837816,0.0,0.0,0.0,0.0,0.296,0.0,0.0,0.01,53.02168607711792,3.572999954223633,False,True,False,True,True,False,False
34,0.34,0.033,0.028,0.144,-0.0027675412129610777,-0.00830262340605259,-0.005535082425922155,0.9999463558197021,-0.011025364,-0.01663576,-0.005443654,-0.009,-0.005,0.397,0.03,0.258,0.014,53.03191328048706,0.033556096255779266,0.030505141243338585,0.15111525356769562,,,,,,,,0.6997634851606012,0.6541695277332723,0.6873731593804837,0.7150835431448844,106800.0,106000.0,105600.0,105600.0,53.03191328048706,0.8404974441138323,0.04866102082856489,0.004547188525215534,0.8404974441138323,-0.235,0.001,11.21319,53.03191328048706,0.034,0.021,0.09,0.0,0.0,-0.006918853148818016,0.9999760389328003,-0.013837816,0.0,0.0,0.0,0.0,0.311,0.0,0.0,0.01,53.03191328048706,3.5889999866485596,False,True,False,True,True,False,False
35,0.35000000000000003,0.033,0.029,0.148,-0.0027675412129610777,-0.00830262340605259,-0.005535082425922155,0.9999463558197021,-0.011025364,-0.01663576,-0.005443654,-0.012,-0.011,0.415,-0.017,0.272,-0.009,53.041528940200806,0.03323151916265488,0.03097478300333023,0.15532289445400238,,,,,,,,0.693492027161059,0.6360570687418936,0.6745098039215687,0.7278553444724193,106800.0,104500.0,105300.0,105300.0,53.041528940200806,0.4280918593118181,0.047348744945448995,0.0017242694743266956,0.4280918593118181,-0.173,-0.026,11.129190000000001,53.041528940200806,0.034,0.021,0.093,0.0,0.0,-0.006918853148818016,0.9999760389328003,-0.013837816,0.0,0.0,0.0,0.0,0.326,0.0,0.0,0.011,53.041528940200806,3.5889999866485596,False,True,False,True,True,False,False
36,0.36,0.033,0.029,0.153,-0.0027675412129610777,-0.006918853148818016,-0.005535082425922155,0.9999569058418274,-0.011032676,-0.013868191,-0.005458803,-0.013,-0.009,0.428,0.001,0.313,-0.01,53.05546760559082,0.0329861156642437,0.031293466687202454,0.15978826582431793,,,,,,,,0.7162432288090333,0.6411993591210804,0.6473029678797589,0.7205767910276951,106000.0,103100.0,105300.0,106400.0,53.05546760559082,0.5700007629510948,0.010589761196307317,0.004852368963149462,0.5700007629510948,-0.12,-0.026,11.07019,53.05546760559082,0.034,0.021,0.096,0.0,0.0,-0.006918853148818016,0.9999760389328003,-0.013837816,0.0,0.0,0.0,0.0,0.34,0.0,0.0,0.011,53.05546760559082,3.5889999866485596,False,True,False,True,True,False,False
37,0.37,0.032,0.03,0.158,-0.004151311703026295,-0.005535082425922155,-0.005535082425922155,0.999960720539093,-0.011024678,-0.011115915,-0.0082416255,-0.017,0.011,0.447,0.084,0.245,-0.013,53.06270503997803,0.03254547342658043,0.03182641416788101,0.16414305567741394,,,,,,,,0.6733196002136264,0.6571755550469215,0.6690775921263447,0.6918135347524224,104900.0,102000.0,104900.0,106400.0,53.06270503997803,0.36879530022125584,0.07264820325017167,0.0006713969634546426,0.36879530022125584,-0.046,0.021,10.96019,53.06270503997803,0.034,0.021,0.1,0.0,0.0,-0.006918853148818016,0.9999760389328003,-0.013837816,0.0,0.0,0.0,0.0,0.355,0.0,0.0,0.012,53.06270503997803,3.5889999866485596,False,True,False,True,True,False,False
38,0.38,0.032,0.03,0.163,-0.0027675412129610777,-0.004151311703026295,-0.005535082425922155,0.9999722242355347,-0.011047488,-0.008333125,-0.005489191,-0.017,0.011,0.459,0.149,0.206,0.016,53.073487520217896,0.03254547342658043,0.03182641416788101,0.16414305567741394,,,,,,,,0.6809338521400778,0.6781567101548791,0.6698558022430762,0.6576791027695125,105300.0,103400.0,104500.0,106000.0,53.073487520217896,0.947524223697261,0.010971236743724726,-0.0006256198977645533,0.947524223697261,-0.013,0.046,10.83819,53.073487520217896,0.034,0.021,0.103,0.0,0.0,-0.006918853148818016,0.9999760389328003,-0.013837816,0.0,0.0,0.0,0.0,0.37,0.0,0.0,0.012,53.073487520217896,3.5940001010894775,False,True,False,True,True,False,False
39,0.39,0.031,0.03,0.16,-0.0027675412129610777,-0.0027675412129610777,-0.005535082425922155,0.9999769926071167,-0.011054989,-0.0055656214,-0.005504431,-0.017,0.012,0.433,0.188,0.164,-0.01,53.08157134056091,0.031991057097911835,0.03285243362188339,0.1733008772134781,,,,,,,,0.7249256122682536,0.7246204318303197,0.713847562371252,0.7204394598306249,105300.0,104200.0,105300.0,104200.0,53.08157134056091,0.8503547722590982,0.014343480582894636,0.0016327153429465172,0.8503547722590982,0.002,0.002,10.71519,53.08157134056091,0.034,0.021,0.107,0.0,0.0,-0.006918853148818016,0.9999760389328003,-0.013837816,0.0,0.0,0.0,0.0,0.385,0.0,0.0,0.013,53.08157134056091,3.5940001010894775,False,True,False,True,True,False,False
40,0.4,0.031,0.031,0.17,-0.0027675412129610777,-0.0013837706064805388,-0.005535082425922155,0.9999799132347107,-0.011062552,-0.0027981265,-0.005519702,-0.017,0.034,0.469,0.143,0.161,-0.012,53.09198784828186,0.03159889578819275,0.033384770154953,0.177870973944664,,,,,,,,0.6760357061112383,0.6583352407110704,0.6918135347524224,0.7137254901960784,106000.0,103800.0,105300.0,105600.0,53.09198784828186,0.20312809948882277,0.017181658655680172,0.0037689784084840162,0.20312809948882277,0.002,0.0,10.85219,53.09198784828186,0.034,0.021,0.111,0.0,0.0,-0.006918853148818016,0.9999760389328003,-0.013837816,0.0,0.0,0.0,0.0,0.399,0.0,0.0,0.013,53.09198784828186,3.5940001010894775,False,True,False,True,True,False,False
41,0.41000000000000003,0.031,0.032,0.176,-0.0013837706064805388,-0.0013837706064805388,-0.005535082425922155,0.9999827742576599,-0.011066413,-0.0027828156,-0.002752189,-0.019,0.03,0.482,0.148,0.176,-0.005,53.102033615112305,0.03122740425169468,0.03390451893210411,0.18272322416305542,,,,,,,,0.6862287327382315,0.6484779125658046,0.6723735408560312,0.7195239185168231,105300.0,104900.0,106000.0,106000.0,53.102033615112305,0.2747997253376059,-0.012161440451667048,-0.0007476920729381247,0.2747997253376059,-0.014,-0.003,11.05019,53.102033615112305,0.034,0.021,0.115,0.0,0.0,-0.006918853148818016,0.9999760389328003,-0.013837816,0.0,0.0,0.0,0.0,0.414,0.0,0.0,0.014,53.102033615112305,3.5940001010894775,False,True,False,True,True,False,False
42,0.42,0.031,0.033,0.181,-0.0013837706064805388,0.0,-0.005535082425922155,0.9999837279319763,-0.011070211,-1.5318568e-05,-0.0027674998,-0.014,0.037,0.496,0.211,0.211,-0.008,53.11498713493347,0.030940739437937737,0.034382887184619904,0.18768134713172913,,,,,,,,0.6936446173800259,0.665842679484245,0.6561379415579461,0.6927901121538109,104500.0,103800.0,106400.0,106800.0,53.11498713493347,0.13279926756694896,0.020630197604333562,-0.0017090104524299992,0.13279926756694896,0.02,-0.007,10.93819,53.11498713493347,0.034,0.021,0.119,0.0,0.0,-0.006918853148818016,0.9999760389328003,-0.013837816,0.0,0.0,0.0,0.0,0.427,0.0,0.0,0.014,53.11498713493347,3.5940001010894775,False,True,False,True,True,False,False
43,0.43,0.03,0.033,0.186,-0.0013837706064805388,0.0013837706064805388,-0.005535082425922155,0.9999827742576599,-0.011074072,0.0027521783,-0.0027828263,-0.017,0.047,0.508,0.266,0.184,0.009,53.12165403366089,0.030540205538272858,0.03475082665681839,0.19293497502803802,,,,,,,,0.6693217364766918,0.6700541695277332,0.6794842450598917,0.6793621728847181,106000.0,103400.0,104500.0,106400.0,53.12165403366089,0.23378347447928588,0.028412298771648737,-0.0016479743648432135,0.23378347447928588,0.068,-0.016,10.80019,53.12165403366089,0.034,0.021,0.124,0.0,0.0,-0.006918853148818016,0.9999760389328003,-0.013837816,0.0,0.0,0.0,0.0,0.442,0.0,0.0,0.015,53.12165403366089,3.5940001010894775,False,True,False,True,True,False,False
44,0.44,0.03,0.034,0.185,-0.0,0.0013837706064805388,-0.005535082425922155,0.9999837279319763,-0.011070253,0.0027674998,-1.5318627e-05,-0.016,0.054,0.503,0.293,0.158,0.008,53.13184881210327,0.030540205538272858,0.03475082665681839,0.19293497502803802,,,,,,,,0.7135576409552148,0.6849011978332189,0.693690394445716,0.7175860227359426,105600.0,103800.0,104900.0,105600.0,53.13184881210327,0.3722438391699092,0.014358739604791332,-0.0016021972991531242,0.3722438391699092,0.139,-0.083,10.69219,53.13184881210327,0.034,0.021,0.128,0.0,0.0,-0.006918853148818016,0.9999760389328003,-0.013837816,0.0,0.0,0.0,0.0,0.455,0.0,0.0,0.015,53.13184881210327,3.5940001010894775,False,True,False,True,True,False,False
45,0.45,0.029,0.034,0.193,0.0,0.0027675412129610777,-0.005535082425922155,0.9999808669090271,-0.011070349,0.0055350047,-3.0637606e-05,-0.022,0.066,0.527,0.301,0.089,0.0,53.141403675079346,0.029908858239650726,0.03563690558075905,0.20336005091667175,,,,,,,,0.667353322652018,0.6639047837033646,0.6934767681391623,0.7021133745326924,106400.0,105300.0,104900.0,105300.0,53.141403675079346,0.7541161211566338,0.02230869001297017,0.002746623941405356,0.7541161211566338,0.15,-0.096,10.770190000000001,53.141403675079346,0.034,0.021,0.133,0.0,0.0,-0.006918853148818016,0.9999760389328003,-0.013837816,0.0,0.0,0.0,0.0,0.469,0.0,0.0,0.016,53.141403675079346,3.5940001010894775,False,True,False,True,True,False,False
46,0.46,0.029,0.036,0.207,0.0027675412129610777,0.0027675412129610777,-0.005535082425922155,0.9999769926071167,-0.011054989,0.0055656214,0.005504431,-0.024,0.066,0.56,0.315,0.17,0.003,53.16165256500244,0.02981521189212799,0.03611290082335472,0.20872963964939117,,,,,,,,0.6668650339513237,0.6399481193255512,0.6542305638208591,0.6827954528114748,104900.0,104200.0,103800.0,104200.0,53.16165256500244,0.8046082246128023,0.042465857938506144,-0.0006408789196612497,0.8046082246128023,0.128,-0.133,10.67619,53.16165256500244,0.034,0.021,0.142,0.0,0.0,-0.005535082425922155,0.9999846816062927,-0.011070222,0.0,0.0,0.0,0.0,0.495,0.0,0.0,0.016,53.16165256500244,3.6050000190734863,False,True,False,True,True,False,False
47,0.47000000000000003,0.029,0.036,0.207,0.0027675412129610777,0.0027675412129610777,-0.005535082425922155,0.9999769926071167,-0.011054989,0.0055656214,0.005504431,-0.024,0.066,0.56,0.315,0.17,0.003,53.16165256500244,0.02981521189212799,0.03611290082335472,0.20872963964939117,,,,,,,,0.6668650339513237,0.6399481193255512,0.6542305638208591,0.6827954528114748,104900.0,104200.0,103800.0,104200.0,53.16165256500244,0.8046082246128023,0.042465857938506144,-0.0006408789196612497,0.8046082246128023,0.128,-0.133,10.67619,53.16165256500244,0.034,0.021,0.142,0.0,0.0,-0.005535082425922155,0.9999846816062927,-0.011070222,0.0,0.0,0.0,0.0,0.495,0.0,0.0,0.016,53.16165256500244,3.6050000190734863,False,True,False,True,True,False,False
48,0.48,0.028,0.036,0.217,0.005535082425922155,0.005535082425922155,-0.005535082425922155,0.9999540448188782,-0.011009286,0.011131161,0.011009286,-0.017,0.079,0.566,0.34,0.173,0.014,53.18160533905029,0.028813686221837997,0.03737301379442215,0.22503253817558289,,,,,,,,0.6973373006790264,0.6428320744640269,0.6508583199816892,0.6962081330586709,105300.0,103100.0,104200.0,104900.0,53.18160533905029,0.8610055695429923,-0.012909132524605172,0.003036545357442588,0.8610055695429923,0.196,-0.211,10.57019,53.18160533905029,0.034,0.021,0.152,0.0,0.0,-0.005535082425922155,0.9999846816062927,-0.011070222,0.0,0.0,0.0,0.0,0.52,0.0,0.0,0.017,53.18160533905029,3.6050000190734863,False,True,False,True,True,False,False
49,0.49,0.028,0.036,0.217,0.005535082425922155,0.005535082425922155,-0.005535082425922155,0.9999540448188782,-0.011009286,0.011131161,0.011009286,-0.017,0.079,0.566,0.34,0.173,0.014,53.18160533905029,0.028813686221837997,0.03737301379442215,0.22503253817558289,,,,,,,,0.6973373006790264,0.6428320744640269,0.6508583199816892,0.6962081330586709,105300.0,103100.0,104200.0,104900.0,53.18160533905029,0.8610055695429923,-0.012909132524605172,0.003036545357442588,0.8610055695429923,0.196,-0.211,10.57019,53.18160533905029,0.034,0.021,0.152,0.0,0.0,-0.005535082425922155,0.9999846816062927,-0.011070222,0.0,0.0,0.0,0.0,0.52,0.0,0.0,0.017,53.18160533905029,3.6050000190734863,False,True,False,True,True,False,False
50,0.5,0.028,0.038,0.229,0.00830262340605259,0.006918853148818016,-0.004151311703026295,0.9999330043792725,-0.008188062,0.013906161,0.016549045,-0.013,0.099,0.587,0.401,0.108,0.002,53.203819036483765,0.028443247079849243,0.03796489164233208,0.23665569722652435,,,,,,,,0.6734264133669032,0.6445258258945602,0.6493171587701229,0.678767071030747,103800.0,102700.0,104200.0,105300.0,53.203819036483765,0.7513694972152285,0.02178988326848249,0.0012817578393224994,0.7513694972152285,0.256,-0.243,10.60519,53.203819036483765,0.034,0.021,0.163,0.0,0.0,-0.005535082425922155,0.9999846816062927,-0.011070222,0.0,0.0,0.0,0.0,0.543,0.0,0.0,0.018,53.203819036483765,3.5940001010894775,False,True,False,True,True,False,False
51,0.51,0.028,0.038,0.229,0.00830262340605259,0.006918853148818016,-0.004151311703026295,0.9999330043792725,-0.008188062,0.013906161,0.016549045,-0.013,0.099,0.587,0.401,0.108,0.002,53.203819036483765,0.028443247079849243,0.03796489164233208,0.23665569722652435,,,,,,,,0.6734264133669032,0.6445258258945602,0.6493171587701229,0.678767071030747,103800.0,102700.0,104200.0,105300.0,53.203819036483765,0.7513694972152285,0.02178988326848249,0.0012817578393224994,0.7513694972152285,0.256,-0.243,10.60519,53.203819036483765,0.034,0.021,0.163,0.0,0.0,-0.005535082425922155,0.9999846816062927,-0.011070222,0.0,0.0,0.0,0.0,0.543,0.0,0.0,0.018,53.203819036483765,3.5940001010894775,False,True,False,True,True,False,False
52,0.52,0.028,0.037,0.228,0.009686394594609737,0.00830262340605259,-0.004151311703026295,0.9999099969863892,-0.008142254,0.01668495,0.019305998,-0.008,0.087,0.578,0.484,0.07,0.017,53.21194839477539,0.028173698112368584,0.03827175498008728,0.24232040345668793,,,,,,,,0.6938277256427863,0.6703593499656672,0.6272068360418097,0.6384069581139848,105300.0,102400.0,102000.0,103100.0,53.21194839477539,0.35342946517128254,0.013153276874952316,0.0021362630655374993,0.35342946517128254,0.253,-0.246,10.50019,53.21194839477539,0.034,0.021,0.168,0.0,0.0,-0.005535082425922155,0.9999846816062927,-0.011070222,0.0,0.0,0.0,0.0,0.554,0.0,0.0,0.018,53.21194839477539,3.5940001010894775,False,True,False,True,True,False,False
53,0.53,0.027,0.038,0.234,0.012453935109078884,0.00830262340605259,-0.004151311703026295,0.9998793601989746,-0.008096039,0.016707422,0.024841955,-0.008,0.086,0.586,0.435,0.023,-0.024,53.22165369987488,0.02794279158115387,0.03838416188955307,0.24841240048408508,,,,,,,,0.6857404440375372,0.6944686045624475,0.6817730983443961,0.6901350423437858,106400.0,104200.0,102400.0,103100.0,53.22165369987488,0.6227817196917678,0.009521629663538568,0.003143358510719463,0.6227817196917678,0.243,-0.319,10.35319,53.22165369987488,0.034,0.021,0.174,0.0,0.0,-0.005535082425922155,0.9999846816062927,-0.011070222,0.0,0.0,0.0,0.0,0.564,0.0,0.0,0.019,53.22165369987488,3.5940001010894775,False,True,False,True,True,False,False
54,0.54,0.027,0.038,0.246,0.015221476554870605,0.00830262340605259,-0.004151311703026295,0.999841034412384,-0.008049761,0.016729767,0.030378103,-0.008,0.071,0.617,0.334,-0.011,0.01,53.2313117980957,0.02785489894449711,0.03863796219229698,0.2543092966079712,,,,,,,,0.6439459830624857,0.6550240329594873,0.6611886778057526,0.6432135500114443,104500.0,102400.0,101700.0,103100.0,53.2313117980957,0.3219501029983978,-0.010452429999237048,0.0008545052262149996,0.3219501029983978,0.24,-0.478,10.31319,53.2313117980957,0.034,0.021,0.179,0.0,0.0,-0.005535082425922155,0.9999846816062927,-0.011070222,0.0,0.0,0.0,0.0,0.574,0.0,0.0,0.019,53.2313117980957,3.609999895095825,False,True,False,True,True,False,False
55,0.55,0.027,0.039,0.252,0.01660524681210518,0.00830262340605259,-0.004151311703026295,0.9998190402984619,-0.008026598,0.016740892,0.033146266,-0.008,0.082,0.623,0.203,0.032,-0.01,53.241392612457275,0.02785489894449711,0.03863796219229698,0.2543092966079712,,,,,,,,0.6281071183337148,0.617944609750515,0.6656137941557946,0.6843213550011444,104200.0,103100.0,102400.0,101000.0,53.241392612457275,0.08349736781872281,0.0031586175326161594,0.00018310826276035706,0.08349736781872281,0.19,-0.487,10.27919,53.241392612457275,0.034,0.021,0.185,0.0,0.0,-0.005535082425922155,0.9999846816062927,-0.011070222,0.0,0.0,0.0,0.0,0.584,0.0,0.0,0.019,53.241392612457275,3.609999895095825,False,True,False,True,True,False,False
56,0.56,0.027,0.039,0.259,0.017989017069339752,0.00830262340605259,-0.004151311703026295,0.9997950792312622,-0.008003417,0.016751984,0.035914488,-0.003,0.075,0.631,0.171,0.064,0.001,53.25126123428345,0.027706723660230637,0.03912084922194481,0.2661769986152649,,,,,,,,0.6486762798504616,0.6142519264515145,0.6339360646982528,0.6683604180971999,103100.0,102000.0,102700.0,102400.0,53.25126123428345,0.475745784695201,0.012787060349431601,0.0012970168612191958,0.475745784695201,0.154,-0.425,10.25519,53.25126123428345,0.034,0.021,0.191,0.0,0.0,-0.005535082425922155,0.9999846816062927,-0.011070222,0.0,0.0,0.0,0.0,0.593,0.0,0.0,0.02,53.25126123428345,3.609999895095825,False,True,False,True,True,False,False
57,0.5700000000000001,0.026,0.039,0.257,0.019372789189219475,0.00830262340605259,-0.004151311703026295,0.9997692108154297,-0.007980224,0.016763045,0.038682785,-0.006,0.07,0.616,0.215,0.105,0.0,53.261558532714844,0.02746569737792015,0.03921706974506378,0.27221882343292236,,,,,,,,0.7162279697871367,0.6644083314259556,0.6315709163042649,0.6888838025482567,102000.0,100300.0,101000.0,102400.0,53.261558532714844,0.8161898222323949,0.06060883497367819,-0.0019836728465705347,0.8161898222323949,0.177,-0.423,10.10119,53.261558532714844,0.034,0.021,0.197,0.0,0.0,-0.005535082425922155,0.9999846816062927,-0.011070222,0.0,0.0,0.0,0.0,0.601,0.0,0.0,0.02,53.261558532714844,3.609999895095825,False,True,False,True,True,False,False
58,0.58,0.026,0.039,0.268,0.020756559446454048,0.00830262340605259,-0.004151311703026295,0.9997414946556091,-0.007957012,0.016774073,0.041451152,-0.004,0.051,0.637,0.261,-0.019,0.019,53.27176880836487,0.027792494744062424,0.039174363017082214,0.27833837270736694,,,,,,,,0.6710612649729152,0.6774700541695278,0.6346532387273975,0.6089570458533607,104200.0,100000.0,100700.0,101700.0,53.27176880836487,0.4174868390936141,0.0635080491340505,-0.0008239871824216068,0.4174868390936141,0.216,-0.447,10.00619,53.27176880836487,0.034,0.021,0.202,0.0,0.0,-0.005535082425922155,0.9999846816062927,-0.011070222,0.0,0.0,0.0,0.0,0.609,0.0,0.0,0.02,53.27176880836487,3.6050000190734863,False,True,False,True,True,False,False
59,0.59,0.026,0.039,0.276,0.020756559446454048,0.00830262340605259,-0.004151311703026295,0.9997414946556091,-0.007957012,0.016774073,0.041451152,-0.002,0.059,0.649,0.113,-0.001,0.031,53.28171396255493,0.027349146082997322,0.03922348842024803,0.2844615578651428,,,,,,,,0.6132295719844358,0.5962005035477226,0.6643778133821622,0.66498817425803,104500.0,102700.0,100700.0,100300.0,53.28171396255493,0.732692454413672,-0.0371099412527657,0.0055848020141908905,0.732692454413672,0.18,-0.567,10.00619,53.28171396255493,0.034,0.021,0.209,0.0,0.0,-0.005535082425922155,0.9999846816062927,-0.011070222,0.0,0.0,0.0,0.0,0.616,0.0,0.0,0.021,53.28171396255493,3.6050000190734863,False,True,False,True,True,False,False
60,0.6,0.026,0.039,0.283,0.02214032970368862,0.00830262340605259,-0.004151311703026295,0.9997117519378662,-0.007933785,0.01678507,0.0442196,-0.004,0.051,0.654,0.013,0.027,0.011,53.291380882263184,0.027303550392389297,0.03925728425383568,0.2906615734100342,,,,,,,,0.6197909514000153,0.5989166094453345,0.6418860151064317,0.6521400778210117,101000.0,100000.0,101000.0,101000.0,53.291380882263184,0.24374761577782864,0.02413977264057374,0.005554283970397498,0.24374761577782864,0.163,-0.591,10.00019,53.291380882263184,0.034,0.021,0.215,0.0,0.0,-0.005535082425922155,0.9999846816062927,-0.011070222,0.0,0.0,0.0,0.0,0.622,0.0,0.0,0.021,53.291380882263184,3.6050000190734863,False,True,False,True,True,False,False
61,0.61,0.026,0.039,0.289,0.02214032970368862,0.009686394594609737,-0.0027675412129610777,0.999704122543335,-0.0051055164,0.01949084,0.044236768,0.0,0.047,0.656,-0.001,0.068,0.018,53.301403522491455,0.02740495279431343,0.039183832705020905,0.296647310256958,,,,,,,,0.6472419317921722,0.5946288242923629,0.6077210650797283,0.6517891203173877,100000.0,99300.0,101000.0,101700.0,53.301403522491455,0.8366674296177615,0.03129625391012436,0.0042725261310749985,0.8366674296177615,0.21,-0.523,9.82919,53.301403522491455,0.034,0.021,0.221,0.0,0.0,-0.004151311703026295,0.9999913573265076,-0.008302647,0.0,0.0,0.0,0.0,0.629,0.0,0.0,0.021,53.301403522491455,3.6050000190734863,False,True,False,True,True,False,False
62,0.62,0.026,0.039,0.292,0.023524099960923195,0.009686394594609737,-0.0027675412129610777,0.999672532081604,-0.00507853,0.019497888,0.04700542,0.0,0.039,0.655,0.068,0.027,0.011,53.3124098777771,0.027534062042832375,0.039112258702516556,0.3027503490447998,,,,,,,,0.6562752727550164,0.6522163729304952,0.614526588845655,0.6104676890211338,102000.0,98400.0,100000.0,100300.0,53.3124098777771,0.07765316243228809,0.059113450827801936,0.002365148393987945,0.07765316243228809,0.212,-0.446,9.674190000000001,53.3124098777771,0.034,0.021,0.227,0.0,0.0,-0.004151311703026295,0.9999913573265076,-0.008302647,0.0,0.0,0.0,0.0,0.634,0.0,0.0,0.021,53.3124098777771,3.6050000190734863,False,True,False,True,True,False,False
63,0.63,0.026,0.039,0.3,0.023524099960923195,0.009686394594609737,-0.0027675412129610777,0.999672532081604,-0.00507853,0.019497888,0.04700542,0.002,0.033,0.66,0.09,-0.015,0.014,53.32145810127258,0.02734251506626606,0.03901737183332443,0.30888378620147705,,,,,,,,0.6442053864347296,0.6397497520408941,0.6090485999847409,0.6038605325398642,102700.0,99000.0,100000.0,99000.0,53.32145810127258,0.4379339284351873,0.03079270618753338,0.005401693751430533,0.4379339284351873,0.251,-0.462,9.664190000000001,53.32145810127258,0.034,0.021,0.233,0.0,0.0,-0.004151311703026295,0.9999913573265076,-0.008302647,0.0,0.0,0.0,0.0,0.639,0.0,0.0,0.021,53.32145810127258,3.6050000190734863,False,True,False,True,True,False,False
64,0.64,0.027,0.039,0.307,0.023524099960923195,0.009686394594609737,-0.0027675412129610777,0.999672532081604,-0.00507853,0.019497888,0.04700542,0.009,0.027,0.66,0.025,-0.048,0.008,53.33154582977295,0.027436694130301476,0.038724906742572784,0.3150409460067749,,,,,,,,0.6264591439688716,0.6115358205539025,0.6196841382467384,0.6227054245822843,102000.0,99000.0,98000.0,97700.0,53.33154582977295,0.032608529793240255,0.020630197604333562,0.002822919050888838,0.032608529793240255,0.228,-0.527,9.607190000000001,53.33154582977295,0.034,0.021,0.24,0.0,0.0,-0.004151311703026295,0.9999913573265076,-0.008302647,0.0,0.0,0.0,0.0,0.643,0.0,0.0,0.021,53.33154582977295,3.6050000190734863,False,True,False,True,True,False,False
65,0.65,0.027,0.038,0.314,0.023524099960923195,0.009686394594609737,-0.0027675412129610777,0.999672532081604,-0.00507853,0.019497888,0.04700542,0.008,0.019,0.66,-0.083,-0.108,0.024,53.341482400894165,0.027525007724761963,0.03859848529100418,0.3211268186569214,,,,,,,,0.5976195925841153,0.6147402151522088,0.6433966582742047,0.6091859311818112,100700.0,100000.0,98000.0,98000.0,53.341482400894165,0.25764858472571905,0.016327153429465172,0.004577706569008927,0.25764858472571905,0.179,-0.577,9.466190000000001,53.341482400894165,0.034,0.021,0.246,0.0,0.0,-0.004151311703026295,0.9999913573265076,-0.008302647,0.0,0.0,0.0,0.0,0.646,0.0,0.0,0.022,53.341482400894165,3.6050000190734863,False,True,False,True,True,False,False
66,0.66,0.027,0.038,0.313,0.023524099960923195,0.009686394594609737,-0.0027675412129610777,0.999672532081604,-0.00507853,0.019497888,0.04700542,0.012,0.014,0.638,-0.173,-0.029,0.023,53.35153412818909,0.027380287647247314,0.038266804069280624,0.32724452018737793,,,,,,,,0.6662851911192492,0.6075684748607614,0.6427557793545434,0.6831616693369955,99300.0,98000.0,98400.0,98700.0,53.35153412818909,0.2239414053559167,-0.01240558480201419,0.003341725795376516,0.2239414053559167,0.169,-0.525,9.36519,53.35153412818909,0.034,0.021,0.252,0.0,0.0,-0.004151311703026295,0.9999913573265076,-0.008302647,0.0,0.0,0.0,0.0,0.649,0.0,0.0,0.022,53.35153412818909,3.6050000190734863,False,True,False,True,True,False,False
67,0.67,0.027,0.038,0.323,0.023524099960923195,0.00830262340605259,-0.0027675412129610777,0.9996849894523621,-0.005143458,0.016731005,0.047011316,0.009,0.009,0.65,-0.145,-0.031,0.024,53.36119103431702,0.02780364453792572,0.038129646331071854,0.3332872986793518,,,,,,,,0.6433203631647212,0.620004577706569,0.6212863355458915,0.6236667429617762,100000.0,97100.0,100000.0,99300.0,53.36119103431702,0.15034714274814984,0.03747615777828641,0.006256198977645533,0.15034714274814984,0.182,-0.492,9.39019,53.36119103431702,0.034,0.021,0.259,0.0,0.0,-0.004151311703026295,0.9999913573265076,-0.008302647,0.0,0.0,0.0,0.0,0.651,0.0,0.0,0.022,53.36119103431702,3.6050000190734863,False,True,False,True,True,False,False
68,0.68,0.027,0.038,0.331,0.02214032970368862,0.00830262340605259,-0.0027675412129610777,0.999716579914093,-0.0051666135,0.01672387,0.04424277,0.015,0.0,0.652,-0.152,-0.035,0.014,53.371912240982056,0.027634501457214355,0.03798376023769379,0.33893442153930664,,,,,,,,0.6370183871213855,0.5870908674753949,0.6023498893720912,0.6376287479972533,100300.0,98400.0,99000.0,98700.0,53.371912240982056,0.2864271000228885,0.016281376363775083,0.004364080262455177,0.2864271000228885,0.193,-0.48,9.47119,53.371912240982056,0.034,0.021,0.265,0.0,0.0,-0.004151311703026295,0.9999913573265076,-0.008302647,0.0,0.0,0.0,0.0,0.652,0.0,0.0,0.022,53.371912240982056,3.6050000190734863,False,True,False,True,True,False,False
69,0.6900000000000001,0.027,0.037,0.338,0.02214032970368862,0.00830262340605259,-0.0027675412129610777,0.999716579914093,-0.0051666135,0.01672387,0.04424277,0.011,-0.017,0.648,-0.168,-0.083,0.016,53.38140654563904,0.027677472680807114,0.03755008056759834,0.3449934124946594,,,,,,,,0.6210421911955444,0.6147249561303121,0.619150072480354,0.6012970168612192,100000.0,98000.0,99000.0,98000.0,53.38140654563904,0.7269092851148241,0.026550698100251773,0.0053711757076371405,0.7269092851148241,0.232,-0.529,9.38519,53.38140654563904,0.034,0.021,0.272,0.0,0.0,-0.004151311703026295,0.9999913573265076,-0.008302647,0.0,0.0,0.0,0.0,0.653,0.0,0.0,0.022,53.38140654563904,3.6050000190734863,False,True,False,True,True,False,False
70,0.7000000000000001,0.027,0.037,0.344,0.02214032970368862,0.00830262340605259,-0.0027675412129610777,0.999716579914093,-0.0051666135,0.01672387,0.04424277,0.01,-0.022,0.644,-0.254,-0.049,0.03,53.391270875930786,0.027870282530784607,0.036998070776462555,0.3510388135910034,,,,,,,,0.6202792401007096,0.5875638971541924,0.6206454566262303,0.6226596475165942,99300.0,97700.0,97100.0,97100.0,53.391270875930786,0.23476005188067445,-0.0354009308003357,0.005905241474021515,0.23476005188067445,0.193,-0.514,9.277190000000001,53.391270875930786,0.034,0.021,0.278,0.0,0.0,-0.004151311703026295,0.9999913573265076,-0.008302647,0.0,0.0,0.0,0.0,0.653,0.0,0.0,0.022,53.391270875930786,3.615000009536743,False,True,False,True,True,False,False
71,0.71,0.027,0.036,0.346,0.020756559446454048,0.00830262340605259,-0.0013837706064805388,0.9997491240501404,-0.0024225176,0.016659295,0.04149739,0.014,-0.029,0.639,-0.318,-0.081,0.018,53.401824951171875,0.027981258928775787,0.03659483790397644,0.35686343908309937,,,,,,,,0.611062790875105,0.6100251773861296,0.6417639429312582,0.6177157244220646,99000.0,97400.0,98400.0,97100.0,53.401824951171875,0.17254901960784313,0.009658960860608835,0.004150453955901427,0.17254901960784313,0.186,-0.464,9.267190000000001,53.401824951171875,0.034,0.021,0.285,0.0,0.0,-0.004151311703026295,0.9999913573265076,-0.008302647,0.0,0.0,0.0,0.0,0.652,0.0,0.0,0.022,53.401824951171875,3.615000009536743,False,True,False,True,True,False,False
72,0.72,0.027,0.036,0.354,0.019372789189219475,0.006918853148818016,-0.0013837706064805388,0.999787449836731,-0.002499122,0.013888827,0.038731612,0.012,-0.032,0.64,-0.358,-0.04,0.004,53.41219115257263,0.028146732598543167,0.03615641966462135,0.36263126134872437,,,,,,,,0.6029449912260624,0.5853665980010682,0.6205539024948501,0.6292210269321736,98000.0,97100.0,99300.0,95800.0,53.41219115257263,0.06071564812695506,-0.008209353780422675,0.007217517357137408,0.06071564812695506,0.161,-0.411,9.30719,53.41219115257263,0.034,0.021,0.291,0.0,0.0,-0.004151311703026295,0.9999913573265076,-0.008302647,0.0,0.0,0.0,0.0,0.651,0.0,0.0,0.022,53.41219115257263,3.615000009536743,False,True,False,True,True,False,False
73,0.73,0.027,0.035,0.361,0.017989017069339752,0.006918853148818016,-0.0013837706064805388,0.9998132586479187,-0.002518343,0.013885354,0.035963383,0.011,-0.043,0.636,-0.336,-0.025,0.023,53.42192077636719,0.028164681047201157,0.035688724368810654,0.36826092004776,,,,,,,,0.6241702906843671,0.5831540398260472,0.6005188067444877,0.6085145342183566,97700.0,96200.0,97700.0,98000.0,53.42192077636719,0.6079652094300755,0.031998168917372394,0.0027008468757152666,0.6079652094300755,0.141,-0.352,9.264190000000001,53.42192077636719,0.034,0.021,0.298,0.0,0.0,-0.0027675412129610777,0.9999961853027344,-0.00553509,0.0,0.0,0.0,0.0,0.649,0.0,0.0,0.022,53.42192077636719,3.615000009536743,False,True,False,True,True,False,False
74,0.74,0.027,0.035,0.367,0.01660524681210518,0.006918853148818016,-0.0013837706064805388,0.9998372197151184,-0.0025375595,0.013881856,0.033195235,0.015,-0.046,0.631,-0.332,-0.003,0.013,53.43524670600891,0.0287335142493248,0.03507472574710846,0.3739514946937561,,,,,,,,0.6141145952544442,0.562050812542916,0.5992828259708552,0.6266269932097353,98700.0,97100.0,97700.0,96200.0,53.43524670600891,0.25690089265278093,0.003723201342793927,0.010467689021133745,0.25690089265278093,0.112,-0.316,9.193190000000001,53.43524670600891,0.034,0.021,0.304,0.0,0.0,-0.0027675412129610777,0.9999961853027344,-0.00553509,0.0,0.0,0.0,0.0,0.646,0.0,0.0,0.022,53.43524670600891,3.625999927520752,False,True,False,True,True,False,False
75,0.75,0.028,0.034,0.365,0.015221476554870605,0.006918853148818016,-0.0013837706064805388,0.9998592734336853,-0.0025567706,0.0138783315,0.030427147,0.016,-0.049,0.604,-0.361,-0.009,0.013,53.44162058830261,0.028469441458582878,0.0347859151661396,0.379555881023407,,,,,,,,0.6258182650492103,0.5959716182192721,0.6607309071488517,0.6640268558785382,98700.0,94600.0,96800.0,95200.0,53.44162058830261,0.5835507743953613,0.03694209201190204,0.006713969634546426,0.5835507743953613,0.132,-0.288,9.09519,53.44162058830261,0.034,0.021,0.31,0.0,0.0,-0.0027675412129610777,0.9999961853027344,-0.00553509,0.0,0.0,0.0,0.0,0.643,0.0,0.0,0.021,53.44162058830261,3.625999927520752,False,True,False,True,True,False,False
76,0.76,0.028,0.034,0.375,0.012453935109078884,0.006918853148818016,-0.0013837706064805388,0.9998975396156311,-0.0025951765,0.0138712,0.024891136,0.014,-0.052,0.613,-0.363,-0.036,0.027,53.452553272247314,0.028798116371035576,0.034101784229278564,0.38501429557800293,,,,,,,,0.6220798046845197,0.576272220950637,0.6164339665827421,0.6325780117494468,98000.0,96800.0,98000.0,97400.0,53.452553272247314,0.8753643091477836,0.018814373998626687,0.004089417868314641,0.8753643091477836,0.153,-0.276,9.06619,53.452553272247314,0.034,0.021,0.317,0.0,0.0,-0.0027675412129610777,0.9999961853027344,-0.00553509,0.0,0.0,0.0,0.0,0.639,0.0,0.0,0.021,53.452553272247314,3.625999927520752,False,True,False,True,True,False,False
77,0.77,0.028,0.033,0.383,0.01107016485184431,0.006918853148818016,-0.0013837706064805388,0.9999138116836548,-0.0026143717,0.013867594,0.022123206,0.024,-0.055,0.613,-0.336,-0.054,0.025,53.46461081504822,0.029144350439310074,0.03359910100698471,0.3906556963920593,,,,,,,,0.6021057450217441,0.5769588769359884,0.6078126192111085,0.607690547035935,98000.0,95500.0,97100.0,96200.0,53.46461081504822,0.760189211871519,0.02153047989623865,0.005462729839017319,0.760189211871519,0.136,-0.163,9.19819,53.46461081504822,0.034,0.021,0.323,0.0,0.0,-0.0027675412129610777,0.9999961853027344,-0.00553509,0.0,0.0,0.0,0.0,0.634,0.0,0.0,0.021,53.46461081504822,3.625999927520752,False,True,False,True,True,False,False
78,0.78,0.028,0.033,0.389,0.009686394594609737,0.006918853148818016,-0.0013837706064805388,0.9999281764030457,-0.002633561,0.013863964,0.01935532,0.026,-0.062,0.608,-0.349,-0.068,-0.004,53.47142553329468,0.029224799945950508,0.03300216794013977,0.3959617614746094,,,,,,,,0.5990386816205081,0.5739528496223392,0.5894560158693828,0.6083161669336995,97700.0,96200.0,97100.0,96500.0,53.47142553329468,0.4499580376897841,0.05044632639047837,0.00827038986800946,0.4499580376897841,0.122,-0.155,9.10119,53.47142553329468,0.034,0.021,0.329,0.0,0.0,-0.0027675412129610777,0.9999961853027344,-0.00553509,0.0,0.0,0.0,0.0,0.629,0.0,0.0,0.021,53.47142553329468,3.63100004196167,False,True,False,True,True,False,False
79,0.79,0.028,0.032,0.395,0.00830262340605259,0.005535082425922155,-0.0013837706064805388,0.9999492764472961,-0.0026756574,0.011092808,0.016590869,0.027,-0.062,0.6,-0.338,-0.106,0.035,53.48135209083557,0.029556438326835632,0.03239911049604416,0.40136784315109253,,,,,,,,0.5901426718547341,0.5810177767605097,0.6093385214007782,0.5842221713588159,96800.0,93500.0,96800.0,95500.0,53.48135209083557,0.13882658121614405,0.031143663691157397,0.00032043945983062486,0.13882658121614405,0.164,-0.181,9.01619,53.48135209083557,0.034,0.021,0.335,0.0,0.0,-0.0027675412129610777,0.9999961853027344,-0.00553509,0.0,0.0,0.0,0.0,0.623,0.0,0.0,0.021,53.48135209083557,3.63100004196167,False,True,False,True,True,False,False
80,0.8,0.029,0.032,0.397,0.005535082425922155,0.005535082425922155,-0.0013837706064805388,0.999968409538269,-0.0027063491,0.011085361,0.0110554015,0.029,-0.042,0.591,-0.348,-0.095,0.019,53.49139928817749,0.029835134744644165,0.03183627873659134,0.40654581785202026,,,,,,,,0.5892881666285191,0.5379568169680323,0.6153200579842832,0.6540779736018921,97100.0,94000.0,97100.0,96500.0,53.49139928817749,0.8161287861448081,0.018142977035172047,0.006576638437476158,0.8161287861448081,0.15,-0.098,8.927190000000001,53.49139928817749,0.034,0.021,0.341,0.0,0.0,-0.0027675412129610777,0.9999961853027344,-0.00553509,0.0,0.0,0.0,0.0,0.617,0.0,0.0,0.021,53.49139928817749,3.63100004196167,False,True,False,True,True,False,False
81,0.81,0.029,0.031,0.404,0.004151311703026295,0.005535082425922155,-0.0013837706064805388,0.9999750852584839,-0.002721687,0.011081605,0.008287702,0.026,-0.045,0.589,-0.323,-0.155,0.03,53.50100255012512,0.030164416879415512,0.031151169911026955,0.41183698177337646,,,,,,,,0.5571374074921798,0.5706263828488594,0.6283360036621652,0.5926298924238956,97100.0,94600.0,96200.0,96500.0,53.50100255012512,0.06062409399557488,0.014404516670481423,0.005828946364538033,0.06062409399557488,0.096,-0.042,8.975190000000001,53.50100255012512,0.034,0.021,0.348,0.0,0.0,-0.0027675412129610777,0.9999961853027344,-0.00553509,0.0,0.0,0.0,0.0,0.61,0.0,0.0,0.02,53.50100255012512,3.63100004196167,False,True,False,True,True,False,False
82,0.8200000000000001,0.029,0.03,0.41,0.0013837706064805388,0.004151311703026295,-0.0013837706064805388,0.9999894499778748,-0.0027561218,0.008306461,0.0027561218,0.027,-0.046,0.58,-0.251,-0.11,0.028,53.51219630241394,0.030218254774808884,0.030517728999257088,0.41673654317855835,,,,,,,,0.5882810711833372,0.5742732890821698,0.5889219501029984,0.5821164263370718,95800.0,94000.0,96500.0,95200.0,53.51219630241394,0.08235294117647059,-0.015106431677729458,0.0025787747005416952,0.08235294117647059,0.118,0.01,8.97319,53.51219630241394,0.034,0.021,0.353,0.0,0.0,-0.0027675412129610777,0.9999961853027344,-0.00553509,0.0,0.0,0.0,0.0,0.602,0.0,0.0,0.02,53.51219630241394,3.63100004196167,False,True,False,True,True,False,False
