t,x,x_pred,y,y_pred,z,z_pred,vx,vx_pred,vy,vy_pred,vz,vz_pred,roll,roll_pred,pitch,pitch_pred,yaw,yaw_pred,wx,wx_pred,wy,wy_pred,wz,wz_pred,thrust,torque_roll,torque_pitch,torque_yaw
0.009999999999999825,1.0127717330716675,1.0105522,-0.009640315684422598,-0.009415525,1.6331076760816574,1.6293745,-0.06595096383611296,-0.059061173,0.01167849101276005,0.0024199076,0.18437699629314055,0.18109393,0.01889390599273911,0.017436149,-0.11796743565852902,-0.118493915,-0.010420430543808175,-0.0080180485,0.030768014127136523,0.03848944,-0.5362741609030304,-0.49166244,-0.05614143290900683,-0.023448164,0.6608719029737229,0.0031261999768729502,0.023564110520835437,0.14223237598454497
0.019999999999999612,1.0127717330716675,1.0122025,-0.009640315684422598,-0.011543161,1.6371076760816574,1.6279426,-0.07295096383611296,-0.06328474,0.00967849101276005,0.0029695611,0.20337699629314057,0.18219732,0.01909992029587143,0.015113931,-0.12354036781455949,-0.121749975,-0.013285634632169006,-0.005754931,0.05876801412713652,0.023612455,-0.3922741609030304,-0.5340668,-0.004141432909006835,-0.05075508,0.8990499757592573,0.004896246516889734,0.004322483909101255,0.38041044877007935
0.0299999999999994,1.0107717330716675,1.0124322,-0.009640315684422598,-0.010037762,1.6391076760816574,1.6330518,-0.08595096383611298,-0.07214483,0.00867849101276005,0.0003423402,0.21437699629314055,0.20083374,0.01912174797915395,0.015424355,-0.12634014253808884,-0.12566367,-0.013314461103282585,-0.008808718,0.07176801412713651,0.050883573,-0.4252741609030304,-0.38847455,-0.021141432909006837,-0.013479333,0.8990499757592573,0.004896246516889734,0.004322483909101255,0.38041044877007935
0.04000000000000008,1.0097717330716676,1.0063404,-0.009640315684422598,-0.008738573,1.6411076760816574,1.6350293,-0.09595096383611296,-0.087530375,0.00667849101276005,-0.00069604814,0.22737699629314057,0.2151286,0.019165788331293166,0.02169811,-0.13194058264245886,-0.12744048,-0.013372414464514662,-0.01091213,0.11476801412713653,0.063499026,-0.4472741609030304,-0.4210777,-0.00014143290900683458,-0.023838563,0.566372780367482,0.005186167932926967,0.0008586859385511653,0.04773325337830403
0.049999999999999864,1.0087717330716675,1.0093044,-0.009640315684422598,-0.010769015,1.6411076760816574,1.6369321,-0.10695096383611297,-0.0952404,0.00467849101276005,-0.0024984097,0.22737699629314057,0.22442827,0.022000445952967667,0.016307434,-0.13472257515655794,-0.13376172,-0.013587732286711389,-0.00890829,0.10576801412713652,0.106830135,-0.4452741609030304,-0.44305804,-0.028141432909006836,-0.009082099,0.8880787390155326,0.0034771574804969667,0.009830990813808657,0.36943921202635466
0.05999999999999965,1.0067717330716675,1.0069263,-0.009640315684422598,-0.010045891,1.6451076760816574,1.6362872,-0.11995096383611298,-0.10605587,0.00267849101276005,-0.004492927,0.24237699629314058,0.22510986,0.022046896879651202,0.020397238,-0.14032475857719393,-0.13661201,-0.013654169148422313,-0.010858899,0.02876801412713652,0.097841695,-0.4832741609030304,-0.44153905,-0.034141432909006834,-0.033300366,0.813919892597588,0.0022106586630711647,0.0313919887538407,0.2952803656084101
0.06999999999999944,1.0047717330716674,1.0049299,-0.009640315684422598,-0.009430202,1.6471076760816574,1.640508,-0.13395096383611296,-0.11842831,0.0006784910127600498,-0.0064704083,0.2533769962931406,0.2398461,0.022093941738943502,0.019481832,-0.14592824517113706,-0.14240323,-0.013721039518898888,-0.009165604,0.03876801412713652,0.020858759,-0.5682741609030303,-0.47886404,-0.029141432909006837,-0.040123936,0.813919892597588,0.0022106586630711647,0.0313919887538407,0.2952803656084101
0.08000000000000011,1.0037717330716676,1.002459,-0.009640315684422598,-0.009898219,1.6501076760816573,1.6422021,-0.14695096383611297,-0.13269767,-0.0033215089872399503,-0.008322387,0.2633769962931406,0.25108412,0.022117686881284064,0.020786745,-0.14873048740146258,-0.14852928,-0.013754638540539571,-0.008558049,0.030768014127136523,0.030799646,-0.5842741609030303,-0.562888,-0.00014143290900683458,-0.03218682,0.7565917473316995,0.0022106586630711647,-0.010921278965698472,0.23795222034252161
0.0899999999999999,1.0007717330716674,1.0017655,-0.009640315684422598,-0.009774425,1.6501076760816573,1.645812,-0.16195096383611296,-0.14657933,-0.0063215089872399495,-0.012452803,0.2583769962931406,0.26037526,0.022189828978656824,0.020730685,-0.15713927647642584,-0.15022397,-0.013856105537118989,-0.007583031,0.03876801412713652,0.02249011,-0.5162741609030304,-0.57764095,0.006858567090993166,-0.008101335,0.7565917473316995,0.0022106586630711647,-0.010921278965698472,0.23795222034252161
0.09999999999999969,0.9997717330716674,0.99561375,-0.010640315684422598,-0.008532198,1.6541076760816573,1.6471224,-0.17595096383611297,-0.1648123,-0.009321508987239949,-0.015646735,0.2763769962931406,0.26046202,0.022214180003269843,0.025741585,-0.15994292582318453,-0.15698452,-0.013890153804662677,-0.009429885,0.07076801412713651,0.02992301,-0.4612741609030304,-0.5107237,0.0048585670909931655,0.0025417586,0.3175133922542599,0.0036450067213606285,-0.01916115078991454,-0.20112613473491797
0.10999999999999947,0.9967717330716673,0.9990727,-0.010640315684422598,-0.012419267,1.6571076760816574,1.6511984,-0.19095096383611299,-0.17467068,-0.01132150898723995,-0.017925981,0.2913769962931406,0.27243063,0.025085650295426535,0.017716024,-0.16553178096175084,-0.16160393,-0.014188307046239804,-0.008426543,0.03776801412713652,0.06362445,-0.5052741609030303,-0.45694247,-0.034141432909006834,-0.0048678494,0.9760012231842974,0.0025768751885918775,0.03256693343988633,0.45736169619511946
0.12000000000000015,0.9947717330716673,0.9926516,-0.010640315684422598,-0.010156101,1.6641076760816573,1.652888,-0.20895096383611295,-0.19098118,-0.01532150898723995,-0.020446766,0.3183769962931406,0.2903931,0.025137444839181965,0.02507042,-0.1711415718192134,-0.1666009,-0.014265198091248535,-0.009332672,-0.0002319858728634795,0.029346373,-0.5692741609030303,-0.4998999,-0.057141432909006834,-0.03986914,0.6665482591192939,0.003324567261530003,0.021488883542884724,0.14790873213011602
0.12999999999999992,0.9917717330716674,0.9897405,-0.011640315684422597,-0.009488991,1.6651076760816574,1.6595197,-0.22495096383611296,-0.20936726,-0.01832150898723995,-0.024165591,0.3233769962931406,0.31913236,0.02518993429836292,0.026266504,-0.1767529385606799,-0.17240359,-0.014342585169945335,-0.007948909,-0.01423198587286348,-0.008389572,-0.3892741609030304,-0.56466824,-0.03914143290900684,-0.056776665,0.5122490296998997,0.004270626619125181,-0.05961281783805675,-0.0063904972892782075
0.1399999999999997,0.9887717330716673,0.9869346,-0.011640315684422597,-0.010710352,1.6671076760816574,1.6619475,-0.24295096383611298,-0.22603612,-0.02032150898723995,-0.027573708,0.3283769962931406,0.32399526,0.02521644176096021,0.025434054,-0.1795591952711294,-0.17506981,-0.014381467092454686,-0.008349758,-0.0022319858728634795,-0.02256783,-0.4612741609030304,-0.38422385,-0.007141432909006835,-0.04778202,0.5122490296998997,0.004270626619125181,-0.05961281783805675,-0.0063904972892782075
0.1499999999999995,0.9857717330716674,0.9839067,-0.011640315684422597,-0.010297964,1.6721076760816573,1.6642556,-0.261950963836113,-0.24391814,-0.02332150898723995,-0.029583264,0.3453769962931406,0.3280239,0.02526998638587809,0.02545634,-0.18517299834703702,-0.17813936,-0.014459614192869502,-0.007721788,0.07676801412713652,-0.010998961,-0.4932741609030304,-0.4552194,0.028858567090993166,-0.016381387,0.5366024286470272,0.005354017173790627,0.0074811014417174165,0.017962901657849306
0.16000000000000017,0.9847717330716673,0.98028064,-0.011640315684422597,-0.010283714,1.6721076760816573,1.669257,-0.26895096383611294,-0.26505676,-0.02432150898723995,-0.032690212,0.3393769962931406,0.34692243,0.025297026454871165,0.029039148,-0.18798053819832172,-0.18465416,-0.014498881879842052,-0.008296285,0.02476801412713652,0.067568816,-0.4742741609030304,-0.4876324,-0.011141432909006835,0.021049261,0.26821149250603377,0.0026989473637654485,-0.011745266148120076,-0.2504280344831441
0.16999999999999996,0.9807717330716674,0.9787799,-0.012640315684422598,-0.010597447,1.6751076760816574,1.6692939,-0.29195096383611296,-0.2722876,-0.027321508987239947,-0.033636414,0.3493769962931406,0.34177044,0.025351642031718614,0.028432928,-0.19359686259534808,-0.18827249,-0.014577808504950697,-0.007991205,-0.02623198587286348,0.015687875,-0.4802741609030304,-0.46894136,-0.035141432909006835,-0.01729838,0.26821149250603377,0.0026989473637654485,-0.011745266148120076,-0.2504280344831441
0.17999999999999974,0.9767717330716674,0.97458935,-0.012640315684422598,-0.011878195,1.6771076760816575,1.6725304,-0.312950963836113,-0.2956088,-0.031321508987239954,-0.03651441,0.35537699629314057,0.35216188,0.025406981342154876,0.027859284,-0.1992149831783709,-0.19548233,-0.014657266850946513,-0.0075322306,-0.01323198587286348,-0.035326958,-0.4832741609030304,-0.47501257,-0.017141432909006833,-0.039292246,0.2766344725930102,0.007642870458295091,0.03285685485592356,-0.24200505439616765
0.18999999999999953,0.9727717330716674,0.9705827,-0.013640315684422599,-0.011753286,1.6811076760816575,1.6746677,-0.33395096383611295,-0.31656417,-0.036321508987239945,-0.040564682,0.3673769962931406,0.35768864,0.02543492482637742,0.028152099,-0.20202470964997285,-0.20074771,-0.014697198082939475,-0.007545541,-0.03923198587286348,-0.022419324,-0.4192741609030304,-0.47765246,-0.021141432909006837,-0.023573918,0.2766344725930102,0.007642870458295091,0.03285685485592356,-0.24200505439616765
0.2000000000000002,0.9687717330716674,0.9661885,-0.014640315684422596,-0.013202811,1.6851076760816575,1.6793461,-0.35395096383611296,-0.33854333,-0.03932150898723995,-0.045655902,0.3773769962931406,0.3706693,0.025491361892535043,0.027752854,-0.20764554893831408,-0.20384614,-0.014777469694086965,-0.0076723183,0.01176801412713652,-0.048455622,-0.4542741609030304,-0.41408017,0.014858567090993166,-0.028688226,0.21173785246636032,0.005445571305170805,0.032414343220919364,-0.3069016745228176
0.21,0.9647717330716674,0.9630177,-0.015640315684422597,-0.0132341115,1.6931076760816575,1.6828142,-0.374950963836113,-0.35641676,-0.04232150898723995,-0.048482474,0.3963769962931406,0.37818834,0.025519858870827687,0.027200436,-0.21045668711218699,-0.20667565,-0.014817813158699752,-0.007007033,0.04576801412713652,0.0026340503,-0.4332741609030304,-0.44788978,-0.004141432909006835,0.005333841,0.3897648609351175,0.005735492721208038,0.007908354054824915,-0.1288746660540604
0.21999999999999978,0.9627717330716674,0.95948625,-0.015640315684422597,-0.014411644,1.6921076760816574,1.6904527,-0.381950963836113,-0.37577835,-0.04332150898723995,-0.0510731,0.3833769962931406,0.39587063,0.025548543053444853,0.026205637,-0.2132682971430782,-0.20793791,-0.014858296589163426,-0.0074463934,0.0007680141271365205,0.03711491,-0.4412741609030304,-0.42727223,-0.035141432909006835,-0.013825597,0.5215265150130911,0.0028057605170423265,-0.023006424307882037,0.002886988023913184
0.22999999999999957,0.9577717330716674,0.95775783,-0.015640315684422597,-0.014295973,1.6961076760816574,1.68939,-0.40495096383611295,-0.38250223,-0.046321508987239954,-0.051809855,0.3933769962931406,0.38283217,0.02591299788106339,0.02510708,-0.21885800319935791,-0.21092851,-0.01778377416941743,-0.008106447,-0.01223198587286348,-0.0075524654,-0.3092741609030304,-0.43542412,-0.029141432909006837,-0.0446524,0.578534220819149,0.006452666750352769,-0.02193829277511329,0.059894693829971035
0.23999999999999935,0.9527717330716674,0.9527936,-0.0176403156844226,-0.014529747,1.7041076760816574,1.6940973,-0.425950963836113,-0.40548074,-0.050321508987239943,-0.054967515,0.4023769962931406,0.39280295,0.025946357406236988,0.025250588,-0.22167103425335152,-0.2155838,-0.017826020726988277,-0.01170015,-0.037231985872863485,-0.020368766,-0.3232741609030304,-0.3039204,-0.035141432909006835,-0.038997047,0.578534220819149,0.006452666750352769,-0.02193829277511329,0.059894693829971035
0.25000000000000006,0.9477717330716674,0.94584835,-0.0176403156844226,-0.017992906,1.7081076760816574,1.7032338,-0.449950963836113,-0.4316312,-0.052321508987239945,-0.05967243,0.4113769962931406,0.4067212,0.025979915941638638,0.026748054,-0.2244845788905183,-0.22443709,-0.017868430918828188,-0.010175302,-0.01123198587286348,-0.046210222,-0.2992741609030304,-0.3197022,0.0038585670909931646,-0.041675597,0.07454398659316279,0.010175868093146696,0.012623391820904106,-0.44409554039601506
0.25999999999999984,0.9417717330716674,0.9411074,-0.018640315684422596,-0.01800383,1.7121076760816574,1.707657,-0.473950963836113,-0.4557438,-0.05532150898723995,-0.061763756,0.42237699629314057,0.41505563,0.026013673409950512,0.02668129,-0.2272986457227299,-0.22617237,-0.017911005391512268,-0.009672708,0.02376801412713652,-0.020380422,-0.3662741609030304,-0.2952988,0.0008585670909931654,-0.00493001,0.07454398659316279,0.010175868093146696,0.012623391820904106,-0.44409554039601506
0.26999999999999963,0.9357717330716674,0.9386925,-0.019640315684422597,-0.01819552,1.7171076760816575,1.7119408,-0.5019509638361129,-0.4718285,-0.06032150898723995,-0.06238372,0.4333769962931406,0.41780743,0.02608179070153679,0.026529223,-0.23292834020039482,-0.22483498,-0.017996652638226692,-0.012547778,-0.0032319858728634796,0.018385526,-0.4162741609030304,-0.36090904,-0.03814143290900684,-0.009100243,0.8742388061552289,0.00913825460417134,-0.028560708278279542,0.35559927916605094
0.2799999999999994,0.9297717330716674,0.93009967,-0.019640315684422597,-0.018499846,1.7191076760816575,1.7154833,-0.525950963836113,-0.5027278,-0.06232150898723994,-0.068043195,0.4313769962931406,0.43193364,0.02615071676714487,0.02675956,-0.2385601106866979,-0.23197794,-0.01808297149666656,-0.011783929,-0.02223198587286348,-0.011501007,-0.2672741609030304,-0.4111396,-0.004141432909006835,-0.047670268,0.5625885429371011,0.005888082940175001,0.04733766663588847,0.04394901594792322
0.2900000000000001,0.9237717330716674,0.92463714,-0.020640315684422598,-0.018414171,1.7221076760816574,1.7185836,-0.550950963836113,-0.52539444,-0.06332150898723994,-0.06997278,0.4383769962931406,0.4282367,0.026185487212689266,0.026551988,-0.24137682516517628,-0.23438859,-0.018126387044080147,-0.013598712,-0.02723198587286348,-0.029392721,-0.2582741609030304,-0.26198587,0.007858567090993165,-0.014109457,0.6654038324770417,0.0035076755242903594,4.180712336168679e-06,0.1467643054878638
0.2999999999999999,0.9177717330716675,0.91848546,-0.020640315684422598,-0.019467266,1.7261076760816574,1.722007,-0.575950963836113,-0.55059123,-0.06532150898723994,-0.07090839,0.4453769962931406,0.43506455,0.026220465077116128,0.027049968,-0.24419410122341095,-0.23701811,-0.018169975605991134,-0.01358454,-0.029231985872863478,-0.03441271,-0.3842741609030304,-0.25288513,-0.03914143290900684,-0.0021218052,0.6654038324770417,0.0035076755242903594,4.180712336168679e-06,0.1467643054878638
0.30999999999999966,0.9107717330716675,0.91089094,-0.0226403156844226,-0.021302985,1.7311076760816575,1.7251686,-0.602950963836113,-0.5821003,-0.07132150898723995,-0.073936716,0.4563769962931406,0.4490561,0.026255648501069286,0.026790742,-0.24701190067111156,-0.24802019,-0.01821373650696871,-0.010152236,-0.04323198587286348,-0.037608486,-0.1832741609030304,-0.3799758,0.0048585670909931655,-0.04557563,0.05521080585004842,0.004301144662918574,0.0096478825510483,-0.4634287211391295
0.31999999999999945,0.9047717330716675,0.9037351,-0.023640315684422597,-0.024201423,1.7351076760816575,1.7310501,-0.6259509638361129,-0.6086406,-0.07532150898723995,-0.08055051,0.4663769962931406,0.45949957,0.026255648501069286,0.023755223,-0.24701190067111156,-0.24677019,-0.01821373650696871,-0.009052453,-0.020231985872863477,-0.052032214,-0.2282741609030304,-0.18032496,0.0038585670909931646,-0.004811901,0.05521080585004842,0.004301144662918574,0.0096478825510483,-0.4634287211391295
0.3300000000000001,0.8977717330716675,0.89772576,-0.024640315684422598,-0.02507739,1.7391076760816575,1.7346956,-0.651950963836113,-0.63142407,-0.07732150898723994,-0.084363766,0.4733769962931406,0.4686048,0.026291041857926762,0.025248334,-0.24983027544870848,-0.24707769,-0.018257673203910044,-0.00993313,0.03176801412713652,-0.029141609,-0.14527416090303039,-0.22425628,0.012858567090993164,-0.0058512185,0.16390081882021704,0.006879919363460269,0.012028289966932948,-0.3547387081689608
0.3399999999999999,0.8907717330716675,0.89292485,-0.024640315684422598,-0.024622194,1.7451076760816575,1.7401597,-0.677950963836113,-0.6514825,-0.08032150898723994,-0.08386956,0.4893769962931406,0.46916926,0.02632664518999168,0.028825615,-0.25264923288971836,-0.24502537,-0.018301786452358217,-0.015121849,0.006768014127136519,0.026831293,-0.11827416090303039,-0.14012548,0.005858567090993165,0.0028690798,0.8424390045225135,0.00823797231226625,-0.02987298416139543,0.3237994775333356
0.3499999999999997,0.8837717330716675,0.88515055,-0.0256403156844226,-0.024451954,1.7501076760816574,1.7454268,-0.703950963836113,-0.6782744,-0.08232150898723994,-0.087437764,0.5003769962931406,0.48604372,0.02632664518999168,0.027386138,-0.25264923288971836,-0.2478749,-0.018301786452358217,-0.013487919,0.00976801412713652,2.6507303e-05,-0.1602741609030304,-0.114193,-0.005141432909006835,-0.0041280244,0.6010565371386729,0.0056439385898278596,-0.04897727957605935,0.08241701014949498
0.3599999999999995,0.8757717330716674,0.8762426,-0.027640315684422597,-0.027822487,1.7541076760816574,1.7497808,-0.730950963836113,-0.70948315,-0.08732150898723995,-0.09113327,0.5053769962931406,0.5026092,0.026362459360594007,0.025412027,-0.25546874895126714,-0.25281778,-0.018346077171373106,-0.010492812,-0.04923198587286348,0.0012001591,-0.0772741609030304,-0.15843168,0.024858567090993162,-0.01439078,0.06355749082754136,0.011198222560225356,0.012623391820904106,-0.4550820361616365
0.37000000000000016,0.8677717330716674,0.86840963,-0.028640315684422598,-0.030207224,1.7601076760816574,1.754521,-0.7559509638361129,-0.7364414,-0.09132150898723995,-0.09631097,0.5213769962931406,0.50654614,0.02600186558331552,0.023641305,-0.2555043068575386,-0.253478,-0.015483142388599182,-0.009678488,-0.05323198587286348,-0.05799851,-0.0972741609030304,-0.07518487,0.022858567090993168,0.015036525,0.06355749082754136,0.011198222560225356,0.012623391820904106,-0.4550820361616365
0.37999999999999995,0.8587717330716674,0.8623788,-0.0296403156844226,-0.028849173,1.7651076760816575,1.7619978,-0.783950963836113,-0.7560419,-0.09332150898723994,-0.09797179,0.5303769962931406,0.5171599,0.02600186558331552,0.028673068,-0.2555043068575386,-0.25065944,-0.015483142388599182,-0.012811699,-0.051231985872863484,-0.058688596,-0.1282741609030304,-0.09197534,0.005858567090993165,0.012865319,0.7921452683510022,0.011213481582122053,-0.008769756878264284,0.27350574136182426
0.38999999999999974,0.8507717330716674,0.8524832,-0.0306403156844226,-0.030260002,1.7681076760816574,1.765479,-0.809950963836113,-0.786271,-0.09632150898723994,-0.10048143,0.5253769962931406,0.52761096,0.026033673952788227,0.025652124,-0.2583244649927368,-0.25223762,-0.015526029623807738,-0.009065941,-0.08723198587286349,-0.058657974,-0.04727416090303039,-0.124647185,0.035858567090993165,-0.0041149477,0.4379070750191947,0.004850469451199645,-0.05894142087460211,-0.08073245196998319
0.3999999999999995,0.8417717330716674,0.84509593,-0.0316403156844226,-0.031337682,1.7761076760816574,1.769512,-0.834950963836113,-0.8120406,-0.09932150898723995,-0.103893705,0.5523769962931406,0.5227407,0.02316893307921751,0.026271883,-0.25834595275988353,-0.2544483,-0.015161168056826244,-0.008860283,-0.06223198587286348,-0.094908506,-0.042274160903030385,-0.043476634,0.03085856709099316,0.025866391,0.44565865814271644,0.00742924415174134,-0.034359136599024176,-0.07298086884646143
0.4100000000000002,0.8327717330716674,0.8350637,-0.0336403156844226,-0.033746086,1.7851076760816573,1.7772704,-0.8619509638361129,-0.8396574,-0.10232150898723995,-0.107660495,0.5813769962931405,0.55079323,0.02316893307921751,0.022595432,-0.25834595275988353,-0.2544363,-0.015161168056826244,-0.008335309,-0.01123198587286348,-0.0706754,0.00472583909696961,-0.03904821,0.03085856709099316,0.020887304,0.2484663181717086,0.009916464720902858,0.011707850507102324,-0.27017320881746926
0.42,0.8237717330716674,0.82580906,-0.0346403156844226,-0.036153596,1.7911076760816573,1.7859352,-0.8859509638361129,-0.8663514,-0.10432150898723995,-0.11062087,0.5883769962931406,0.57900053,0.023138708351925445,0.023145135,-0.25552573182326144,-0.2541054,-0.015122500305589962,-0.008158681,-0.04623198587286348,-0.01968557,0.023725839096969608,0.007248318,0.033858567090993164,0.020896126,0.2484663181717086,0.009916464720902858,0.011707850507102324,-0.27017320881746926
0.42999999999999977,0.8147717330716674,0.81924987,-0.035640315684422594,-0.035665214,1.7961076760816574,1.7934643,-0.910950963836113,-0.88560206,-0.10832150898723995,-0.11065374,0.5953769962931406,0.58433026,0.023138708351925445,0.026230304,-0.25552573182326144,-0.25123772,-0.015122500305589962,-0.012038378,-0.07223198587286349,-0.05100727,0.034725839096969614,0.028683258,0.021858567090993167,0.0238626,0.8880482209717392,0.009596025261072233,-0.03860114468630578,0.36940869398256126
0.43999999999999956,0.8047717330716674,0.81034434,-0.037640315684422596,-0.036702584,1.8051076760816573,1.7983589,-0.936950963836113,-0.9106583,-0.11032150898723994,-0.11471274,0.6123769962931406,0.5913993,0.023138708351925445,0.025900537,-0.25552573182326144,-0.25131842,-0.015122500305589962,-0.012125037,-0.10323198587286349,-0.076964796,0.035725839096969615,0.03959248,0.011858567090993167,0.011863261,0.8880482209717392,0.009596025261072233,-0.03860114468630578,0.36940869398256126
0.45000000000000023,0.7957717330716675,0.7983383,-0.038640315684422596,-0.039718136,1.8101076760816575,1.8065705,-0.960950963836113,-0.94033104,-0.11232150898723994,-0.11757596,0.6133769962931406,0.608779,0.020275566878753887,0.022376614,-0.2555466591438858,-0.2504212,-0.014761830670887514,-0.008720278,-0.06423198587286348,-0.11069768,0.1077258390969696,0.038355898,0.006858567090993166,0.0018741656,0.38938338538770007,0.013181895406795891,-0.002025269199924462,-0.1292561416014778
0.46,0.7857717330716675,0.7891567,-0.0396403156844226,-0.041248776,1.8151076760816574,1.8114374,-0.984950963836113,-0.96392757,-0.11432150898723994,-0.11983309,0.6153769962931406,0.60942954,0.02024708990808907,0.020306671,-0.2527269630049081,-0.249339,-0.01472752400304927,-0.008525279,-0.044231985872863484,-0.071799286,0.1567258390969696,0.1095838,0.034858567090993164,-0.0031268592,0.38938338538770007,0.013181895406795891,-0.002025269199924462,-0.1292561416014778
0.4699999999999998,0.7747717330716675,0.77797085,-0.0406403156844226,-0.04387877,1.8211076760816574,1.8163382,-1.009950963836113,-0.9901751,-0.11732150898723995,-0.12250651,0.6193769962931406,0.61247426,0.019890572409220427,0.019159496,-0.25275405821256985,-0.24778613,-0.011866038859017646,-0.0059760627,-0.03323198587286348,-0.052976735,0.1487258390969696,0.15540937,0.04685856709099316,0.024957433,0.06700602977619476,0.00913825460417134,0.04861942447521096,-0.4516334972129831
0.4799999999999996,0.7637717330716675,0.76705563,-0.04264031568442259,-0.044871256,1.8271076760816574,1.8223886,-1.034950963836113,-1.0153121,-0.11932150898723995,-0.12543935,0.6243769962931406,0.6161871,0.019866461811229082,0.019385295,-0.24993490372101723,-0.24785669,-0.011833419015723108,-0.0032645052,-0.052231985872863484,-0.042041227,0.1317258390969696,0.14785248,0.049858567090993164,0.036947083,0.06700602977619476,0.00913825460417134,0.04861942447521096,-0.4516334972129831
0.4899999999999994,0.7527717330716674,0.7596624,-0.043640315684422594,-0.044293337,1.8331076760816574,1.8298273,-1.0599509638361129,-1.0341387,-0.12132150898723995,-0.12552148,0.6263769962931406,0.6211609,0.017006405453062992,0.022300474,-0.2499512794954176,-0.24462375,-0.011481082828144265,-0.0073669264,-0.10423198587286348,-0.057378963,0.1567258390969696,0.13610397,0.059858567090993166,0.039860982,0.9048331450581052,0.004453734881885538,-0.06818838814400013,0.38619361806892727
0.5,0.7417717330716674,0.7490244,-0.044640315684422595,-0.04515618,1.8371076760816574,1.8361115,-1.082950963836113,-1.0592451,-0.12232150898723995,-0.12766749,0.6153769962931406,0.62380165,0.016983975816147464,0.019195698,-0.24713266119138813,-0.24457814,-0.01145277737522911,-0.006724257,-0.12623198587286347,-0.10952641,0.1887258390969696,0.1611023,0.033858567090993164,0.04986035,0.9048331450581052,0.004453734881885538,-0.06818838814400013,0.38619361806892727
0.5099999999999998,0.7297717330716674,0.7357718,-0.0466403156844226,-0.04717867,1.8431076760816574,1.839325,-1.107950963836113,-1.08415,-0.12432150898723995,-0.1295323,0.6163769962931406,0.61219144,0.016983975816147464,0.017779397,-0.24713266119138813,-0.23974803,-0.01145277737522911,-0.0061816876,-0.11323198587286348,-0.13358097,0.1457258390969696,0.19141704,0.050858567090993165,0.02386345,0.5275843467060796,0.0025768751885918775,0.04790225044606623,0.008944819716901642
0.5199999999999996,0.7177717330716674,0.72356707,-0.0476403156844226,-0.0491082,1.8491076760816574,1.8455514,-1.131950963836113,-1.1087918,-0.12532150898723995,-0.13129285,0.6173769962931406,0.6129534,0.014104669566349426,0.01867294,-0.24433039611598797,-0.24005054,-0.011080604156064985,-0.0057541905,-0.08923198587286348,-0.120741755,0.1467258390969696,0.14877021,0.043858567090993165,0.04086315,0.5275843467060796,0.0025768751885918775,0.04790225044606623,0.008944819716901642
0.5299999999999994,0.7057717330716674,0.711451,-0.04864031568442259,-0.050053287,1.8511076760816574,1.8509036,-1.1539509638361132,-1.1326236,-0.12732150898723996,-0.13196726,0.5783769962931405,0.6137388,0.013760637247351324,0.016019564,-0.24434900914402022,-0.23613364,-0.008223617882949856,-0.0051230974,-0.10823198587286348,-0.09624793,0.1807258390969696,0.14927503,0.06685856709099317,0.033863448,0.48081544459270503,0.00742924415174134,-0.03876899392716944,-0.037824082396472836
0.54,0.6927717330716674,0.69908386,-0.05064031568442259,-0.05185699,1.8561076760816575,1.8534857,-1.1779509638361128,-1.1577547,-0.12832150898723996,-0.13497473,0.5783769962931405,0.5751303,0.013744141131205947,0.014519438,-0.241531444613908,-0.23737258,-0.008201199405387011,-4.9345606e-05,-0.12423198587286348,-0.1164882,0.1927258390969696,0.18276934,0.04885856709099316,0.056864098,0.2323680500706939,0.0059338600058650905,0.006885999587746244,-0.286271476918484
0.5499999999999998,0.6847717330716674,0.6887185,-0.052640315684422595,-0.051751703,1.8691076760816574,1.858913,-1.1739509638361127,-1.177782,-0.13432150898723993,-0.1351736,0.6373769962931406,0.5770947,0.010527275842153537,0.014712432,-0.23592336628287494,-0.23638225,-0.004972481460489054,-0.0034557674,-0.13323198587286347,-0.13004228,0.1737258390969696,0.19820729,0.050858567090993165,0.038860716,0.9801821951839922,-0.0005970013659209773,0.0313919887538407,0.46154266819481427
0.5599999999999996,0.6717717330716674,0.6790806,-0.053640315684422596,-0.055081278,1.8771076760816574,1.8718137,-1.195950963836113,-1.1740791,-0.13532150898723994,-0.1409935,0.6423769962931406,0.63431776,0.010516678546707283,0.011731095,-0.23310741335827573,-0.22839785,-0.004955891834066536,0.0012614303,-0.13023198587286347,-0.14003776,0.3597258390969696,0.17712015,0.025858567090993163,0.040861778,0.6185738942760803,0.003248272152046521,-0.012645548440025176,0.09993436728690241
0.5699999999999994,0.6587717330716675,0.66813815,-0.0556403156844226,-0.056442704,1.8831076760816574,1.8800452,-1.2189509638361131,-1.195752,-0.13632150898723994,-0.14242625,0.6433769962931406,0.6404803,0.007656378886864434,0.010607402,-0.23029877294931503,-0.22537003,-0.0046160813159881985,0.00019132666,-0.12123198587286348,-0.13510382,0.3677258390969696,0.3633071,0.029858567090993167,0.015860386,0.9260279264726166,0.00926032677934491,-0.07661136823097656,0.40738839948343863
0.5800000000000001,0.6457717330716675,0.6544607,-0.05664031568442259,-0.05856827,1.8891076760816574,1.8860065,-1.240950963836113,-1.2180629,-0.13732150898723994,-0.1432538,0.6443769962931406,0.6412123,0.007638339487874934,0.007868427,-0.22466940315091918,-0.22152406,-0.004591431506651212,0.0013319933,-0.07923198587286348,-0.1266372,0.3267258390969696,0.3702892,0.051858567090993166,0.01986052,0.8013311995328134,-0.0030537038912890994,-0.07488709875664987,0.2826916725436355
0.5899999999999999,0.6347717330716675,0.6386207,-0.05864031568442259,-0.060610235,1.8951076760816574,1.8911046,-1.2469509638361131,-1.2446017,-0.14032150898723994,-0.14484505,0.6483769962931406,0.64027286,0.004472841762270759,0.007880705,-0.22186762914893451,-0.21706279,-0.0014226282953116052,0.004306982,-0.10023198587286349,-0.08745404,0.28072583909696963,0.32566044,0.043858567090993165,0.04186648,0.12941542933368314,0.0046215841227491995,-0.018367681651286327,-0.38922409765549476
0.5999999999999996,0.6217717330716674,0.6283968,-0.059640315684422594,-0.06173311,1.9021076760816573,1.8973157,-1.268950963836113,-1.2480118,-0.14132150898723994,-0.14758824,0.6483769962931406,0.6446726,0.004469418014790306,0.0057664854,-0.2190542097338279,-0.2130738,-0.0014158667866659912,0.006330719,-0.11323198587286348,-0.10784677,0.23072583909696961,0.28225195,0.03985856709099316,0.033862434,0.3776186795053471,0.0007000154952982174,-0.012401404089678034,-0.14102084748383076
0.6099999999999994,0.6087717330716674,0.6166976,-0.061640315684422596,-0.06200034,1.9101076760816573,1.9049658,-1.2829509638361132,-1.268186,-0.14232150898723994,-0.14777665,0.6583769962931406,0.6456396,0.004462662891682944,0.0053524,-0.21342884739445583,-0.21099822,-0.001402396237748926,0.004836301,-0.12423198587286348,-0.11948742,0.2417258390969696,0.23431696,0.05485856709099316,0.0298612,0.747115894733851,-0.0014515065921359774,-0.03953194502200426,0.22847636774467306
0.6200000000000001,0.6037717330716674,0.60389054,-0.0626403156844226,-0.06400797,1.9151076760816574,1.9132142,-1.2659509638361128,-1.2819455,-0.14032150898723994,-0.14878534,0.6423769962931406,0.6558185,0.0016168972728713082,0.0054816008,-0.20780735703908254,-0.20526136,-0.0010985739111612058,0.005123558,-0.09223198587286348,-0.13054878,0.1767258390969696,0.2453269,0.04785856709099316,0.04486061,0.747115894733851,-0.0014515065921359774,-0.03953194502200426,0.22847636774467306
0.6299999999999999,0.5897717330716674,0.5967509,-0.0636403156844226,-0.06582619,1.9211076760816574,1.9175206,-1.284950963836113,-1.2695566,-0.14032150898723994,-0.14750803,0.6383769962931406,0.6380684,0.0016148744114027258,0.0020729962,-0.20499636750280767,-0.20059839,-0.00109597571254628,0.007193243,-0.11423198587286348,-0.10016611,0.1807258390969696,0.17832533,0.04085856709099316,0.037868768,0.22208346931232048,8.965461943036268e-05,-0.01873389817680704,-0.2965560576768574
0.6399999999999997,0.5757717330716674,0.5831295,-0.06564031568442259,-0.066062555,1.9281076760816573,1.9230696,-1.3029509638361128,-1.2861245,-0.14132150898723994,-0.14688675,0.6333769962931406,0.6343628,-0.001509355345792654,0.0027750628,-0.2049954550961654,-0.19681747,0.0020282532043322792,0.006078258,-0.12223198587286348,-0.12150505,0.23372583909696962,0.18323341,0.06185856709099317,0.030863985,0.41848234014470015,-0.0020008313804170466,-0.006725047944106957,-0.10015718684447772
0.6499999999999995,0.5597717330716674,0.56939715,-0.0676403156844226,-0.068111725,1.9351076760816575,1.930635,-1.331950963836113,-1.303743,-0.14232150898723994,-0.14838612,0.6313769962931406,0.6297747,-0.0015060655337605006,9.532934e-05,-0.20218493162148815,-0.1966904,0.0020255410343642606,0.009733977,-0.12323198587286348,-0.12981921,0.1757258390969696,0.23641232,0.051858567090993166,0.051861703,0.41848234014470015,-0.0020008313804170466,-0.006725047944106957,-0.10015718684447772
0.6600000000000001,0.5457717330716675,0.5554797,-0.0686403156844226,-0.06863733,1.9411076760816575,1.9380113,-1.349950963836113,-1.3317752,-0.14232150898723994,-0.1487852,0.6243769962931406,0.62916327,-0.004342720585802572,-0.0011015029,-0.20218212623297224,-0.1956378,0.002307814068624858,0.0075039505,-0.18023198587286346,-0.12936364,0.2077258390969696,0.18133174,0.058858567090993165,0.041860934,0.9803958214905459,-0.0033283662854296375,-0.007747402411185614,0.461756294501368
0.6699999999999999,0.5297717330716675,0.54019225,-0.0706403156844226,-0.07028814,1.9481076760816574,1.9441166,-1.372950963836113,-1.3493342,-0.14232150898723994,-0.14880297,0.6253769962931406,0.6217899,-0.004338231595536874,-0.0034328,-0.199372078909802,-0.19380917,0.0023010534124670665,0.009334012,-0.14723198587286346,-0.187217,0.14172583909696962,0.21130557,0.03085856709099316,0.04886108,0.5878574831980304,-0.04507705019479104,-0.01629245467333562,0.06921795620885252
0.6799999999999997,0.5147717330716675,0.52552336,-0.0716403156844226,-0.07171341,1.9541076760816574,1.950775,-1.3909509638361128,-1.3727849,-0.14132150898723994,-0.14821117,0.6163769962931406,0.62264794,-0.007173684487836505,-0.0042771716,-0.1993688822053141,-0.19241682,0.0025792587062048607,0.0077501237,-0.16223198587286347,-0.15286559,0.1447258390969696,0.14710419,0.036858567090993166,0.02086119,0.9199395767358347,-0.0016651328986897265,-0.07764898171995194,0.4013000497466568
0.6899999999999995,0.5007717330716674,0.5106163,-0.0736403156844226,-0.0725356,1.9611076760816575,1.9568057,-1.4079509638361132,-1.3907155,-0.14132150898723994,-0.14721055,0.6093769962931406,0.613899,-0.0071680324757007335,-0.0071216016,-0.19655929171226477,-0.19249168,0.002568462908372805,0.00812258,-0.13723198587286348,-0.16798514,0.16872583909696962,0.15011887,0.04085856709099316,0.026860908,0.9199395767358347,-0.0016651328986897265,-0.07764898171995194,0.4013000497466568
0.7000000000000002,0.48577173307166743,0.49565086,-0.0746403156844226,-0.07508148,1.9671076760816575,1.9638132,-1.424950963836113,-1.4076102,-0.14132150898723994,-0.1472958,0.6003769962931406,0.6067295,-0.0102655691054752,-0.006841048,-0.19373214397293745,-0.18893914,0.005660813311909301,0.00870738,-0.14423198587286346,-0.14357199,0.1917258390969696,0.17358387,0.018858567090993164,0.030861313,0.7632751989224525,-0.0051136718473431195,-0.02695851097912641,0.24463567193327462
0.71,0.4787717330716674,0.47938648,-0.0756403156844226,-0.07585191,1.9701076760816574,1.9692175,-1.4159509638361132,-1.425774,-0.13932150898723994,-0.14729935,0.5793769962931405,0.5974791,-0.010254811940921746,-0.010227285,-0.19092348654852326,-0.18496521,0.005644871642610417,0.012616235,-0.13023198587286347,-0.15037322,0.23072583909696961,0.19507708,0.010858567090993166,0.008862692,0.5131187939480114,-0.006929495453049991,-0.0504421456781422,-0.0055207330411665145
0.7199999999999998,0.4637717330716674,0.47150385,-0.07764031568442259,-0.077887245,1.9721076760816574,1.9723135,-1.4309509638361129,-1.4199219,-0.13832150898723994,-0.1466604,0.5553769962931406,0.57566607,-0.013074923896436129,-0.011892811,-0.18810749359714243,-0.183,0.005890967503990245,0.013752448,-0.10723198587286348,-0.13792296,0.3047258390969696,0.2320048,0.024858567090993162,0.0008693021,0.15236499826631453,-0.008623246883583294,-0.026180300862394895,-0.36627452872286337
0.7299999999999995,0.4717717330716674,0.45719716,-0.08064031568442259,-0.07900296,1.9871076760816575,1.9743009,-1.3629509638361128,-1.4313025,-0.14232150898723994,-0.14544806,0.5843769962931405,0.55326897,-0.013005849531859499,-0.01253323,-0.17126707670168376,-0.17909397,0.005772596196649486,0.012771834,-0.12023198587286348,-0.11431478,0.3477258390969696,0.3072823,0.034858567090993164,0.01486129,0.5183221204147849,-0.009843968635319007,0.018788036667169453,-0.0003174065743930532
0.7400000000000002,0.4577717330716674,0.46538433,-0.08164031568442259,-0.08223657,1.9931076760816575,1.9895453,-1.376950963836113,-1.3627793,-0.14132150898723994,-0.14976485,0.5743769962931405,0.58183795,-0.016051773495428613,-0.012082696,-0.1684314419974577,-0.1618235,0.008810117954660976,0.013173721,-0.12123198587286348,-0.12741077,0.3277258390969696,0.34972668,0.026858567090993164,0.024860628,0.5183221204147849,-0.009843968635319007,0.018788036667169453,-0.0003174065743930532
0.75,0.4627717330716674,0.45250028,-0.0826403156844226,-0.0830225,1.9991076760816575,1.9955866,-1.316950963836113,-1.3765376,-0.13832150898723994,-0.14838384,0.5643769962931406,0.57285935,-0.01597233816940516,-0.01604198,-0.15441077661908176,-0.16004404,0.008688523414331453,0.015094715,-0.15823198587286347,-0.12808521,0.23372583909696962,0.33155662,-0.00014143290900683458,0.016860312,0.8070075556783844,-0.00847065666461633,-0.021251636789761955,0.2883680286892065
0.7599999999999998,0.44877173307166746,0.45693624,-0.0846403156844226,-0.083800785,2.004107676081657,2.001173,-1.3299509638361129,-1.3174393,-0.13732150898723994,-0.14531788,0.5543769962931406,0.5617856,-0.018790846029333466,-0.017014097,-0.15439880458084662,-0.14659138,0.008902465735801153,0.014839743,-0.19023198587286347,-0.16491368,0.0957258390969696,0.23873994,-0.00014143290900683458,-0.010138299,0.8070075556783844,-0.00847065666461633,-0.021251636789761955,0.2883680286892065
0.7699999999999996,0.43377173307166744,0.443042,-0.0866403156844226,-0.08513883,2.0141076760816574,2.0062425,-1.344950963836113,-1.3306556,-0.13732150898723994,-0.14395504,0.5633769962931406,0.5512225,-0.018774371203320508,-0.02009864,-0.15159578321967226,-0.14727913,0.008874406266781425,0.0147242565,-0.17823198587286346,-0.19682138,-0.1682741609030304,0.1016582,-0.009141432909006835,-0.010136935,0.8070075556783844,-0.00847065666461633,-0.021251636789761955,0.2883680286892065
0.7799999999999994,0.41977173307166743,0.42846668,-0.0876403156844226,-0.08599115,2.0111076760816573,2.0163398,-1.3559509638361131,-1.3453654,-0.13632150898723994,-0.14224985,0.5173769962931406,0.5588136,-0.021626914579942903,-0.02089856,-0.1571898519190304,-0.14587544,0.00914849949241501,0.014209963,-0.14823198587286346,-0.1830765,-0.47227416090303037,-0.1614396,0.007858567090993165,-0.019126967,0.8070075556783844,-0.00847065666461633,-0.021251636789761955,0.2883680286892065
0.79,0.4057717330716674,0.41383275,-0.0896403156844226,-0.08631933,2.016107676081657,2.0124838,-1.368950963836113,-1.3629525,-0.13432150898723993,-0.14011976,0.5043769962931406,0.5139378,-0.021644586055961947,-0.02198127,-0.15999354550035252,-0.15699637,0.009180690713602604,0.011843632,-0.11723198587286349,-0.15191686,-0.6092741609030303,-0.46694982,0.006858567090993166,-0.0007119924,0.05650782271126763,-0.00663957403701276,-0.03957772208769435,-0.4621317042779102
0.7999999999999998,0.3907717330716674,0.40018854,-0.0906403156844226,-0.08837591,2.021107676081657,2.017438,-1.381950963836113,-1.3753585,-0.13332150898723993,-0.13602547,0.4903769962931406,0.5008834,-0.02452185452954342,-0.021044794,-0.16839402195987435,-0.1606618,0.009511587425491385,0.010346071,-0.10823198587286348,-0.11859281,-0.7152741609030303,-0.6035872,0.0048585670909931655,0.0014832513,0.05650782271126763,-0.00663957403701276,-0.03957772208769435,-0.4621317042779102
0.8099999999999996,0.37677173307166745,0.38539127,-0.09164031568442259,-0.08938699,2.028107676081657,2.0224159,-1.3959509638361132,-1.3880396,-0.13132150898723996,-0.13304816,0.4923769962931406,0.48728022,-0.02456054546767658,-0.023739025,-0.1740047118889828,-0.16991527,0.009584748447851744,0.010329921,-0.11823198587286349,-0.10722732,-0.6002741609030303,-0.7093854,0.03885856709099316,0.0029280283,0.05650782271126763,-0.00663957403701276,-0.03957772208769435,-0.4621317042779102
0.8199999999999994,0.36177173307166743,0.371397,-0.09364031568442259,-0.09010066,2.033107676081657,2.0297065,-1.408950963836113,-1.4023801,-0.12932150898723996,-0.13423398,0.4763769962931406,0.48871148,-0.027427491247769355,-0.024229841,-0.17960362470617577,-0.17354637,0.009908098819335463,0.011080806,-0.12923198587286347,-0.12064338,-0.46927416090303037,-0.5942222,-0.0021414329090068346,0.030977622,0.05650782271126763,-0.00663957403701276,-0.03957772208769435,-0.4621317042779102
0.8300000000000001,0.3467717330716674,0.3557473,-0.09464031568442259,-0.09198529,2.033107676081657,2.034441,-1.421950963836113,-1.4152383,-0.12832150898723996,-0.13317326,0.4283769962931406,0.47315842,-0.027469687823315186,-0.027406484,-0.18521743587899447,-0.17900676,0.009990074744244928,0.011854618,-0.14723198587286346,-0.13300471,-0.3152741609030304,-0.46447104,0.03185856709099316,-0.0104814395,0.05650782271126763,-0.00663957403701276,-0.03957772208769435,-0.4621317042779102
0.8399999999999999,0.3317717330716674,0.34194356,-0.09664031568442259,-0.09328733,2.038107676081657,2.0354946,-1.436950963836113,-1.4230119,-0.12532150898723995,-0.13322927,0.4123769962931406,0.42421868,-0.030322018590667275,-0.029051825,-0.1880111141276411,-0.18145306,0.010293086807784908,0.016510949,-0.15523198587286346,-0.15279707,-0.11627416090303039,-0.3076143,0.024858567090993162,0.021870626,0.7601013223679397,-0.007616151438401331,-0.04775655782432364,0.24146179537876178
0.8499999999999996,0.31677173307166745,0.32591912,-0.0976403156844226,-0.0956913,2.041107676081657,2.040592,-1.4519509638361128,-1.4386716,-0.12332150898723995,-0.13139166,0.3963769962931406,0.40900916,-0.030322018590667275,-0.03161895,-0.1880111141276411,-0.18294635,0.010293086807784908,0.017271252,-0.14923198587286346,-0.16200657,-0.0012741609030303897,-0.10909963,0.009858567090993165,0.014864299,0.7601013223679397,-0.007616151438401331,-0.04775655782432364,0.24146179537876178
0.8599999999999994,0.30077173307166744,0.30994704,-0.0986403156844226,-0.096532494,2.049107676081657,2.042793,-1.4679509638361128,-1.4543353,-0.12132150898723995,-0.13001712,0.4133769962931406,0.3937923,-0.03315302134889103,-0.031990536,-0.18799689799501923,-0.17959072,0.010554937187792988,0.0153436735,-0.15323198587286346,-0.15557924,0.09872583909696961,0.0037478139,-0.019141432909006835,-0.00013435818,0.47045456872484814,-0.048510330121547734,-0.059368673487709606,-0.048184958264329725
0.8700000000000001,0.2857717330716674,0.29317006,-0.0996403156844226,-0.09777612,2.053107676081657,2.0502977,-1.482950963836113,-1.471199,-0.11832150898723995,-0.12837037,0.3983769962931406,0.41124696,-0.03312940264576291,-0.0364888,-0.1851894766890491,-0.17811088,0.010505729598572452,0.015942344,-0.15723198587286347,-0.15940908,0.0897258390969696,0.101411216,-0.008141432909006836,-0.029131569,0.18161654324228158,-0.011537720065852311,-0.13006372193510413,-0.3370229837468963
0.8799999999999999,0.2697717330716674,0.27819973,-0.1016403156844226,-0.09866698,2.057107676081657,2.0544116,-1.497950963836113,-1.4861542,-0.11632150898723995,-0.12546475,0.3833769962931406,0.39645278,-0.03595933451681829,-0.036394216,-0.18517495802215178,-0.17540498,0.010763533154082024,0.01568383,-0.16223198587286347,-0.16351539,0.1467258390969696,0.09268186,-0.0011414329090068346,-0.018132573,0.18161654324228158,-0.011537720065852311,-0.13006372193510413,-0.3370229837468963
0.8899999999999997,0.25377173307166745,0.26224166,-0.1026403156844226,-0.10071314,2.058107676081657,2.0583823,-1.5119509638361128,-1.5008495,-0.11332150898723994,-0.12355574,0.3493769962931406,0.3815794,-0.03595933451681829,-0.03949045,-0.18517495802215178,-0.17488153,0.010763533154082024,0.016385281,-0.13623198587286348,-0.16849956,0.1447258390969696,0.14980803,-0.004141432909006835,-0.011135994,0.1913365401904772,-0.011186762562228295,-0.15142635259047912,-0.3273029867987007
0.8999999999999995,0.22877173307166745,0.24610674,-0.1026403156844226,-0.10156192,2.0711076760816574,2.0592773,-1.578950963836113,-1.5146651,-0.10332150898723995,-0.1206267,0.3943769962931406,0.3478109,-0.039076665924577904,-0.039253682,-0.18791322274619737,-0.17507972,0.01390875732455951,0.015841078,-0.09823198587286348,-0.1425004,0.2577258390969696,0.14775446,0.014858567090993166,-0.014134992,0.1913365401904772,-0.011186762562228295,-0.15142635259047912,-0.3273029867987007
0.9100000000000001,0.21177173307166747,0.22115934,-0.1036403156844226,-0.10177088,2.0761076760816572,2.0724013,-1.5979509638361131,-1.5806473,-0.10232150898723995,-0.11076557,0.3853769962931406,0.39219064,-0.03904677938346606,-0.04103159,-0.1851060112824096,-0.17791462,0.013850369393874764,0.01962491,-0.05723198587286348,-0.104770005,0.2737258390969696,0.26013148,-0.026141432909006834,0.0048629874,0.1913365401904772,-0.011186762562228295,-0.15142635259047912,-0.3273029867987007
0.9199999999999999,0.19377173307166745,0.20379741,-0.1056403156844226,-0.1023838,2.0801076760816573,2.0775619,-1.6139509638361131,-1.5991025,-0.09932150898723995,-0.10962066,0.3673769962931406,0.38345018,-0.041846049828815825,-0.04084272,-0.18228017230086654,-0.17632404,0.01404579254275682,0.019246606,-0.02723198587286348,-0.06388791,0.3247258390969696,0.27417323,-0.034141432909006834,-0.036125053,0.08638498758499921,-0.009126794606174278,-0.12353286056331805,-0.4322545394041787
0.9299999999999997,0.17677173307166746,0.18599932,-0.1066403156844226,-0.104596354,2.0831076760816574,2.080119,-1.6289509638361128,-1.614207,-0.09632150898723994,-0.10682112,0.3493769962931406,0.3653212,-0.04181559991984902,-0.042612337,-0.1794738793824244,-0.17203605,0.01398368101122234,0.018788405,-0.021231985872863478,-0.033771608,0.4297258390969696,0.32685405,0.008858567090993166,-0.04413548,0.46964584056432324,-0.008058663073405529,-0.06548754126828488,-0.04899368642485463
0.9399999999999995,0.15977173307166745,0.16897081,-0.10764031568442259,-0.10642461,2.086107676081657,2.0838046,-1.6419509638361132,-1.6283926,-0.09332150898723994,-0.10431529,0.3313769962931406,0.34760395,-0.041514174951834244,-0.041622598,-0.1739202899123595,-0.16966778,0.011035246374484635,0.019095242,-0.05023198587286348,-0.028531553,0.6217258390969697,0.43100122,-0.006141432909006835,-0.0011376794,0.4037573840143881,-0.008546951774099813,0.010685496040023654,-0.11488214297478977
0.9500000000000002,0.15177173307166747,0.15200906,-0.10764031568442259,-0.106938586,2.0871076760816574,2.086873,-1.6169509638361128,-1.6407963,-0.08832150898723995,-0.101580046,0.29637699629314057,0.3305243,-0.04141327690580658,-0.042054363,-0.16270207139637158,-0.16377835,0.010793478969869066,0.01730605,-0.05323198587286348,-0.057262063,0.6297258390969697,0.62203,-0.03814143290900684,-0.01613906,0.4037573840143881,-0.008546951774099813,0.010685496040023654,-0.11488214297478977
0.96,0.13877173307166746,0.14478448,-0.10764031568442259,-0.10645934,2.089107676081657,2.0861793,-1.6179509638361131,-1.614858,-0.08332150898723995,-0.09677398,0.2713769962931406,0.29779714,-0.041126820806318444,-0.043078,-0.1543494161406556,-0.15343615,0.007795621285007782,0.01679298,-0.03823198587286348,-0.060699493,0.8067258390969697,0.6309255,0.012858567090993164,-0.0481384,0.6848438263734329,-0.009966040810492582,0.03305522214058061,0.16620429938425496
0.9699999999999998,0.12177173307166747,0.13215062,-0.10864031568442259,-0.1066072,2.0921076760816573,2.0909297,-1.6289509638361128,-1.6166273,-0.07932150898723994,-0.091452435,0.2503769962931406,0.27015537,-0.04388447148220645,-0.0427461,-0.14593218799395297,-0.14459449,0.007821364933538914,0.017325172,-0.04123198587286348,-0.04515668,0.8297258390969696,0.8043936,-0.018141432909006834,0.002860779,0.021900361049560137,-0.011324093759298562,0.0020794076902868747,-0.49673916593961776
0.9799999999999995,0.10677173307166746,0.11581306,-0.10964031568442259,-0.107747905,2.0881076760816573,2.0911434,-1.635950963836113,-1.62624,-0.07732150898723994,-0.087839216,0.21837699629314056,0.25329512,-0.043825582535200074,-0.043970942,-0.13752874542251958,-0.13567486,0.007634136567671497,0.014049456,-0.00823198587286348,-0.048146386,0.8147258390969696,0.8297842,0.026858567090993164,-0.028140072,0.7177270185608137,-0.011156244518434902,-0.05376861245162204,0.19908749157163574
0.9900000000000002,0.08977173307166744,0.10003431,-0.11064031568442259,-0.10802653,2.0921076760816573,2.0897765,-1.6449509638361128,-1.633994,-0.07332150898723995,-0.08551031,0.20837699629314058,0.21734366,-0.04376912507018596,-0.045278396,-0.1291281656385686,-0.12811844,0.007447784996796909,0.016753176,-0.04323198587286348,-0.015186677,0.8217258390969696,0.81303,0.025858567090993163,0.016860597,0.03250538126776415,-0.010164408095149634,-0.03860114468630578,-0.4861341457214137
1.0,0.06377173307166745,0.08319999,-0.11164031568442259,-0.1094908,2.0961076760816573,2.0922725,-1.667950963836113,-1.6415865,-0.07032150898723995,-0.081695765,0.19437699629314056,0.21030542,-0.04373282679382201,-0.0436894,-0.12352927147144634,-0.11938168,0.007324016716418176,0.014139466,-0.04023198587286348,-0.050276157,0.6287258390969697,0.82169926,0.009858567090993165,0.01585976,0.5556456879741043,-0.013597688021906331,0.009388479178804462,0.03700616098492637
1.0099999999999998,0.041771733071667455,0.056008086,-0.11264031568442259,-0.11033228,2.093107676081657,2.0964909,-1.682950963836113,-1.6648449,-0.06732150898723994,-0.07856524,0.16937699629314057,0.19343637,-0.04386000201401744,-0.0448406,-0.11787109237925224,-0.11382476,0.010007849606752092,0.013365146,-0.06523198587286348,-0.046792388,0.5727258390969696,0.62861,-0.010141432909006834,-0.00013905577,0.3709199688926974,-0.0124380023577574,-0.04511674703619514,-0.14771955809648046
1.0199999999999996,0.023771733071667453,0.034829274,-0.1136403156844226,-0.11117151,2.0951076760816574,2.0916271,-1.691950963836113,-1.6805528,-0.06432150898723994,-0.07544573,0.14937699629314058,0.17072035,-0.04366342597262511,-0.04573348,-0.11233486991682588,-0.109270915,0.007077544605668827,0.016899375,-0.020231985872863477,-0.07243493,0.5417258390969697,0.57566583,0.0008585670909931654,-0.020139217,0.8340007654136404,-0.009981299832389278,0.013874631616433208,0.3153612384244625
1.0299999999999994,0.013771733071667451,0.015725866,-0.1136403156844226,-0.11229809,2.0991076760816574,2.0951672,-1.682950963836113,-1.6883076,-0.06032150898723995,-0.072436266,0.13737699629314057,0.1477944,-0.04361415055608063,-0.0443541,-0.10394183116864501,-0.1025971,0.006893574204724246,0.011974481,-0.01323198587286348,-0.026572648,0.5277258390969697,0.5411867,0.005858567090993165,-0.009137491,0.3497862235657728,-0.009615083306868562,-0.0410883652554673,-0.16885330342340504
1.04,-0.0012282669283325484,0.005722304,-0.1146403156844226,-0.112261616,2.093107676081657,2.0991623,-1.683950963836113,-1.6792004,-0.05632150898723995,-0.068463355,0.10637699629314058,0.13568136,-0.04358261419105479,-0.044215783,-0.09834770870317998,-0.094151914,0.006771326052847952,0.011708762,-0.017231985872863478,-0.019582473,0.6437258390969697,0.52719504,0.03185856709099316,-0.00413754,0.3497862235657728,-0.009615083306868562,-0.0410883652554673,-0.16885330342340504
1.0499999999999998,-0.01822826692833255,-0.0088044,-0.1146403156844226,-0.11344757,2.094107676081657,2.0931005,-1.690950963836113,-1.6798723,-0.053321508987239946,-0.06451309,0.08737699629314058,0.10605749,-0.04633964222286972,-0.04424176,-0.08994916776577064,-0.08902149,0.006712322566051206,0.012676936,-0.029231985872863478,-0.02373628,0.7807258390969697,0.64375097,0.026858567090993164,0.021860447,0.4258829657645979,-0.011507202022058918,-0.047954925108980695,-0.09275656122457998
1.0599999999999996,-0.035228266928332544,-0.023355816,-0.1156403156844226,-0.1119624,2.0951076760816574,2.0932446,-1.6979509638361128,-1.6856956,-0.050321508987239943,-0.061285637,0.06737699629314058,0.0904891,-0.046295100032965254,-0.046539925,-0.0815618680768007,-0.080248594,0.006518551254946906,0.015072298,-0.03423198587286348,-0.03488526,0.8347258390969696,0.780309,0.019858567090993165,0.016859569,0.9555388748208274,-0.25378995169780466,-0.0722320289466247,0.4368993478316495
1.0699999999999994,-0.053228266928332546,-0.041600034,-0.1156403156844226,-0.1139918,2.0961076760816573,2.094167,-1.703950963836113,-1.6937798,-0.046321508987239954,-0.058462866,0.050376996293140575,0.0702031,-0.04626677929361572,-0.045586806,-0.07597132975349448,-0.07253019,0.00638972376687889,0.013822802,-0.0012319858728634795,-0.04078596,0.7677258390969697,0.8348486,0.012858567090993164,0.009859647,0.7615204114043325,-0.003923468139400796,-0.04323988734290149,0.24288088441515454
1.08,-0.07122826692833255,-0.06103084,-0.1166403156844226,-0.11321202,2.0961076760816573,2.0967686,-1.7099509638361128,-1.6987722,-0.04332150898723995,-0.054407816,0.03237699629314057,0.04979138,-0.04622634913224919,-0.048297863,-0.06758688662267454,-0.066844195,0.006196981864602709,0.013164348,-0.01023198587286348,-0.007179003,0.8227258390969696,0.76517195,0.018858567090993164,0.0028622039,0.19910338233589567,-0.007555115350814545,-0.035030533562478816,-0.3195361446532822
1.0899999999999999,-0.09622826692833256,-0.07797114,-0.14564031568442262,-0.11460407,2.102107676081657,2.0950534,-1.747950963836113,-1.7051022,-0.17732150898723995,-0.051388524,0.051376996293140575,0.034914773,-0.029839492387416504,-0.04542369,-0.061841695754030736,-0.05844356,0.019542174176490033,0.012988588,-0.02323198587286348,-0.016647322,0.8147258390969696,0.8225083,0.04785856709099316,0.008859873,0.725402306574852,-0.0012836573512723173,-0.020778607110964367,0.20676277958567413
1.0999999999999996,-0.11422826692833254,-0.10381282,-0.1476403156844226,-0.14440593,2.0921076760816573,2.1032317,-1.7509509638361132,-1.7432593,-0.17532150898723994,-0.18543753,-0.019623003706859425,0.051514145,-0.02967834298001293,-0.032132976,-0.05349981529030447,-0.05292346,0.016618565856801933,0.026721774,-0.09423198587286348,-0.029108975,0.8617258390969696,0.81250954,-0.13514143290900685,0.03786092,0.19545647610258524,-0.01107994940895142,-0.09267911828819791,-0.3231830508865926
1.1099999999999994,-0.12422826692833255,-0.12247561,-0.1586403156844226,-0.14484905,2.0991076760816574,2.0889685,-1.720950963836113,-1.7446846,-0.21132150898723995,-0.1829639,0.007376996293140575,-0.016021805,-0.026868135982699357,-0.032323264,-0.03947959920890343,-0.04567365,0.02194440177001247,0.020979768,-0.16423198587286347,-0.09776479,0.8277258390969696,0.8577131,-0.11614143290900683,-0.14512385,0.7922673405261758,-0.010515365598773651,-0.029522026657771414,0.27362781353699783
1.12,-0.14222826692833254,-0.13276704,-0.1606403156844226,-0.15599549,2.0991076760816574,2.0981243,-1.7229509638361131,-1.7148505,-0.20932150898723995,-0.2181528,-0.009623003706859425,0.008533899,-0.02673114097351632,-0.032559685,-0.03113646377458222,-0.031999525,0.019036593854229292,0.026779467,-0.3652319858728635,-0.16553387,0.8927258390969697,0.8230654,-0.13514143290900685,-0.12612665,0.3866520204681914,-0.01602387250348106,-0.10004922586430226,-0.13198750652098645
1.13,-0.16022826692833253,-0.15077442,-0.1636403156844226,-0.15789059,2.0991076760816574,2.0981967,-1.7259509638361128,-1.7162668,-0.20732150898723994,-0.21648681,-0.026623003706859424,-0.0077162534,-0.03223717824182092,-0.03419289,-0.022705248676403122,-0.025531597,0.018986759837783505,0.023814885,-0.6032319858728634,-0.36486086,1.0047258390969696,0.8878138,-0.03914143290900684,-0.14511842,0.5087852317293496,-0.015123590211575968,-0.07381896722388112,-0.009854295259828283
1.1399999999999997,-0.17822826692833255,-0.16765325,-0.1656403156844226,-0.16220455,2.093107676081657,2.0998323,-1.7269509638361131,-1.7202235,-0.20632150898723994,-0.21529192,-0.07462300370685943,-0.024129363,-0.0377239399656715,-0.0399168,-0.01432698308596715,-0.01627177,0.01609904497684558,0.026424756,-0.8362319858728634,-0.6053778,0.9747258390969696,1.002725,-0.05314143290900684,-0.049138915,0.5087852317293496,-0.015123590211575968,-0.07381896722388112,-0.009854295259828283
1.1499999999999995,-0.19622826692833253,-0.18511362,-0.16764031568442261,-0.16394278,2.0921076760816573,2.0938709,-1.727950963836113,-1.720848,-0.20332150898723994,-0.21439248,-0.09362300370685941,-0.07157158,-0.04601414750386825,-0.04766865,-0.003091566671705752,-0.008576674,0.015904222276087628,0.021666832,-1.0372319858728634,-0.8375525,1.0037258390969697,0.97165483,-0.007141432909006835,-0.06313819,0.5622528444553738,-0.013704501175183206,0.0004619513692370597,0.0436133174661959
1.1600000000000001,-0.21422826692833255,-0.2022406,-0.16964031568442262,-0.16648364,2.0911076760816574,2.093378,-1.727950963836113,-1.7224565,-0.19932150898723994,-0.21095507,-0.11262300370685942,-0.090091236,-0.05712373887072293,-0.05593753,0.005371082090357576,0.0026309858,0.01568576210948203,0.021744397,-1.1032319858728634,-1.0381589,1.0047258390969696,1.001481,-0.018141432909006834,-0.017139634,0.6992025659782243,-0.015413511627613206,-0.036144442160937665,0.18056303898904635
1.17,-0.23922826692833254,-0.22050513,-0.17064031568442262,-0.16809906,2.0881076760816573,2.0922155,-1.763950963836113,-1.722384,-0.19032150898723996,-0.20691384,-0.12262300370685943,-0.10870451,-0.07106844256046267,-0.06727529,0.010963485468915297,0.0113404365,0.012662536967931508,0.0211324,-1.0422319858728635,-1.1036372,0.9077258390969697,1.0014243,-0.005141432909006835,-0.02813914,0.6145912895610426,-0.015093072167782575,-0.05472993083111391,0.09595176257186466
1.1799999999999997,-0.25822826692833256,-0.24578746,-0.17264031568442262,-0.168257,2.0871076760816574,2.0892403,-1.7629509638361132,-1.7582288,-0.18432150898723995,-0.19780709,-0.13962300370685943,-0.11925281,-0.07939079465343203,-0.08126715,0.02217869399789373,0.017755283,0.012182647815864011,0.018606808,-0.9302319858728635,-1.042739,0.9197258390969697,0.9042831,0.012858567090993164,-0.015138881,0.29439597408076484,-0.012071785832236687,-0.06953118207090944,-0.22424355290841302
1.1899999999999995,-0.2782282669283326,-0.26402962,-0.17164031568442262,-0.17138693,2.0911076760816574,2.0877209,-1.767950963836113,-1.7571577,-0.16632150898723994,-0.1912946,-0.11962300370685942,-0.13597763,-0.09053329260366993,-0.08819478,0.030615992501528723,0.027987551,0.011689298220351859,0.018581305,-0.7632319858728634,-0.9307737,0.9907258390969697,0.91864485,0.010858567090993166,0.0028605014,1.0151406143493236,-0.009996558854285974,-0.057858030319936665,0.49650108736014575
1.2000000000000002,-0.2962282669283326,-0.28552398,-0.17164031568442262,-0.16927685,2.089107676081657,2.0922391,-1.764950963836113,-1.762111,-0.15232150898723995,-0.17417547,-0.13962300370685943,-0.117044255,-0.09887936407554847,-0.0988651,0.041823384325312074,0.03692437,0.011022427069023259,0.019201603,-0.6022319858728634,-0.76515377,1.0977258390969697,0.9886209,-0.0011414329090068346,0.00086081773,0.36383978273263023,-0.010332257336013295,-0.10477952265227816,-0.15479974425654763
1.21,-0.30422826692833255,-0.30210486,-0.17064031568442262,-0.16916455,2.0911076760816574,2.0891173,-1.727950963836113,-1.7591306,-0.13432150898723993,-0.1594187,-0.13862300370685943,-0.13569899,-0.10715858660951899,-0.104489185,0.05596333692154945,0.04904821,0.012909236859476,0.01866851,-0.5222319858728635,-0.60301924,1.1537258390969696,1.0962373,0.007858567090993165,-0.011140066,0.987979555373204,-0.009340420912728027,-0.11810064876809415,0.4693400283840261
1.2199999999999998,-0.32322826692833256,-0.3099546,-0.17164031568442262,-0.16787343,2.090107676081657,2.091263,-1.723950963836113,-1.72221,-0.12632150898723996,-0.14153971,-0.15362300370685944,-0.13467316,-0.11281830830565105,-0.111606374,0.0670025461937327,0.063546896,0.00934663380113584,0.020608097,-0.41023198587286347,-0.5232024,1.0757258390969697,1.1522926,-0.030141432909006838,-0.0021403413,0.9530821722954593,-0.011720828328612667,-0.11134090206785763,0.4344426453062814
1.2299999999999995,-0.3402282669283326,-0.3314172,-0.17364031568442262,-0.16867094,2.0881076760816573,2.0909908,-1.7179509638361128,-1.7164005,-0.11732150898723995,-0.13420124,-0.16962300370685943,-0.15057528,-0.11561525986352236,-0.11823325,0.0781748441489708,0.07424332,0.008621901742242357,0.01653804,-0.3572319858728635,-0.41058332,1.1557258390969696,1.0698977,-0.019141432909006835,-0.040136587,0.16585397362299417,-0.010805287014810882,-0.03336730017573891,-0.35278555336618367
