t,x,x_pred,y,y_pred,z,z_pred,vx,vx_pred,vy,vy_pred,vz,vz_pred,roll,roll_pred,pitch,pitch_pred,yaw,yaw_pred,wx,wx_pred,wy,wy_pred,wz,wz_pred,thrust,torque_roll,torque_pitch,torque_yaw
0.01000000000000038,0.037396980034913874,0.032460544,0.8902046947274918,0.88712347,1.1992192024669648,1.1949162,0.046093171836779,0.034668006,0.015908102609832754,0.019979026,0.04518333763353316,0.047382947,0.037434802191543305,0.041749857,0.014336037372195189,0.017353076,0.04335106373205122,0.04240058,0.35047276639313063,0.34021792,0.253126223631586,0.26250476,0.04025161780424201,0.062054906,0.8835468672267883,-0.014024648721642684,0.023299465672666074,0.3687255810674086
0.020000000000000167,0.037396980034913874,0.039826524,0.8892046947274918,0.88488483,1.1962192024669647,1.2040364,0.049093171836779005,0.041192044,0.013908102609832756,0.02113752,0.04018333763353316,0.054405987,0.04030466483776506,0.040033493,0.017005670255395178,0.020949824,0.04621327320033083,0.048043422,0.37747276639313065,0.34887066,0.255126223631586,0.25903508,0.05225161780424201,0.04216599,0.19257257867868421,-0.014787599816477509,-0.008958106616950165,-0.32224870748069545
0.029999999999999954,0.038396980034913875,0.032347664,0.8892046947274918,0.8864293,1.1972192024669648,1.1925862,0.051093171836779,0.040767487,0.010908102609832757,0.013462338,0.04818333763353316,0.044913903,0.04594154824558035,0.050093472,0.019663047174948746,0.021883966,0.04632448153684679,0.04478626,0.39047276639313067,0.38083097,0.29612622363158597,0.26165137,0.01225161780424201,0.051859416,0.9773440748257812,-0.015108039276308133,-0.01612984690839747,0.4625227886664015
0.03999999999999974,0.038396980034913875,0.033123672,0.8892046947274918,0.8856127,1.1982192024669647,1.1941872,0.053093171836779,0.042289708,0.005908102609832756,0.013563141,0.050183337633533165,0.053718656,0.048792929586293894,0.051528398,0.022383693684115875,0.025878463,0.046419929149254774,0.045470163,0.42347276639313064,0.39502752,0.268126223631586,0.30302107,0.0002516178042420089,0.013787442,0.8139046912902659,-0.01281918599180367,0.024367597205434827,0.29908340513088616
0.05000000000000041,0.038396980034913875,0.03464265,0.8892046947274918,0.88449055,1.1992192024669648,1.1992829,0.056093171836779004,0.045220844,0.0029081026098327564,0.012218498,0.051183337633533166,0.057560705,0.05164493657957375,0.05255748,0.025104150392047424,0.028353965,0.04652322062932965,0.0474031,0.4624727663931307,0.4269367,0.273126223631586,0.27641448,0.01825161780424201,0.0022935655,0.5964636292623419,-0.013841540458882327,0.007475859965791892,0.08164234310296214
0.0600000000000002,0.038396980034913875,0.035452887,0.8882046947274918,0.88389874,1.1952192024669648,1.2017536,0.06009317183677901,0.048298903,-0.0010918973901672437,0.009520207,0.036183337633533166,0.058590427,0.057284746366291904,0.054620158,0.027760423515222763,0.031011468,0.046672844903005106,0.048912827,0.5144727663931307,0.46493632,0.264126223631586,0.28113425,-0.0017483821957579911,0.019883018,0.526439977778402,-0.012452969466282951,0.020858022169194648,0.011618691619022292
0.06999999999999999,0.039396980034913875,0.03310179,0.8882046947274918,0.88438785,1.1972192024669648,1.1921302,0.06309317183677901,0.051028464,-0.005091897390167244,0.00075416744,0.04818333763353316,0.04119898,0.0629259885367951,0.063096225,0.030416118607555907,0.032533385,0.04683771760696824,0.045531098,0.5144727663931307,0.5193313,0.337126223631586,0.27152425,-0.005748382195757991,-0.00063012005,0.8713091316656378,-0.013551619042845096,0.01438819688499536,0.3564878455062581
0.07999999999999978,0.039396980034913875,0.033662442,0.8882046947274918,0.8844855,1.1992192024669648,1.1937746,0.068093171836779,0.05381381,-0.011091897390167242,-0.0033214344,0.05318333763353316,0.052747335,0.06856879342087155,0.068239056,0.03307117082933505,0.035749603,0.0470178507430293,0.045917295,0.5104727663931307,0.5195963,0.312126223631586,0.34331897,-0.03674838219575799,-0.004856781,0.8713091316656378,-0.013551619042845096,0.01438819688499536,0.3564878455062581
0.08999999999999957,0.040396980034913876,0.040622674,0.8872046947274917,0.8834555,1.1992192024669648,1.2051555,0.072093171836779,0.064316876,-0.01809189739016724,-0.0051139127,0.05518333763353316,0.060480095,0.07421329264801556,0.07075219,0.035725520953566334,0.04006689,0.04721324931176234,0.055958264,0.5594727663931307,0.5086845,0.34812622363158596,0.31537706,-0.01874838219575799,-0.034259673,0.13014792009929915,-0.01144587402110099,0.030928976621014286,-0.3846733660600805
0.10000000000000024,0.040396980034913876,0.041204263,0.8862046947274917,0.8824218,1.1972192024669648,1.2053248,0.07509317183677901,0.0682777,-0.024091897390167247,-0.0118505955,0.05218333763353317,0.062511414,0.07985961749996077,0.075940385,0.038379107758389645,0.04225119,0.04742392149729452,0.056852203,0.5844727663931306,0.5577152,0.322126223631586,0.3509957,-0.043748382195757995,-0.016459873,0.13014792009929915,-0.01144587402110099,0.030928976621014286,-0.3846733660600805
0.11000000000000003,0.040396980034913876,0.038126625,0.8862046947274917,0.87961316,1.1982192024669647,1.202622,0.080093171836779,0.06901742,-0.030091897390167245,-0.016803157,0.05418333763353316,0.059226446,0.08550789443266256,0.07991752,0.04103186741701185,0.042857077,0.04764987340172065,0.053673726,0.6624727663931307,0.58496886,0.367126223631586,0.3265914,-0.03674838219575799,-0.042860426,0.33347438687277897,-0.015062262210618044,0.01612772538121876,-0.1813468992866007
0.11999999999999982,0.04139698003491388,0.037691865,0.8852046947274917,0.8795028,1.1992192024669648,1.2037432,0.085093171836779,0.07394791,-0.038091897390167245,-0.022568915,0.06418333763353316,0.060920365,0.09122959783240729,0.084704354,0.04646646079807394,0.045015555,0.04801940978785618,0.054762594,0.6884727663931306,0.66299444,0.366126223631586,0.371033,-0.05274838219575799,-0.036226228,0.33347438687277897,-0.015062262210618044,0.01612772538121876,-0.1813468992866007
0.1299999999999996,0.04139698003491388,0.034840398,0.8852046947274917,0.8823645,1.2002192024669647,1.1958921,0.090093171836779,0.07588758,-0.04609189739016724,-0.03830216,0.06718333763353317,0.067627,0.0968832448423843,0.09944336,0.0491171058129197,0.04887408,0.048283944907575364,0.04713301,0.7214727663931306,0.6944371,0.376126223631586,0.37029347,-0.06874838219575799,-0.05321027,1.0002020896270325,-0.017320597451329113,0.018111398227789288,0.4853808034676528
0.14000000000000026,0.04239698003491388,0.038600642,0.8842046947274917,0.8790356,1.1952192024669648,1.206314,0.09609317183677901,0.084624164,-0.054091897390167246,-0.03823276,0.034183337633533165,0.073950745,0.10540557596874986,0.09629472,0.054482136614692755,0.052773558,0.048783738279433685,0.0575354,0.7534727663931307,0.72113603,0.402126223631586,0.37903026,-0.06374838219575799,-0.06816444,0.29866855792641445,-0.01671023657546125,-0.006638735288652303,-0.21615272823296522
0.15000000000000005,0.04339698003491388,0.037274003,0.8832046947274917,0.8792927,1.1982192024669647,1.194842,0.105093171836779,0.08675721,-0.06509189739016724,-0.050182592,0.05418333763353316,0.03850462,0.11378062260774653,0.107169494,0.05721895434470722,0.0582379,0.04638387953987428,0.05228159,0.7824727663931307,0.7588299,0.431126223631586,0.40783858,-0.06974838219575799,-0.06251826,0.6871937734600988,-0.015932026458729737,0.05624369394763365,0.17237248730071908
0.15999999999999984,0.04439698003491388,0.03813289,0.8822046947274917,0.87833095,1.2012192024669648,1.1978768,0.11109317183677901,0.09565679,-0.07609189739016724,-0.061211564,0.06518333763353316,0.05842997,0.1195152763328701,0.11574585,0.06265419734951465,0.060560122,0.04687822518699155,0.050186776,0.8054727663931307,0.7879554,0.451126223631586,0.4362553,-0.077748382195758,-0.06879986,0.6871937734600988,-0.015932026458729737,0.05624369394763365,0.17237248730071908
0.16999999999999962,0.04439698003491388,0.03985267,0.8812046947274917,0.8762639,1.2022192024669647,1.2062596,0.118093171836779,0.10408572,-0.08709189739016725,-0.069120735,0.07318333763353316,0.07092275,0.12797546821820413,0.11939704,0.06524175280021581,0.06429641,0.04731788096864603,0.053871386,0.8334727663931306,0.80633205,0.437126223631586,0.4543553,-0.06674838219575799,-0.07838886,0.41892490949427896,-0.015993062546316522,-0.024613863082960694,-0.0958963766651007
0.1800000000000003,0.04539698003491385,0.039737485,0.8802046947274917,0.87555003,1.1992192024669648,1.2077923,0.127093171836779,0.11117975,-0.09609189739016724,-0.0802709,0.06418333763353316,0.07897337,0.1365193850406181,0.12770121,0.07060696206390414,0.066657364,0.04797269274663847,0.054976575,0.8294727663931306,0.83407927,0.40912622363158596,0.44025347,-0.075748382195758,-0.06752328,0.41892490949427896,-0.015993062546316522,-0.024613863082960694,-0.0958963766651007
0.19000000000000009,0.046396980034913854,0.039735835,0.8792046947274917,0.8760218,1.2012192024669648,1.1993512,0.136093171836779,0.117608376,-0.10909189739016725,-0.09223309,0.07418333763353316,0.068971284,0.14507357347434435,0.14005561,0.07596825200131146,0.07200118,0.048674425024843336,0.05164879,0.7864727663931307,0.83505744,0.504126223631586,0.41411397,-0.09174838219575798,-0.074936934,0.7267604172382326,-0.017061194079085275,0.019911962811599473,0.21193913107885287
0.19999999999999987,0.047396980034913855,0.039500345,0.8772046947274917,0.8765663,1.2032192024669648,1.1978832,0.142093171836779,0.12636319,-0.12209189739016724,-0.107845776,0.08218333763353317,0.07763441,0.1534463295033602,0.15166716,0.07875721831639615,0.076786175,0.04642103250610694,0.048285484,0.7914727663931307,0.79263234,0.46812622363158596,0.50731343,-0.105748382195758,-0.091630705,0.9344509642741676,-0.016664459509771162,-0.027802998659370234,0.4196296781147879
0.20999999999999966,0.047396980034913855,0.042314276,0.8772046947274917,0.8713517,1.2032192024669648,1.2082834,0.142093171836779,0.1362931,-0.12209189739016724,-0.11424927,0.08218333763353317,0.088829465,0.1534463295033602,0.15345135,0.07875721831639615,0.08207857,0.04642103250610694,0.055553094,0.7914727663931307,0.79171234,0.46812622363158596,0.46927702,-0.105748382195758,-0.10664704,0.35628662460834015,-0.01646609222511411,0.0024861598055721523,-0.1585346615510395
0.22000000000000033,0.048396980034913856,0.042314276,0.8762046947274917,0.8713517,1.2042192024669647,1.2082834,0.152093171836779,0.1362931,-0.13609189739016725,-0.11424927,0.08518333763353317,0.088829465,0.1620126275886094,0.15345135,0.08412227508213253,0.08207857,0.04720457049718592,0.055553094,0.7994727663931307,0.79171234,0.526126223631586,0.46927702,-0.10074838219575799,-0.10664704,0.35628662460834015,-0.01646609222511411,0.0024861598055721523,-0.1585346615510395
0.23000000000000012,0.048396980034913856,0.04260143,0.8762046947274917,0.8708847,1.2042192024669647,1.2066499,0.152093171836779,0.1436811,-0.13609189739016725,-0.12938203,0.08518333763353317,0.09054642,0.1620126275886094,0.16352907,0.08412227508213253,0.085921064,0.04720457049718592,0.053592674,0.7994727663931307,0.80194014,0.526126223631586,0.52860326,-0.10074838219575799,-0.1015279,0.5210077659831781,-0.013902576546469113,-0.008301968675392207,0.006186479823798385
0.2399999999999999,0.05239698003491386,0.04260143,0.8702046947274917,0.8708847,1.2052192024669648,1.2066499,0.184093171836779,0.1436811,-0.18409189739016724,-0.12938203,0.09918333763353317,0.09054642,0.18484286719822987,0.16352907,0.10051036099562452,0.085921064,0.046914640249511474,0.053592674,0.9194727663931307,0.80194014,0.500126223631586,0.52860326,-0.136748382195758,-0.1015279,0.5210077659831781,-0.013902576546469113,-0.008301968675392207,0.006186479823798385
0.2499999999999997,0.05439698003491386,0.045717034,0.8682046947274917,0.8666349,1.2062192024669647,1.205315,0.19509317183677902,0.17418775,-0.20109189739016725,-0.18012692,0.10318333763353317,0.10430145,0.19611813100964504,0.19017513,0.10607190128117527,0.099449836,0.04524225714429959,0.051557206,0.8984727663931307,0.92562497,0.521126223631586,0.5028317,-0.179748382195758,-0.1363834,0.7751315166507603,-0.012758149904216878,-0.014024101886653373,0.2603102304913806
0.2600000000000004,0.05539698003491386,0.050584994,0.8662046947274917,0.8663353,1.2082192024669647,1.213809,0.208093171836779,0.19316414,-0.21909189739016724,-0.1937742,0.10718333763353316,0.109136015,0.20473833119022367,0.20059505,0.1114344384829887,0.11103111,0.04626329668341402,0.05910377,0.9014727663931307,0.8927353,0.521126223631586,0.51830554,-0.162748382195758,-0.18003817,0.06390850604574,-0.008760286167282416,-0.04406911600124862,-0.45091278011363967
0.2700000000000002,0.057396980034913864,0.048096195,0.8642046947274917,0.8614715,1.2082192024669647,1.2116411,0.221093171836779,0.20060723,-0.24009189739016726,-0.21196839,0.11118333763353316,0.11237422,0.21321490358110798,0.20590325,0.11708381988622457,0.11298159,0.0445471880057913,0.05604319,0.9314727663931307,0.9036998,0.533126223631586,0.5213428,-0.143748382195758,-0.16426402,0.5033835956924937,-0.013444805889568222,0.014907003629483051,-0.01143769046688603
0.27999999999999997,0.059396980034913865,0.05012185,0.8612046947274917,0.85972464,1.2092192024669648,1.2119464,0.235093171836779,0.21369538,-0.26009189739016725,-0.23301859,0.11418333763353317,0.116422944,0.22186038758918006,0.21457654,0.12244584611772782,0.11842013,0.045664305542968964,0.05455674,0.9214727663931307,0.933318,0.450126223631586,0.5332109,-0.177748382195758,-0.14553672,0.5033835956924937,-0.013444805889568222,0.014907003629483051,-0.01143769046688603
0.28999999999999976,0.06239698003491387,0.051637176,0.8582046947274917,0.85902673,1.2102192024669647,1.2083824,0.249093171836779,0.22475642,-0.28109189739016727,-0.25760275,0.11718333763353317,0.11948261,0.2331697280244204,0.22915274,0.12805724286617426,0.12031639,0.044223046181630116,0.04870212,0.9104727663931307,0.92814326,0.462126223631586,0.45188934,-0.15574838219575798,-0.17716065,0.9048484617945766,-0.01471130470699402,0.0015095824041835848,0.39002717563519684
0.30000000000000043,0.06439698003491387,0.058274895,0.8552046947274917,0.85641843,1.2112192024669648,1.2178023,0.264093171836779,0.24779332,-0.3040918973901673,-0.27414572,0.11918333763353317,0.12355764,0.24184628676514303,0.23520038,0.13341598905591984,0.1342669,0.045444629340927016,0.05924467,0.8454727663931306,0.90515167,0.397126223631586,0.4587783,-0.209748382195758,-0.15630612,0.10298686112317952,-0.015138557320101526,0.0180656211620992,-0.41183442503620016
0.3100000000000002,0.06639698003491387,0.056281418,0.8522046947274917,0.85061675,1.2112192024669648,1.2157221,0.277093171836779,0.25735947,-0.3260918973901672,-0.29585496,0.11918333763353317,0.12587044,0.25024498593335515,0.24401903,0.13634131432322974,0.13495126,0.043574465275621775,0.05676534,0.8114727663931306,0.8469965,0.424126223631586,0.3959144,-0.185748382195758,-0.21114215,0.4641221323522937,-0.015901508414936344,0.007369046812515018,-0.05069915380708595
0.32,0.06839698003491387,0.05834763,0.8482046947274917,0.8475597,1.2122192024669647,1.2153467,0.292093171836779,0.27008566,-0.3510918973901672,-0.31776243,0.12318333763353316,0.12641974,0.25875525373829167,0.2534835,0.14205372878459355,0.13800544,0.04209653279258606,0.054739337,0.8324727663931306,0.81268555,0.41112622363158596,0.42269018,-0.208748382195758,-0.18728375,0.4641221323522937,-0.015901508414936344,0.007369046812515018,-0.05069915380708595
0.3299999999999998,0.07139698003491388,0.06071022,0.8442046947274917,0.84741825,1.2132192024669648,1.2106223,0.310093171836779,0.28097352,-0.37509189739016724,-0.34946266,0.12618333763353318,0.12881334,0.26727120793543835,0.26788378,0.14778203986933564,0.14004612,0.04066756850885329,0.045661904,0.8264727663931306,0.838385,0.41212622363158596,0.41209897,-0.184748382195758,-0.20913616,0.9912145257298783,-0.01762577788926304,-0.012559235784570508,0.4763932395704986
0.3399999999999996,0.07539698003491388,0.06307011,0.8402046947274917,0.8405115,1.2152192024669648,1.2164626,0.329093171836779,0.30169314,-0.40009189739016726,-0.36780515,0.12818333763353318,0.13426813,0.27305054638431214,0.27358252,0.15043722976511115,0.14821246,0.04146908633102659,0.050691176,0.7974727663931307,0.83023965,0.426126223631586,0.41180032,-0.177748382195758,-0.18546656,0.6170022727352953,-0.011674759349551436,0.011900976315833853,0.10218098657591557
0.35000000000000026,0.07739698003491385,0.069469005,0.8362046947274917,0.8382023,1.2162192024669647,1.2210732,0.343093171836779,0.32648095,-0.4260918973901673,-0.39247432,0.12918333763353318,0.13535589,0.28158202340782834,0.27562702,0.15618402907972334,0.15816844,0.04011819753239867,0.054459516,0.7604727663931307,0.7915485,0.47812622363158597,0.4213422,-0.215748382195758,-0.17899111,0.17827487516147966,-0.010606627816782684,-0.005006019945705792,-0.3365464109979
0.36000000000000004,0.08039698003491386,0.07029275,0.8322046947274917,0.83440983,1.2172192024669648,1.2215705,0.361093171836779,0.34046847,-0.4540918973901672,-0.41845208,0.13118333763353318,0.13622183,0.29033971459331404,0.28543067,0.16154755104552262,0.16314855,0.04160115338148019,0.05265026,0.7294727663931306,0.7547494,0.453126223631586,0.47248566,-0.227748382195758,-0.21742576,0.17827487516147966,-0.010606627816782684,-0.005006019945705792,-0.3365464109979
0.36999999999999983,0.08439698003491386,0.0742265,0.8272046947274917,0.8316208,1.2182192024669647,1.2225184,0.379093171836779,0.35907844,-0.4820918973901672,-0.4478146,0.13418333763353318,0.13767713,0.29592689132762223,0.29557195,0.16460339017060752,0.16952646,0.039692709867070464,0.05597002,0.7264727663931306,0.7223918,0.493126223631586,0.4464137,-0.223748382195758,-0.22933501,0.11670472180830961,-0.012300379247315987,0.02673274559942277,-0.39811656435107007
0.3799999999999996,0.08839698003491386,0.075494975,0.8212046947274917,0.8242624,1.2232192024669648,1.2218539,0.398093171836779,0.3727732,-0.5120918973901672,-0.47328633,0.14918333763353317,0.14259836,0.3044850205842306,0.303093,0.17038282031621785,0.1676466,0.038470405226891165,0.05183583,0.6744727663931307,0.7253726,0.402126223631586,0.4891254,-0.229748382195758,-0.22608256,0.41857395199065495,-0.0005356733649630463,0.02281117697197179,-0.09624733416872472
0.3900000000000003,0.09139698003491387,0.08049992,0.8162046947274917,0.81975484,1.2222192024669647,1.2232468,0.414093171836779,0.38694566,-0.5420918973901672,-0.5073161,0.1401833376335332,0.15770867,0.31020236601377593,0.31430578,0.1762278098411509,0.17378975,0.03704987882569477,0.046659827,0.6134727663931306,0.67860013,0.378126223631586,0.40276092,-0.225748382195758,-0.23004566,0.8415387799451831,-0.011506910108687776,0.02026292031522349,0.3267174937858034
0.4000000000000001,0.09539698003491387,0.08569991,0.8102046947274917,0.8167312,1.2232192024669648,1.2260889,0.435093171836779,0.41070992,-0.5710918973901672,-0.5372389,0.1401833376335332,0.1472739,0.31603508261496194,0.31807324,0.178887438658557,0.18624152,0.0379971589662328,0.052213192,0.5504727663931307,0.604825,0.28812622363158596,0.36946157,-0.225748382195758,-0.22750768,0.10812915150236622,-0.006334101685707687,0.03326360697120884,-0.4066921346570134
0.40999999999999986,0.10039698003491387,0.0876177,0.8042046947274918,0.8090559,1.2232192024669648,1.2256323,0.458093171836779,0.42829177,-0.6030918973901672,-0.5632916,0.1411833376335332,0.15149829,0.3217648850780604,0.32698926,0.18474667598889008,0.18497966,0.03663558218325619,0.053124458,0.5034727663931307,0.54712707,0.262126223631586,0.28461987,-0.26674838219575797,-0.2259685,0.4229838093188002,-0.01883124061910206,0.019850926724012688,-0.09183747684057947
0.41999999999999965,0.10439698003491388,0.0930257,0.7982046947274918,0.80376375,1.2252192024669648,1.2247772,0.476093171836779,0.45069975,-0.6340918973901672,-0.5955292,0.14418333763353317,0.15261184,0.327363499706853,0.33425692,0.18785563003618647,0.19184415,0.0348399128422756,0.053510137,0.47847276639313063,0.4998707,0.28412622363158596,0.2580718,-0.245748382195758,-0.26672533,0.4229838093188002,-0.01883124061910206,0.019850926724012688,-0.09183747684057947
0.4300000000000003,0.10839698003491385,0.09723676,0.7912046947274918,0.8003606,1.2262192024669647,1.2249175,0.49509317183677903,0.4633952,-0.6670918973901672,-0.63123846,0.14418333763353317,0.15323512,0.3329636604246109,0.34010422,0.19097644773774733,0.19019924,0.033061456628205706,0.044744845,0.44347276639313066,0.4809741,0.29412622363158597,0.28696162,-0.26174838219575797,-0.2466316,0.9857212778470675,-0.012697113816630093,-0.002671389595511234,0.4708999916876878
0.4400000000000001,0.11539698003491386,0.1011467,0.7812046947274918,0.7938405,1.2282192024669647,1.2262976,0.521093171836779,0.48247525,-0.7080918973901672,-0.6638121,0.15018333763353317,0.15347764,0.3385655973269111,0.34639025,0.19410912073475625,0.19282347,0.03130028513491102,0.043878086,0.37947276639313066,0.44556722,0.18412622363158596,0.29704666,-0.237748382195758,-0.26246527,0.9857212778470675,-0.012697113816630093,-0.002671389595511234,0.4708999916876878
0.4499999999999999,0.12039698003491386,0.110915355,0.7732046947274918,0.7823309,1.2302192024669647,1.2261554,0.542093171836779,0.5135202,-0.7430918973901672,-0.7048735,0.15318333763353317,0.16056153,0.3413032062841643,0.35178575,0.1972937574134539,0.20638095,0.029276697357883883,0.053367745,0.30547276639313065,0.37055027,0.18912622363158596,0.17392898,-0.224748382195758,-0.23760326,0.15450131904642664,-0.009645309437290812,0.015639436680524477,-0.360319967112953
0.4599999999999997,0.12439698003491387,0.116250955,0.7682046947274918,0.7752329,1.2302192024669647,1.2268087,0.558093171836779,0.5339428,-0.7680918973901673,-0.74141586,0.15218333763353317,0.16353123,0.34430645589625875,0.35496098,0.20001220179957424,0.20920202,0.030047438854371538,0.052393142,0.22447276639313066,0.2966529,0.14012622363158594,0.17770159,-0.24974838219575798,-0.22507457,0.11394283884500755,0.03559769048641408,0.015944617118458404,-0.4008784473143721
0.47000000000000036,0.12939698003491387,0.117657065,0.7602046947274917,0.77318984,1.2322192024669647,1.2301722,0.580093171836779,0.54577136,-0.8030918973901672,-0.7596075,0.15618333763353318,0.16362631,0.34403810914697736,0.36215156,0.20048491339112506,0.19949722,0.027260990556098118,0.04590786,0.18747276639313065,0.22422789,0.14812622363158595,0.14501639,-0.230748382195758,-0.25012904,0.919298755530748,-0.005952626138290278,0.022216075118000632,0.4044774693713683
0.48000000000000015,0.13539698003491385,0.12310543,0.7532046947274917,0.766037,1.2332192024669648,1.2318435,0.6000931718367789,0.5681323,-0.8310918973901672,-0.7944125,0.15818333763353318,0.16747902,0.34677037757835133,0.36184493,0.20368255579349967,0.19890848,0.025253155263374755,0.043010384,0.13247276639313066,0.18670897,0.17712622363158595,0.15330765,-0.239748382195758,-0.23121293,0.919298755530748,-0.005952626138290278,0.022216075118000632,0.4044774693713683
0.48999999999999994,0.13539698003491385,0.13078117,0.7532046947274917,0.7580087,1.2332192024669648,1.2265482,0.6000931718367789,0.59142447,-0.8310918973901672,-0.83097076,0.15818333763353318,0.16766389,0.34677037757835133,0.36209458,0.20368255579349967,0.21288994,0.025253155263374755,0.050115455,0.13247276639313066,0.12267011,0.17712622363158595,0.1656743,-0.239748382195758,-0.23951668,0.0975393903060589,0.040327987274389965,0.023223170563182592,-0.41728189585332076
0.4999999999999997,0.15039698003491386,0.13078117,0.7292046947274917,0.7580087,1.2402192024669647,1.2265482,0.661093171836779,0.59142447,-0.9260918973901672,-0.83097076,0.18118333763353317,0.16766389,0.34963455125574316,0.36209458,0.2096456470068243,0.21288994,0.02375134230495305,0.050115455,0.04447276639313064,0.12267011,0.12212622363158596,0.1656743,-0.223748382195758,-0.23951668,0.0975393903060589,0.040327987274389965,0.023223170563182592,-0.41728189585332076
0.5100000000000003,0.15439698003491387,0.14520282,0.7242046947274917,0.73599696,1.2402192024669647,1.2343949,0.669093171836779,0.65215355,-0.9410918973901672,-0.92054045,0.17418333763353316,0.19204658,0.34935320391979713,0.36732936,0.21012582121746873,0.21156032,0.020962155615307055,0.043088127,-0.024527233606869356,0.03619936,0.01612622363158596,0.11840205,-0.24974838219575798,-0.22145934,0.4554244898711768,0.042693135668377916,0.04176288216766875,-0.05939679628820288
0.5200000000000001,0.15939698003491387,0.15107185,0.7162046947274917,0.732803,1.2412192024669646,1.2327038,0.688093171836779,0.66111207,-0.9660918973901672,-0.93684226,0.1731833376335332,0.18427165,0.34647974655465896,0.3644678,0.21015396168533793,0.21165329,0.020663279140913163,0.040597234,-0.08052723360686936,-0.03387059,-0.11987377636841404,0.013185744,-0.223748382195758,-0.24739271,0.4554244898711768,0.042693135668377916,0.04176288216766875,-0.05939679628820288
0.5299999999999999,0.16639698003491388,0.16055638,0.7062046947274917,0.7252005,1.2432192024669646,1.2323132,0.711093171836779,0.6803607,-1.0030918973901672,-0.96432215,0.17718333763353317,0.18334574,0.34619743683253834,0.36011755,0.21062985151024186,0.2140906,0.017873091700869755,0.041756347,-0.14652723360686934,-0.092220955,-0.05287377636841404,-0.12368124,-0.212748382195758,-0.2215846,0.41543059347993544,0.04305935219389863,-0.00956846749281802,-0.09939069267944423
0.5399999999999997,0.17239698003491388,0.17079741,0.6972046947274917,0.7163524,1.2452192024669646,1.2334034,0.7290931718367789,0.70316684,-1.0340918973901674,-1.0044909,0.18118333763353317,0.18728793,0.3429206787640571,0.35818774,0.20836421149713075,0.21444376,0.014295762975442437,0.045176603,-0.20952723360686934,-0.16010539,-0.04587377636841404,-0.062702246,-0.243748382195758,-0.21240802,0.16907368495777172,0.04072472184370408,-0.03689737570980131,-0.34574760120160797
0.5500000000000004,0.17939698003491386,0.16879551,0.6872046947274917,0.7099528,1.2462192024669647,1.2385017,0.7510931718367789,0.71897787,-1.0660918973901674,-1.0244244,0.18218333763353317,0.19107413,0.3397689740248518,0.3548595,0.20885011920757135,0.19993466,0.01120860603197575,0.028351333,-0.21952723360686935,-0.21214645,-0.10287377636841404,-0.03885861,-0.196748382195758,-0.24207437,0.887682062160793,0.03553665439882729,0.02168200935161626,0.3728607760014133
0.5600000000000002,0.18639698003491387,0.1853578,0.6762046947274918,0.6982528,1.2482192024669647,1.2362716,0.772093171836779,0.7439203,-1.1000918973901672,-1.0673751,0.18818333763353318,0.19067651,0.3368979792241715,0.35082957,0.20886457980393738,0.21085832,0.01091184097522303,0.03571778,-0.25052723360686935,-0.23200804,-0.16487377636841405,-0.11121905,-0.217748382195758,-0.19669995,0.21245508421007966,0.03663530397538944,0.05583170035642285,-0.3023662019493
0.57,0.19339698003491387,0.19365056,0.6652046947274918,0.687913,1.2482192024669647,1.2374998,0.795093171836779,0.76519394,-1.1360918973901672,-1.1017914,0.18818333763353318,0.19591339,0.33374616245374766,0.346443,0.20933752560055743,0.2121999,0.00782243521754212,0.036292866,-0.26352723360686936,-0.2636117,-0.15787377636841404,-0.17295703,-0.199748382195758,-0.21812452,0.2041846943420702,0.04217432892389024,0.03687999516072589,-0.31063659181730946
0.5799999999999997,0.20139698003491385,0.19264194,0.6532046947274918,0.6778023,1.2502192024669647,1.2400855,0.818093171836779,0.7856521,-1.1720918973901673,-1.1280881,0.19418333763353318,0.1964779,0.3304919883669617,0.3417378,0.20703790653579018,0.19935673,0.0042652837658406295,0.021300673,-0.30152723360686934,-0.26627508,-0.16687377636841405,-0.15023042,-0.196748382195758,-0.1981797,0.9287288310629065,0.05702135722937585,0.03271428218292777,0.41390754490352677
0.5900000000000004,0.20939698003491386,0.20097306,0.6422046947274918,0.6661064,1.2532192024669646,1.2416602,0.8420931718367789,0.8091144,-1.2010918973901674,-1.1644268,0.20918333763353317,0.20194949,0.32762374503234637,0.3375252,0.20704264237030237,0.19697145,0.003971423590587802,0.017809669,-0.38352723360686936,-0.30459392,-0.18987377636841404,-0.15978324,-0.189748382195758,-0.19526903,0.9287288310629065,0.05702135722937585,0.03271428218292777,0.41390754490352677
0.6000000000000002,0.20939698003491386,0.21811028,0.6422046947274918,0.65559906,1.2532192024669646,1.241246,0.8420931718367789,0.8353414,-1.2010918973901674,-1.2044692,0.20918333763353317,0.2143319,0.32762374503234637,0.33629185,0.20704264237030237,0.20533095,0.003971423590587802,0.030088583,-0.38352723360686936,-0.3968573,-0.18987377636841404,-0.19743769,-0.189748382195758,-0.1899203,0.16100166237441932,-0.001420696634971439,0.02815183463581554,-0.35381962378496035
0.61,0.22639698003491388,0.21811028,0.6162046947274917,0.65559906,1.2632192024669646,1.241246,0.8880931718367789,0.8353414,-1.2730918973901673,-1.2044692,0.2581833376335332,0.2143319,0.3186516257701186,0.33629185,0.2047264597647947,0.20533095,-0.0001532976884665027,0.030088583,-0.44852723360686936,-0.3968573,-0.262873776368414,-0.19743769,-0.163748382195758,-0.1899203,0.16100166237441932,-0.001420696634971439,0.02815183463581554,-0.35381962378496035
0.6199999999999998,0.23439698003491385,0.23286939,0.6042046947274917,0.6299574,1.2642192024669647,1.252888,0.908093171836779,0.88138664,-1.3030918973901673,-1.2732978,0.2551833376335332,0.2656007,0.31283605387272906,0.32629788,0.20195599535466785,0.20141244,-0.0011729577495696785,0.022338042,-0.48152723360686933,-0.4601107,-0.33387377636841403,-0.26816556,-0.150748382195758,-0.16308555,0.3660981756879159,0.0036605576566284687,-0.005082315055189274,-0.14872311047146375
0.6299999999999996,0.24339698003491386,0.23803553,0.5902046947274917,0.6186271,1.2662192024669647,1.2528726,0.931093171836779,0.9015578,-1.3380918973901674,-1.2996701,0.2631833376335332,0.26015693,0.30702968693481675,0.3150435,0.19918190859613794,0.19407415,-0.002175531913086722,0.014627912,-0.5525272336068694,-0.4878954,-0.423873776368414,-0.32981935,-0.191748382195758,-0.14856942,0.8017127327948055,0.004347213641979809,0.021514160110752592,0.28689144663542576
0.6400000000000002,0.25239698003491384,0.24752682,0.5772046947274917,0.6053096,1.2682192024669647,1.2534406,0.953093171836779,0.92505056,-1.3670918973901673,-1.3347019,0.2661833376335332,0.26689932,0.3009659884196636,0.30883327,0.19681816320751633,0.19201468,-0.005955977817738883,0.013809667,-0.6355272336068694,-0.5585335,-0.428873776368414,-0.41846883,-0.171748382195758,-0.1892071,0.8017127327948055,0.004347213641979809,0.021514160110752592,0.28689144663542576
0.65,0.25239698003491384,0.25801685,0.5772046947274917,0.5927191,1.2682192024669647,1.2552793,0.953093171836779,0.9476598,-1.3670918973901673,-1.364884,0.2661833376335332,0.27011806,0.3009659884196636,0.30521566,0.19681816320751633,0.19118308,-0.005955977817738883,0.011891121,-0.6355272336068694,-0.64284575,-0.428873776368414,-0.42646137,-0.171748382195758,-0.16998519,0.6606278163379503,0.007337981933732307,0.0466305101527149,0.1458065301785706
0.6599999999999998,0.26039698003491385,0.25801685,0.5642046947274917,0.5927191,1.2742192024669647,1.2552793,0.9710931718367789,0.9476598,-1.3970918973901674,-1.364884,0.28918333763353316,0.27011806,0.29511260561390673,0.30521566,0.19125965912915746,0.19118308,-0.0073365261981420075,0.011891121,-0.6935272336068693,-0.64284575,-0.382873776368414,-0.42646137,-0.151748382195758,-0.16998519,0.6606278163379503,0.007337981933732307,0.0466305101527149,0.1458065301785706
0.6699999999999996,0.28439698003491387,0.26348776,0.5282046947274918,0.5802646,1.2792192024669646,1.2601264,1.023093171836779,0.9646535,-1.4730918973901674,-1.3933287,0.29318333763353316,0.29200205,0.28047439527911977,0.29918423,0.18604148646223448,0.18311341,-0.012262437624000014,0.0076523246,-0.7615272336068694,-0.6983489,-0.504873776368414,-0.37708387,-0.143748382195758,-0.14896984,0.8520064689663168,0.006056224094409805,0.04934661605032687,0.3371851828069371
0.6799999999999994,0.2913969800349139,0.28832334,0.5182046947274918,0.54368186,1.2812192024669646,1.2646282,1.030093171836779,1.0173368,-1.4840918973901673,-1.4703766,0.29318333763353316,0.2942192,0.27158318156321076,0.2813226,0.1808140938049393,0.17838116,-0.016597288105164035,0.0012361687,-0.8295272336068693,-0.7673963,-0.499873776368414,-0.4972107,-0.144748382195758,-0.14115712,0.8738726473442828,0.011045924254629537,0.009535827921845902,0.3590513611849031
0.6899999999999992,0.3003969800349139,0.3044507,0.5052046947274917,0.5322952,1.2832192024669646,1.2680217,1.0450931718367789,1.0221388,-1.5040918973901674,-1.489277,0.29718333763353316,0.2907408,0.2629691982719331,0.2763042,0.17519339517021554,0.17213334,-0.01808671025556559,0.0053546475,-0.8975272336068694,-0.840735,-0.5488737763684141,-0.50043374,-0.12574838219575799,-0.1435519,0.07635986791344428,-0.4766781926294782,0.051376065962587494,-0.4384614182459354
0.7000000000000007,0.3113969800349139,0.31377313,0.48820469472749173,0.51894206,1.2862192024669648,1.2702589,1.0650931718367789,1.0370183,-1.5340918973901674,-1.5088476,0.30418333763353317,0.29474875,0.25130886219499354,0.26748013,0.16988249946023135,0.16669612,-0.02255828304091449,0.00379358,-1.0115272336068695,-0.9081168,-0.585873776368414,-0.54897255,-0.09174838219575798,-0.12382099,0.07635986791344428,-0.4766781926294782,0.051376065962587494,-0.4384614182459354
0.7100000000000005,0.32039698003491385,0.31962642,0.4752046947274917,0.5024705,1.2892192024669646,1.2727153,1.0750931718367789,1.0580103,-1.5500918973901674,-1.5313326,0.3101833376335332,0.30441046,0.23991733968596624,0.2543104,0.16419895435094395,0.16075824,-0.024169097326516304,-0.007830963,-1.0475272336068695,-1.0188643,-0.619873776368414,-0.5827285,-0.05174838219575799,-0.08927527,0.5440946661128797,-0.18639056006672547,0.03758191016797393,0.02927337995349999
0.7200000000000003,0.33239698003491386,0.32932532,0.4572046947274917,0.48871645,1.2932192024669646,1.2756536,1.094093171836779,1.0679109,-1.5780918973901674,-1.5472494,0.3171833376335332,0.3104265,0.22854182220673522,0.24213785,0.15572799100616844,0.15443233,-0.0260267923300848,-0.009802754,-1.0125272336068694,-1.0546895,-0.662873776368414,-0.6164873,-0.06174838219575799,-0.049231086,0.5440946661128797,-0.18639056006672547,0.03758191016797393,0.02927337995349999
0.7300000000000001,0.34739698003491387,0.34195548,0.4352046947274917,0.47034916,1.2982192024669648,1.2801253,1.128093171836779,1.0870198,-1.6260918973901672,-1.5755029,0.3351833376335332,0.31718436,0.22025549496892682,0.2299203,0.15253571982725864,0.14698982,-0.024186025728640117,-0.011787457,-1.0195272336068695,-1.0197129,-0.707873776368414,-0.6595658,-0.075748382195758,-0.05947222,0.5440946661128797,-0.18639056006672547,0.03758191016797393,0.02927337995349999
0.7399999999999999,0.3543969800349139,0.352273,0.4252046947274918,0.44823188,1.3002192024669648,1.2837342,1.126093171836779,1.1228846,-1.6170918973901673,-1.6215774,0.3351833376335332,0.33321607,0.20610441801028392,0.2170283,0.14124552949349803,0.1441461,-0.026375769119806648,-0.013244939,-1.0565272336068694,-1.0242379,-0.721873776368414,-0.6998137,-0.10174838219575799,-0.07350674,0.8540206598566807,-0.05842840244102927,0.03880263191970964,0.339199373697301
0.7499999999999997,0.3653969800349139,0.35904416,0.40820469472749177,0.4386427,1.3042192024669648,1.2855237,1.141093171836779,1.1209959,-1.6380918973901673,-1.6121349,0.3431833376335332,0.3326639,0.1948247185538975,0.20204467,0.13553557355252263,0.13269448,-0.02769284527668883,-0.01620701,-1.1275272336068694,-1.0610361,-0.690873776368414,-0.7136586,-0.082748382195758,-0.099012166,0.8540206598566807,-0.05842840244102927,0.03880263191970964,0.339199373697301
0.7599999999999995,0.38139698003491385,0.37420005,0.4142046947274918,0.42024186,1.3152192024669647,1.2923238,1.177093171836779,1.1339986,-1.5690918973901673,-1.63616,0.3821833376335332,0.34258825,0.1767134063096072,0.19648325,0.12751813273449022,0.12413312,-0.00435348022864739,-0.013051301,-1.1915272336068694,-1.1346431,-0.734873776368414,-0.6897429,-0.05574838219575799,-0.07796391,0.3536468138202116,-0.014161979918712951,0.013793095031024202,-0.16117447233916804
0.7699999999999992,0.39439698003491386,0.3835876,0.40820469472749177,0.42880213,1.3222192024669648,1.2997857,1.199093171836779,1.172723,-1.5490918973901673,-1.5628643,0.4011833376335332,0.3789691,0.16043252294087226,0.17126952,0.11824723074638951,0.119065404,0.005088503663315604,0.0036693073,-1.1735272336068694,-1.1940655,-0.782873776368414,-0.72430503,-0.21974838219575799,-0.051664334,0.9650758212208373,0.008848625101505251,0.03517098470829589,0.45025453506145763
0.7800000000000008,0.39439698003491386,0.40284157,0.40820469472749177,0.4216006,1.3222192024669648,1.3115717,1.199093171836779,1.1934841,-1.5490918973901673,-1.5495342,0.4011833376335332,0.39904228,0.16043252294087226,0.1605464,0.11824723074638951,0.10870994,0.005088503663315604,0.02180178,-1.1735272336068694,-1.1807462,-0.782873776368414,-0.782828,-0.21974838219575799,-0.21446036,0.07651245813241124,0.006330886488550343,0.0445095061090741,-0.4383088280269684
0.7900000000000006,0.40739698003491387,0.40284157,0.39720469472749176,0.4216006,1.3262192024669648,1.3115717,1.213093171836779,1.1934841,-1.5480918973901674,-1.5495342,0.4041833376335332,0.39904228,0.14645567110312607,0.1605464,0.10972707758458553,0.10870994,0.0064493099192807655,0.02180178,-1.0995272336068695,-1.1807462,-0.853873776368414,-0.782828,-0.26474838219575797,-0.21446036,0.07651245813241124,0.006330886488550343,0.0445095061090741,-0.4383088280269684
0.8000000000000004,0.4433969800349139,0.4150177,0.3522046947274917,0.41165617,1.3392192024669647,1.3152442,1.247093171836779,1.2080563,-1.5800918973901674,-1.5464585,0.42418333763353316,0.40189427,0.11798486965659687,0.14430302,0.08506836871417818,0.10357276,-0.0021246763835912966,0.019055797,-0.44252723360686935,-1.1055198,-0.874873776368414,-0.8525895,-0.15674838219575798,-0.26054946,0.2801135873000316,0.002363540795409274,0.06416312631201909,-0.23470769885934806
0.8100000000000002,0.4433969800349139,0.45224136,0.3522046947274917,0.36269823,1.3392192024669647,1.3310473,1.247093171836779,1.2429107,-1.5800918973901674,-1.5811164,0.42418333763353316,0.42225528,0.11798486965659687,0.11249881,0.08506836871417818,0.079758495,-0.0021246763835912966,0.012096891,-0.44252723360686935,-0.446688,-0.874873776368414,-0.87221587,-0.15674838219575798,-0.15797396,0.7465055915725578,0.004377731685773201,0.07191470943554087,0.23168430541317808
0.82,0.4473969800349139,0.45224136,0.3452046947274918,0.36269823,1.3392192024669647,1.3310473,1.2040931718367789,1.2429107,-1.5300918973901674,-1.5811164,0.3931833376335332,0.42225528,0.10675833301253383,0.11249881,0.0711349742112988,0.079758495,-0.0033294629897044617,0.012096891,-0.3425272336068694,-0.446688,-0.966873776368414,-0.87221587,-0.133748382195758,-0.15797396,0.7465055915725578,0.004377731685773201,0.07191470943554087,0.23168430541317808
0.8299999999999997,0.45639698003491386,0.45741564,0.3332046947274918,0.353914,1.3432192024669647,1.3333114,1.1960931718367789,1.1997441,-1.5250918973901673,-1.5326285,0.3911833376335332,0.39214247,0.10107172656144213,0.100517,0.06012954248986375,0.06527848,-0.006867917250140289,0.010985149,-0.31452723360686935,-0.34712294,-0.950873776368414,-0.9655363,-0.08874838219575798,-0.1356022,0.6576980841337846,0.002775534386620076,0.1191261231839196,0.1428767979744049
0.8399999999999995,0.46639698003491387,0.46669734,0.3172046947274918,0.34103715,1.3462192024669648,1.3378412,1.1960931718367789,1.1912248,-1.5330918973901673,-1.5273337,0.3891833376335332,0.3908367,0.09821524443153336,0.09552004,0.051904622655891096,0.054148227,-0.010140438144319305,0.0077667567,-0.36452723360686934,-0.31924617,-0.948873776368414,-0.9492326,-0.10174838219575799,-0.090414874,0.6860493468178466,0.005293272999574987,0.05728130743660901,0.17122806065846685
0.8499999999999993,0.4783969800349139,0.47779897,0.3022046947274917,0.32588917,1.3502192024669648,1.3405094,1.2020931718367789,1.1903733,-1.5420918973901674,-1.5361117,0.3901833376335332,0.38870022,0.09545818414025738,0.09261499,0.04075748429618501,0.050801266,-0.010734758895986062,0.0053318767,-0.4085272336068693,-0.3712444,-0.853873776368414,-0.95058006,-0.09174838219575798,-0.10354122,0.46807421902353813,0.001280150240743825,0.05082674117430642,-0.046747067135841536
0.8599999999999991,0.48839698003491383,0.48868012,0.28520469472749177,0.31297106,1.3522192024669648,1.34461,1.2020931718367789,1.1953667,-1.5540918973901674,-1.5478071,0.3871833376335332,0.3882196,0.08986514307821361,0.09436907,0.0325008350128963,0.04066669,-0.014000405684859595,0.006586959,-0.45152723360686936,-0.4169442,-0.733873776368414,-0.8608115,-0.032748382195757986,-0.0930566,0.1410886387992305,0.00979468445910043,0.04316671218216482,-0.37373264736014916
0.8700000000000007,0.5003969800349138,0.49961275,0.26920469472749176,0.29537767,1.3562192024669648,1.3460243,1.2060931718367789,1.1950332,-1.5620918973901674,-1.5585457,0.3891833376335332,0.38671723,0.08712505484806234,0.08957705,0.024131416440789335,0.031948846,-0.014402882731081281,0.0031897204,-0.49852723360686935,-0.4602566,-0.656873776368414,-0.73994833,-0.01474838219575799,-0.034154076,0.22841602111402412,0.008680775860641591,0.034270702416390804,-0.2864052650453556
0.8800000000000004,0.5113969800349139,0.51006013,0.25220469472749163,0.27987638,1.3612192024669647,1.3502132,1.2060931718367789,1.1989349,-1.5780918973901674,-1.5663444,0.3961833376335332,0.38759324,0.08158293309525619,0.08867583,0.018524357345686845,0.023120489,-0.014692616014180938,0.0029702957,-0.5215272336068694,-0.50684226,-0.642873776368414,-0.6646684,-0.042748382195757995,-0.016390143,0.12628738755943497,0.0073684999775257,0.051757541510004904,-0.3885338985999447
0.8900000000000002,0.5233969800349139,0.52039915,0.23620469472749184,0.26290345,1.3652192024669647,1.3551342,1.208093171836779,1.1989527,-1.5850918973901673,-1.5820457,0.3971833376335332,0.394187,0.07604416413256608,0.08310513,0.012916124817472074,0.01718749,-0.014951868820363404,0.0025222984,-0.6005272336068693,-0.52959365,-0.646873776368414,-0.65063274,-0.03974838219575799,-0.044164084,0.12628738755943497,0.0073684999775257,0.051757541510004904,-0.3885338985999447
0.9,0.5233969800349139,0.5322579,0.23620469472749184,0.24681611,1.3652192024669647,1.3588519,1.208093171836779,1.2011135,-1.5850918973901673,-1.58866,0.3971833376335332,0.39486283,0.07604416413256608,0.077320814,0.012916124817472074,0.010959295,-0.014951868820363404,0.0015510041,-0.6005272336068693,-0.6083002,-0.646873776368414,-0.65384877,-0.03974838219575799,-0.04058225,0.12628738755943497,0.0073684999775257,0.051757541510004904,-0.3885338985999447
0.9099999999999998,0.5343969800349139,0.5322579,0.2172046947274917,0.24681611,1.3672192024669647,1.3588519,1.2060931718367789,1.2011135,-1.6020918973901672,-1.58866,0.3921833376335332,0.39486283,0.0733103504085027,0.077320814,0.004644573514295482,0.010959295,-0.018055456889178405,0.0015510041,-0.6715272336068694,-0.6083002,-0.643873776368414,-0.65384877,-0.06074838219575799,-0.04058225,0.12628738755943497,0.0073684999775257,0.051757541510004904,-0.3885338985999447
0.9199999999999996,0.6043969800349138,0.5449794,0.11620469472749173,0.22670837,1.3902192024669646,1.3593085,1.1980931718367789,1.1988873,-1.6400918973901673,-1.6032966,0.3991833376335332,0.39124766,0.020752530863480043,0.07228591,-0.037612542764940096,0.0022972326,-0.0186003033175792,-0.0031946606,-1.1635272336068694,-0.6792995,-0.713873776368414,-0.6476371,-0.00974838219575799,-0.060913593,0.332619881646564,0.00872655292633168,0.027144739190633572,-0.1822014045128157
0.9299999999999994,0.6043969800349138,0.61293787,0.11620469472749173,0.12604749,1.3902192024669646,1.3808157,1.1980931718367789,1.1908028,-1.6400918973901673,-1.6383103,0.3991833376335332,0.39584494,0.020752530863480043,0.018193234,-0.037612542764940096,-0.043709762,-0.0186003033175792,-0.007892326,-1.1635272336068694,-1.168178,-0.713873776368414,-0.7141773,-0.00974838219575799,-0.006576563,0.332619881646564,0.00872655292633168,0.027144739190633572,-0.1822014045128157
0.9399999999999992,0.6273969800349138,0.61293787,0.08320469472749181,0.12604749,1.3902192024669646,1.3808157,1.1920931718367789,1.1908028,-1.6400918973901673,-1.6383103,0.3391833376335332,0.39584494,-0.0013769045644923736,0.018193234,-0.048960233530239296,-0.043709762,-0.02096903942725277,-0.007892326,-1.2195272336068694,-1.168178,-0.6788737763684141,-0.7141773,0.02425161780424201,-0.006576563,0.332619881646564,0.00872655292633168,0.027144739190633572,-0.1822014045128157
0.9500000000000007,0.6383969800349139,0.6327098,0.06620469472749169,0.09430129,1.3942192024669646,1.377424,1.1880931718367789,1.1865404,-1.6400918973901673,-1.6352731,0.3371833376335332,0.33506814,-0.012548584166834896,-0.00964617,-0.05462970902876424,-0.05762355,-0.017878802029274363,-0.013249146,-1.2565272336068694,-1.2211987,-0.711873776368414,-0.6738431,0.027251617804242012,0.026519712,0.8350384366171905,0.008329818357017573,0.039977576605755266,0.32021715045781074
0.9600000000000005,0.6383969800349139,0.64460766,0.06620469472749169,0.07689682,1.3942192024669646,1.3817711,1.1880931718367789,1.1824206,-1.6400918973901673,-1.6355515,0.3371833376335332,0.33288965,-0.012548584166834896,-0.019848151,-0.05462970902876424,-0.06394878,-0.017878802029274363,-0.0100363055,-1.2565272336068694,-1.2585776,-0.711873776368414,-0.7073293,0.027251617804242012,0.029310182,0.7776950323294053,0.004515062882843469,0.059890600180944095,0.26287374617002557
0.9700000000000003,0.6503969800349139,0.64460766,0.04920469472749178,0.07689682,1.3972192024669647,1.3817711,1.183093171836779,1.1824206,-1.6380918973901673,-1.6355515,0.3371833376335332,0.33288965,-0.026425863779842445,-0.019848151,-0.06310978157518442,-0.06394878,-0.01739697953942556,-0.0100363055,-1.2645272336068694,-1.2585776,-0.719873776368414,-0.7073293,0.0012516178042420098,0.029310182,0.7776950323294053,0.004515062882843469,0.059890600180944095,0.26287374617002557
0.9800000000000001,0.6623969800349139,0.65855044,0.03320469472749177,0.05936841,1.4012192024669647,1.3866593,1.177093171836779,1.176645,-1.6340918973901672,-1.6346563,0.3371833376335332,0.33273658,-0.040335278803491526,-0.03214689,-0.06879935461746688,-0.07249989,-0.016853380536959953,-0.008953653,-1.3015272336068695,-1.2687259,-0.697873776368414,-0.71778595,0.008251617804242009,0.004007493,0.5397000678066312,0.006178296269583376,0.03358404643103947,0.024878781647251436
0.9899999999999999,0.6733969800349139,0.6711604,0.016204694727491642,0.04269421,1.3992192024669647,1.3930327,1.1720931718367789,1.170105,-1.6300918973901672,-1.63223,0.30318333763353317,0.3320793,-0.05144644033900458,-0.043358058,-0.07724951851193887,-0.075719446,-0.01626569344665621,-0.0069851032,-1.2895272336068695,-1.3056455,-0.697873776368414,-0.6976249,0.04325161780424201,0.011732149,0.2577896382651647,0.008970697276678824,0.024291302095951345,-0.25703164789421495
0.9999999999999997,0.6963969800349139,0.67962414,-0.016795305272508276,0.026694883,1.4062192024669646,1.3873118,1.1580931718367788,1.1665212,-1.6170918973901673,-1.6258554,0.30618333763353317,0.29844823,-0.07652072840686278,-0.059639033,-0.0913719474931085,-0.08649021,-0.014785342696692324,-0.009035276,-1.2825272336068694,-1.2912283,-0.764873776368414,-0.69334936,0.04725161780424201,0.04564833,0.787506583408981,0.006391922576137129,0.043609223817169016,0.27268529724960133
1.0099999999999996,0.6963969800349139,0.7049227,-0.016795305272508276,-0.007213923,1.4062192024669646,1.3954246,1.1580931718367788,1.1520762,-1.6170918973901673,-1.6137005,0.30618333763353317,0.30131295,-0.07652072840686278,-0.08385769,-0.0913719474931085,-0.10081678,-0.014785342696692324,-0.006755186,-1.2825272336068694,-1.2852772,-0.764873776368414,-0.761329,0.04725161780424201,0.049047336,0.6562026999879084,0.006803916167347931,0.06657405177169713,0.14138141382852865
1.0199999999999994,0.7073969800349139,0.7049227,-0.03279530527250829,-0.007213923,1.4092192024669647,1.3954246,1.149093171836779,1.1520762,-1.6070918973901673,-1.6137005,0.3091833376335332,0.30131295,-0.09061825510835066,-0.08385769,-0.09691652642519788,-0.10081678,-0.01111485503762901,-0.006755186,-1.3145272336068694,-1.2852772,-0.755873776368414,-0.761329,0.004251617804242009,0.049047336,0.6562026999879084,0.006803916167347931,0.06657405177169713,0.14138141382852865
1.030000000000001,0.7073969800349139,0.71713763,-0.03279530527250829,-0.023798086,1.4092192024669647,1.4030166,1.149093171836779,1.1427162,-1.6070918973901673,-1.6071539,0.3091833376335332,0.30168653,-0.09061825510835066,-0.092846036,-0.09691652642519788,-0.10275502,-0.01111485503762901,-0.0002859729,-1.3145272336068694,-1.31871,-0.755873776368414,-0.7559992,0.004251617804242009,0.006761145,0.10959401760444908,-0.03247280619474866,0.0705566564867349,-0.4052272685549306
1.0400000000000007,0.7323969800349138,0.71713763,-0.08679530527250834,-0.023798086,1.4302192024669647,1.4030166,1.143093171836779,1.1427162,-1.7060918973901673,-1.6071539,0.41518333763353316,0.30168653,-0.10757546621156858,-0.092846036,-0.11356879800504094,-0.10275502,-0.006632634657944881,-0.0002859729,-1.3405272336068694,-1.31871,-0.669873776368414,-0.7559992,0.003251617804242008,0.006761145,0.10959401760444908,-0.03247280619474866,0.0705566564867349,-0.4052272685549306
1.0500000000000005,0.7323969800349138,0.7356034,-0.08679530527250834,-0.07514395,1.4302192024669647,1.4188999,1.143093171836779,1.1382614,-1.7060918973901673,-1.7012122,0.41518333763353316,0.4103446,-0.10757546621156858,-0.116058595,-0.11356879800504094,-0.12355802,-0.006632634657944881,0.0010236722,-1.3405272336068694,-1.3390303,-0.669873776368414,-0.66407543,0.003251617804242008,0.0073870653,0.9253565872237365,0.005369568109058469,0.054534683495203656,0.41053530106435676
1.0600000000000003,0.7323969800349138,0.7356034,-0.08679530527250834,-0.07514395,1.4302192024669647,1.4188999,1.143093171836779,1.1382614,-1.7060918973901673,-1.7012122,0.41518333763353316,0.4103446,-0.10757546621156858,-0.116058595,-0.11356879800504094,-0.12355802,-0.006632634657944881,0.0010236722,-1.3405272336068694,-1.3390303,-0.669873776368414,-0.66407543,0.003251617804242008,0.0073870653,0.9253565872237365,0.005369568109058469,0.054534683495203656,0.41053530106435676
1.07,0.7433969800349138,0.7356034,-0.10379530527250824,-0.07514395,1.4342192024669647,1.4188999,1.132093171836779,1.1382614,-1.6940918973901673,-1.7012122,0.41718333763353316,0.4103446,-0.1188069167919549,-0.116058595,-0.11917244697855055,-0.12355802,-0.0056757344858580985,0.0010236722,-1.4015272336068694,-1.3390303,-0.6758737763684141,-0.66407543,-0.0027483821957579903,0.0073870653,0.9253565872237365,0.005369568109058469,0.054534683495203656,0.41053530106435676
1.0799999999999998,0.7433969800349138,0.7508,-0.10379530527250824,-0.09416306,1.4342192024669647,1.4271133,1.132093171836779,1.1255016,-1.6940918973901673,-1.6919966,0.41718333763353316,0.41060984,-0.1188069167919549,-0.121069536,-0.11917244697855055,-0.12817891,-0.0056757344858580985,0.004156833,-1.4015272336068694,-1.4040539,-0.6758737763684141,-0.67532825,-0.0027483821957579903,0.0015861699,0.2898793613139173,0.0034011542843846304,0.02947936954082813,-0.22494192484546238
1.0899999999999996,0.7543969800349138,0.7508,-0.12079530527250837,-0.09416306,1.4382192024669647,1.4271133,1.121093171836779,1.1255016,-1.6810918973901674,-1.6919966,0.41818333763353316,0.41060984,-0.13549551030761398,-0.121069536,-0.12496656313942082,-0.12817891,-0.007104010322932658,0.004156833,-1.5545272336068694,-1.4040539,-0.625873776368414,-0.67532825,0.019251617804242012,0.0015861699,0.2898793613139173,0.0034011542843846304,0.02947936954082813,-0.22494192484546238
1.0999999999999994,0.7623969800349139,0.75651705,-0.13779530527250827,-0.108119324,1.4482192024669647,1.4281957,1.097093171836779,1.116155,-1.6670918973901674,-1.67605,0.4541833376335332,0.41270262,-0.1495884395331178,-0.14175911,-0.1333609037885494,-0.13589808,-0.005616560908194397,0.0022654948,-1.7055272336068694,-1.5532696,-0.5618737763684141,-0.6205137,0.006251617804242011,0.025140615,0.8611008460167479,0.0062545913790668616,0.04946868822550044,0.34627955985736814
1.1099999999999992,0.7713969800349139,0.76600444,-0.1537953052725083,-0.12569131,1.4542192024669647,1.4404991,1.0790931718367789,1.0917382,-1.6470918973901674,-1.6631167,0.4541833376335332,0.44718263,-0.16912638525928367,-0.15191503,-0.13920036402721891,-0.14561112,-0.006643986868682807,0.0041151647,-1.8155272336068695,-1.7065488,-0.600873776368414,-0.55858594,0.015251617804242008,0.0125454515,0.5256770266835672,0.00514068278060802,0.06900023625327185,0.010855740524187474
1.1200000000000008,0.7813969800349139,0.7737529,-0.1697953052725083,-0.14007433,1.4592192024669648,1.4465524,1.0630931718367789,1.0746113,-1.6280918973901672,-1.6422158,0.4501833376335332,0.44713348,-0.1887189663702222,-0.17419025,-0.14785371917561163,-0.15051304,-0.007296177631685182,0.004495842,-1.8505272336068694,-1.8151056,-0.590873776368414,-0.595794,0.01025161780424201,0.021161202,0.7306667268437869,0.00634614551044704,0.06315603086683713,0.21584544068440714
1.1300000000000006,0.7903969800349139,0.78739953,-0.1847953052725082,-0.15864621,1.4632192024669648,1.4526045,1.050093171836779,1.0586524,-1.6070918973901673,-1.625601,0.4431833376335332,0.44144157,-0.20570468527838615,-0.18824296,-0.15346170704181678,-0.1594401,-0.00548702078478181,0.0036617524,-1.8045272336068694,-1.8527079,-0.521873776368414,-0.5881399,0.01725161780424201,0.016142055,0.28078498426348625,0.008421372488397751,0.06385794587408516,-0.23403630189589342
1.1400000000000003,0.8003969800349139,0.7980319,-0.19979530527250833,-0.17489043,1.4672192024669648,1.4575568,1.0350931718367788,1.0471121,-1.5850918973901673,-1.60625,0.43218333763353317,0.43198255,-0.22550953176503652,-0.2064362,-0.15627671021774248,-0.16126904,-0.0036708732482234854,0.00596713,-1.7365272336068696,-1.8085053,-0.538873776368414,-0.520207,0.020251617804242013,0.021524278,0.00430676651724377,0.006605548882690878,0.10066270668891694,-0.5105145196421359
1.1500000000000001,0.8103969800349139,0.80264646,-0.21379530527250834,-0.18657771,1.4712192024669648,1.459306,1.022093171836779,1.0303154,-1.5600918973901674,-1.580789,0.42418333763353316,0.4251984,-0.24235066033945285,-0.23097537,-0.1621773662719389,-0.16586687,-0.00447372813711226,0.0064933305,-1.6205272336068695,-1.7348046,-0.520873776368414,-0.53298396,0.00525161780424201,0.026187448,0.7571411298345552,0.007627903349769538,0.08871489254380363,0.24231984367517545
1.16,0.8193969800349138,0.8126971,-0.22779530527250835,-0.20111977,1.4742192024669647,1.4630678,1.008093171836779,1.0168931,-1.5350918973901673,-1.5560501,0.40918333763353315,0.41762412,-0.25944964687732647,-0.24802743,-0.16774633011600631,-0.17127259,-0.002385516508327891,0.0046769194,-1.5045272336068694,-1.6183678,-0.512873776368414,-0.51501054,0.00525161780424201,0.011397051,0.7571411298345552,0.007627903349769538,0.08871489254380363,0.24231984367517545
1.1699999999999997,0.8293969800349138,0.8232459,-0.24379530527250837,-0.21636698,1.4782192024669647,1.4666358,0.9940931718367789,1.0024427,-1.5110918973901672,-1.5315864,0.3961833376335332,0.40243727,-0.2765949540394867,-0.26431122,-0.17329223206226912,-0.17685744,-0.00019829298839017632,0.0047404845,-1.3945272336068695,-1.5029856,-0.46487377636841404,-0.50832945,0.0012516178042420098,0.010704096,0.6324749209385454,0.00787204770011668,0.08810453166793578,0.11765363477916568
1.1799999999999995,0.8323969800349138,0.8336005,-0.24879530527250826,-0.2329412,1.4822192024669647,1.470727,0.9660931718367789,0.9881735,-1.4600918973901673,-1.5080864,0.3811833376335332,0.38988122,-0.2933036186105933,-0.2822532,-0.1796209504272554,-0.18195485,-0.0034869375503526197,0.005794157,-1.2715272336068695,-1.3925735,-0.452873776368414,-0.4611182,-0.01474838219575799,0.0063839573,0.6324749209385454,0.00787204770011668,0.08810453166793578,0.11765363477916568
1.1899999999999993,0.8423969800349138,0.83898526,-0.2627953052725083,-0.24013779,1.4862192024669647,1.4769552,0.951093171836779,0.9610544,-1.4330918973901674,-1.45899,0.36718333763353317,0.3731974,-0.30768620023691484,-0.2961504,-0.18516388895504138,-0.18742546,-0.0013588215525189992,0.00534111,-1.1335272336068694,-1.2728448,-0.45787377636841403,-0.45305762,0.008251617804242009,-0.010594605,0.24649796206160937,0.007200650736662036,0.06451408381564311,-0.26832332409777027
1.2000000000000008,0.8513969800349138,0.8508825,-0.2777953052725082,-0.25494266,1.4962192024669647,1.4820071,0.935093171836779,0.94717324,-1.4020918973901673,-1.4351008,0.3871833376335332,0.35623378,-0.318917819043686,-0.30987898,-0.18836435847853258,-0.18724573,-0.002649468876593875,0.008595541,-1.0295272336068695,-1.1374011,-0.46187377636841404,-0.45970175,-0.003748382195757991,0.009719571,0.019367421129283136,0.011610508064807304,0.08721950839792739,-0.49545386503009653
1.2100000000000006,0.8603969800349138,0.85836077,-0.2917953052725082,-0.2699086,1.5002192024669647,1.4895823,0.920093171836779,0.9292781,-1.3740918973901672,-1.4013636,0.3721833376335332,0.38261375,-0.3276527522804486,-0.32761642,-0.19389295153304803,-0.19537833,-0.0009317388853193955,0.0028455202,-0.8945272336068694,-1.0283375,-0.40087377636841404,-0.45932713,0.007251617804242008,-0.0013049666,0.5848667726208526,0.010069346853240966,0.06204212226837829,0.0700454864614729
1.2200000000000004,0.8693969800349138,0.8672827,-0.3057953052725082,-0.28450695,1.5032192024669646,1.4917184,0.905093171836779,0.9147316,-1.3440918973901674,-1.3744293,0.35618333763353316,0.3708111,-0.33917862832227513,-0.33380157,-0.19664855679261642,-0.20040327,0.0006448569600375692,0.0051261755,-0.7855272336068694,-0.89285713,-0.359873776368414,-0.39593527,-0.03574838219575799,0.009171761,0.872911328964791,0.007887306722013376,0.041518737817321606,0.35809004280541123
1.2300000000000002,0.8763969800349138,0.8758914,-0.3187953052725083,-0.29920945,1.5022192024669647,1.4958041,0.8840931718367789,0.9003555,-1.3150918973901673,-1.3455567,0.30318333763353317,0.3552963,-0.3453722955018867,-0.345826,-0.20168595684256763,-0.20315449,0.004957491465946738,0.0069447146,-0.6985272336068693,-0.7841427,-0.21487377636841404,-0.355657,-0.003748382195757991,-0.03406649,0.872911328964791,0.007887306722013376,0.041518737817321606,0.35809004280541123
1.24,0.8763969800349138,0.8832499,-0.3187953052725083,-0.3139867,1.5022192024669647,1.4998746,0.8840931718367789,0.87982804,-1.3150918973901673,-1.3193735,0.30318333763353317,0.29597795,-0.3453722955018867,-0.35232416,-0.20168595684256763,-0.2026108,0.004957491465946738,0.009688866,-0.6985272336068693,-0.7018939,-0.21487377636841404,-0.22101387,-0.003748382195757991,-0.0024065457,0.16728837939585825,0.008146710094257216,0.05935653441455972,-0.34753290676352144
1.2499999999999998,0.8913969800349139,0.8832499,-0.34179530527250823,-0.3139867,1.4992192024669646,1.4998746,0.8500931718367789,0.87982804,-1.2480918973901673,-1.3193735,0.2311833376335332,0.29597795,-0.3626794231418271,-0.35232416,-0.20438198756561318,-0.2026108,0.00719152892939068,0.009688866,-0.5645272336068693,-0.7018939,-0.21187377636841404,-0.22101387,-0.09874838219575799,-0.0024065457,0.16728837939585825,0.008146710094257216,0.05935653441455972,-0.34753290676352144
1.2599999999999996,0.9003969800349139,0.89875,-0.35479530527250835,-0.33820134,1.5062192024669647,1.4983895,0.832093171836779,0.84641415,-1.2140918973901673,-1.2539201,0.2361833376335332,0.22113264,-0.36826067725132977,-0.37124452,-0.20761770811990599,-0.20106801,0.005513387472520605,0.01562737,-0.49952723360686935,-0.5692739,-0.260873776368414,-0.2214528,-0.09774838219575799,-0.09766271,0.030430212004388044,0.009474244999269806,0.07383734619452463,-0.4843910741549916
1.2699999999999994,0.9073969800349139,0.90806836,-0.36679530527250837,-0.3516312,1.5082192024669647,1.5063819,0.816093171836779,0.8282688,-1.1820918973901673,-1.2210538,0.21918333763353318,0.22659919,-0.37125177343824317,-0.3777778,-0.21036169764587873,-0.20213021,0.006333260104908592,0.014297958,-0.43052723360686934,-0.5046826,-0.23687377636841403,-0.27088693,-0.06974838219575799,-0.09704085,0.030430212004388044,0.009474244999269806,0.07383734619452463,-0.4843910741549916
