,Unnamed: 0,t,x,y,z,qx,qy,qz,qw,yaw,pitch,roll,vx,vy,vz,wx,wy,wz,ros_timestamp,x_poses,y_poses,z_poses,qx_poses,qy_poses,qz_poses,qw_poses,yaw_poses,pitch_poses,roll_poses,m1_thrust,m2_thrust,m3_thrust,m4_thrust,m1_erpm,m2_erpm,m3_erpm,m4_erpm,ros_timestamp_motors,thrust,torque_roll,torque_pitch,torque_yaw,ax,ay,az,ros_timestamp_image_accel,x_r,y_r,z_r,qx_r,qy_r,qz_r,qw_r,yaw_r,pitch_r,roll_r,vx_r,vy_r,vz_r,wx_r,wy_r,wz_r,ros_timestamp_r,Vbat,can_be_armed,is_armed,auto_arm,can_fly,is_flying,is_tumbled,is_locked,m1_rads,m1_rads2,m2_rads,m2_rads2,m3_rads,m3_rads2,m4_rads,m4_rads2,rx,ry,rz
0,244,3.908149388904591e-17,0.0387784508323433,0.03959990972390302,0.5723547289057316,0.008840195173508963,0.001104522886023049,0.0008288655912956259,0.9999599711790068,0.00021662622086110253,0.0020684925098465017,0.01447522511625764,-0.005384296757273156,0.017256969321816994,0.023543466954898444,0.06239162210922923,0.04031577944302052,-0.03875090582151708,55.13264298439026,0.0423003993928432,0.0432329177856445,0.5483364462852478,,,,,,,,0.6451966529387549,0.5781443877840813,0.6236046956135135,0.6608190230382854,100000.0,96800.0,99000.0,97100.0,55.13264298439026,0.5494522104834806,-0.05811794352744962,0.003995898077766019,-0.4770960029758461,0.03710853207748564,-0.232973173917434,9.556242707944163,55.13264298439026,0.03395105279214019,0.020970526476350712,0.49997842086440636,0.0,0.0,0.0,1.0,0.0,1.402386978473882e-18,-9.568369488545757e-19,0.00013526315789473713,3.368421052631582e-05,-7.947368421052609e-05,0.0,0.0,0.0,55.13264298439026,3.6050000190734863,False,True,False,True,True,False,False,1745.338683519331,3046209.59189213,1689.4675275089403,2854296.3311933987,1727.8708297874714,2985536.0349510135,1694.7192623767792,2872074.5979941376,0.0176852060414466,0.0020632565197305354,0.0016610541931228419
1,245,0.01000000000000027,0.03875193222245192,0.03959971284495422,0.5728519504544873,0.009429964128069897,0.002066422803667784,0.0008277964698692263,0.9999530591114486,0.00024093259363199357,0.003987282240438584,0.01566200587141855,-0.002133541083106576,0.01329598749743545,0.02602941736527531,0.07490058583179356,0.03520585665077687,-0.0250404441154045,55.14118790626526,0.0423657298088073,0.0432374849915504,0.5480906963348389,,,,,,,,0.6513771508439912,0.5128504550878539,0.6109052729014941,0.7020020442877635,100700.0,95500.0,100000.0,98000.0,55.14118790626526,0.4877208397231472,0.07187521300134724,0.005461866970395992,-0.1654696088581061,0.017204748112952212,-0.23586362620948775,9.651270828886826,55.14118790626526,-4.894720785981513e-05,-2.9473523649288753e-05,0.49997842086440636,0.0,0.0,0.0,1.0,0.0,1.402386978473882e-18,-9.568369488545757e-19,0.00013526315789473713,3.368421052631582e-05,-7.947368421052609e-05,0.0,0.0,0.0,55.14118790626526,3.6050000190734863,False,True,False,True,True,False,False,1755.1704187807873,3080954.8019487066,1671.0213701289954,2793868.963379323,1745.2116552893788,3046512.752267343,1714.2072653691584,2939891.473005508,0.020452500635434082,0.004830449062614653,0.0016610651182953876
2,246,0.020000000000000056,0.03872527348991103,0.03960952652815107,0.5732034355815615,0.010102138401971638,0.0023065303545139913,0.0008104429595891936,0.9999459834909286,0.00021116181067523727,0.004461870035764942,0.01700776890203221,4.453639148660916e-05,0.009941602044882173,0.024278711853091245,0.12370570777545814,-0.095137226282028,-0.01878432462630525,55.15091395378113,0.0423657298088073,0.0432374849915504,0.5480906963348389,,,,,,,,0.6740251029785074,0.5115527713218493,0.5820753765642263,0.6873141304603931,100700.0,93800.0,98400.0,100700.0,55.15091395378113,0.4974817846805456,0.12546520492422267,0.006851557006936144,0.047906804103653854,0.06500628352576213,-0.20805370027690356,9.676496393098184,55.15091395378113,-4.894720785981513e-05,-2.9473523649288753e-05,0.49997842086440636,0.0,0.0,0.0,1.0,0.0,1.402386978473882e-18,-9.568369488545757e-19,0.00013526315789473713,3.368421052631582e-05,-7.947368421052609e-05,0.0,0.0,0.0,55.14118790626526,3.6050000190734863,False,True,False,True,True,False,False,1749.2025398300061,3060242.6481643617,1636.5379934906352,2679129.2457893984,1720.332046061042,2960886.2018688,1749.5002038380335,3060862.9708398543,0.020452500635434082,0.004830449062614653,0.0016610651182953876
3,247,0.030000000000000287,0.03870687119336124,0.039632064647015776,0.5733119525074133,0.010911220011420752,0.0015234683558926938,0.0007759282294698676,0.9999390092687721,0.00011666447431128401,0.0028906664923906934,0.018619749803633068,0.00093406397967187,0.007303362500934352,0.018894554570759912,0.2020862938980893,-0.3114730982809133,-0.01856780397150675,55.1631395816803,0.0425302572548389,0.0432509258389472,0.5476362109184265,,,,,,,,0.591384975321797,0.6876895097054085,0.6880181649067304,0.5478081197080926,99000.0,93500.0,97700.0,100000.0,55.1631395816803,0.5646103568420717,0.03332680611790183,0.00681313798507197,0.13228200050485076,0.14321605134874804,-0.18491417317718786,9.664360474067237,55.1631395816803,-4.894720785981513e-05,-2.9473523649288753e-05,0.49997842086440636,0.0,0.0,0.0,1.0,0.0,1.402386978473882e-18,-9.568369488545757e-19,0.03313526315789474,3.368421052631582e-05,-7.947368421052609e-05,0.0,0.0,0.0,55.17145800590515,3.6050000190734863,False,True,False,True,True,False,False,1753.1059341522182,3072264.2017250624,1622.7006352261603,2627355.283486092,1698.0529158716904,2879115.1354530184,1757.6660135909228,3086591.2118345844,0.020452500635434082,0.004830449062614653,0.0016610651182953876
4,248,0.04000000000000008,0.038714282327942086,0.03966034525329393,0.5731545900372826,0.011860093762670219,9.142052031497102e-07,0.0007460483976731454,0.9999293883004405,9.576040081899196e-06,-0.0001587997411488196,0.020506001054077003,0.0010923449720173664,0.005058036540252557,0.014599145524631388,0.26238929540831846,-0.39131138197417364,-0.01562606785268428,55.17145800590515,0.0425426214933395,0.0431875064969062,0.5473341941833496,,,,,,,,0.4538953097349302,0.8752797884679275,0.8524523902434052,0.40863451078236424,101000.0,97100.0,101000.0,97400.0,55.17145800590515,0.596963725170893,-0.18451888064355737,0.004524069800420141,0.10796581569010023,0.10121424999642001,-0.2184319948375622,9.756898487906458,55.17145800590515,-4.894720785981513e-05,-2.9473523649288753e-05,0.49997842086440636,0.0,0.0,0.0,1.0,0.0,1.402386978473882e-18,-9.568369488545757e-19,0.03313526315789474,3.368421052631582e-05,-7.947368421052609e-05,0.0,0.0,0.0,55.17145800590515,3.6050000190734863,False,True,False,True,True,False,False,1734.3633191696072,3009121.676652151,1707.4581240982602,2918944.8590441565,1767.5407865813945,3125762.204454013,1687.909183554349,2851299.652766335,0.023219697720776748,0.002063271761847085,0.0016610664640069343
5,249,0.05000000000000031,0.03877180868495172,0.03967723033986979,0.5727798594055185,0.01288810831460279,-0.0013874224021814872,0.000760510481409367,0.9999156931196532,-3.825320400069748e-06,-0.0029399631635799476,0.022551876915276173,0.0011755479496324615,0.0027667010648312045,0.014938478692134993,0.2603131376897719,-0.09336152806460163,-0.004365627364896315,55.182528495788574,0.0425907298922538,0.0430941805243492,0.5472565293312073,,,,,,,,0.4778668808454369,0.7941599928455129,0.8078783073441991,0.4644373892801444,94300.0,106800.0,108300.0,90900.0,55.182528495788574,0.5190247314494224,-0.36958692042674374,0.001967885856000674,0.0010880218974281299,-0.14334273940604883,-0.30230011027453,10.030194654774984,55.182528495788574,-4.894720785981513e-05,-2.9473523649288753e-05,0.49997842086440636,0.0,0.0,0.0,1.0,0.0,1.402386978473882e-18,-9.568369488545757e-19,0.03313526315789474,3.368421052631582e-05,-7.947368421052609e-05,0.0,0.0,0.0,55.17145800590515,3.6050000190734863,False,True,False,True,True,False,False,1657.950303367294,2752205.0539688095,1861.041711785991,3467071.965530817,1898.6831141220525,3607209.7094765594,1589.4399107995948,2526610.836769434,0.025986822013633292,-0.0007039078789448917,0.001661062751227873
6,250,0.060000000000000095,0.038904542321647244,0.03965882179200135,0.5722861365384192,0.013886228651372753,-0.001412150192242339,0.000859833095150611,0.9999022148053903,0.00019638909800934385,-0.0029954511094022755,0.024549139990482024,0.0014941503411965086,2.7956545968777012e-05,0.019026223164614466,0.19533228303470823,0.6236593101260309,0.010237061475803003,55.191821813583374,0.0428115837275981,0.0430085845291614,0.5469237565994263,,,,,,,,0.603494742658417,0.5976593329486518,0.6526257039325503,0.6105193169380088,92000.0,110700.0,112800.0,89300.0,55.191821813583374,0.3509833739538166,-0.3479823756273463,0.0023059710126774485,-0.15403428262366428,-0.42117991253514264,-0.3833778930733978,10.334376981315344,55.191821813583374,0.0019510527921401848,-2.9473523649288753e-05,0.49997842086440636,0.0,0.0,0.0,1.0,0.0,1.402386978473882e-18,-9.568369488545757e-19,0.11813526315789473,3.368421052631582e-05,-7.947368421052609e-05,0.0,0.0,0.0,55.20369720458984,3.578000068664551,False,True,False,True,True,False,False,1610.9724750204214,2593878.4599482343,1924.163621670385,3698455.977312391,1948.9103017845582,3797365.2819238873,1566.9787885964197,2455132.5604805397,0.028753830937623803,-0.0034710629406424754,0.0016610531960072222
7,251,0.06999999999999988,0.03913127529495937,0.03958134563948684,0.5717934976907171,0.014736716123562775,0.0011084316323843745,0.0010624862031808511,0.9998902298253933,0.0006860520241956495,0.0020371142644545802,0.026272858629822995,0.0022161515348365904,-0.003342409236650124,0.023908623795812017,0.10911115177646785,1.5318243479348144,0.01721135142919709,55.20369720458984,0.0431695207953453,0.0428705625236034,0.5467431545257568,,,,,,,,0.6271615379065428,0.5804970428726701,0.6461699043870883,0.6431985987309847,95200.0,106000.0,107900.0,93200.0,55.20369720458984,0.18991373178984605,-0.12192750720780025,0.0058273897384534395,-0.29619383193236365,-0.4550308211533932,-0.4167973737365026,10.450464759455627,55.20369720458984,0.0019510527921401848,-2.9473523649288753e-05,0.49997842086440636,0.0,0.0,0.0,1.0,0.0,1.402386978473882e-18,-9.568369488545757e-19,0.11813526315789473,3.368421052631582e-05,-7.947368421052609e-05,0.0,0.0,0.0,55.20369720458984,3.578000068664551,False,True,False,True,True,False,False,1656.8290907072694,2746562.730476859,1853.6629464378427,3440655.5895408792,1894.5910157430844,3592869.533681445,1617.5120275827383,2618413.9567438876,0.028753830937623803,-0.0034710629406424754,0.0016610531960072222
8,252,0.08000000000000011,0.03945957382647813,0.039429670373477596,0.5714119974503807,0.015357218582697119,0.006898196407060682,0.001349045058762739,0.9998573652282421,0.0014520812964660334,0.013606268826029704,0.027566960371303198,0.0038841190305644565,-0.006993069017674313,0.028450540521447187,0.04883475737580449,2.289586610812361,0.011103796287096911,55.21153020858765,0.0434480309486389,0.0425593666732311,0.546342670917511,,,,,,,,0.6294093447581728,0.6207336540491402,0.6703999678000968,0.6390323218918895,99000.0,101400.0,104900.0,95200.0,55.21153020858765,0.12727739674027286,0.12112112178234906,0.009213899520341014,-0.35640494508167575,-0.18574441956423524,-0.3942025736447805,10.363728655025163,55.21153020858765,0.0019510527921401848,-2.9473523649288753e-05,0.49997842086440636,0.0,0.0,0.0,1.0,0.0,1.402386978473882e-18,-9.568369488545757e-19,0.11813526315789473,3.368421052631582e-05,-7.947368421052609e-05,0.0,0.0,0.0,55.20369720458984,3.578000068664551,False,True,False,True,True,False,False,1719.6490229162641,2956376.195902438,1779.68421790183,3165834.2071703775,1843.2950147872252,3395750.7897625933,1660.4792585094501,2755205.6127145416,0.031520576149175875,0.010364596512357643,0.001661031421665983
9,253,0.0899999999999999,0.03988565867387024,0.03920426333671954,0.5712084334529418,0.01572706417514701,0.015995544382619267,0.0016658729500420044,0.9997469814306262,0.002391721753350372,0.03179384241816433,0.028395484324961754,0.007597309718298619,-0.010076688210288648,0.03348749505429497,0.03314414202406489,2.6820968900877356,-0.002309329429768417,55.22124910354614,0.0443206503987312,0.0422394797205925,0.5459310412406921,,,,,,,,0.6958519499402825,0.5666437549022436,0.5969853837933656,0.6856058343705307,99700.0,101000.0,105300.0,96800.0,55.22124910354614,0.18666263962402418,0.20267163533092514,0.009273504874895783,-0.3047498037594956,0.2091005648405241,-0.34570534099008665,10.220816798224162,55.22124910354614,0.007951052792140185,-2.9473523649288753e-05,0.49997842086440636,0.0,0.0,0.0,1.0,0.0,1.402386978473882e-18,-9.568369488545757e-19,0.24613526315789475,3.368421052631582e-05,-7.947368421052609e-05,0.0,0.0,0.0,55.241408824920654,3.578000068664551,False,True,False,True,True,False,False,1753.5129595468807,3074091.986911811,1751.4458330909729,3066036.6365275877,1811.882639794384,3282941.9000966353,1696.7087413328968,2878649.1668397766,0.031518551167840685,0.032499491203454106,0.004427869547170064
10,254,0.10000000000000013,0.040399788286858855,0.03892316931278835,0.5711837748672751,0.015885173598441087,0.027817329065426943,0.0019498976006441402,0.9994848950148072,0.003362976309893351,0.05544645540046846,0.028838985031741364,0.014514970654488469,-0.011966759334889105,0.03928588633659298,0.047629457037967865,2.7423719260659585,-0.011546074103551778,55.231199741363525,0.045145645737648,0.0419927686452865,0.5456174612045288,,,,,,,,0.6608563014326323,0.5899778085021243,0.6189151581849959,0.6528894750498812,102700.0,98400.0,100300.0,100300.0,55.231199741363525,0.3150352561417937,0.10684889440338184,0.006159869643520097,-0.18100665430375243,0.5809323418330433,-0.3152258670796624,10.108874912742426,55.231199741363525,0.007951052792140185,-2.9473523649288753e-05,0.49997842086440636,0.0,0.0,0.0,1.0,0.0,1.402386978473882e-18,-9.568369488545757e-19,0.24613526315789475,3.368421052631582e-05,-7.947368421052609e-05,0.0,0.0,0.0,55.241408824920654,3.5840001106262207,False,True,False,True,True,False,False,1787.0635459300256,3194525.8562333724,1713.9429087141516,2938993.023649036,1765.6317288082457,3119412.5202118196,1750.3139835249453,3064993.8856333056,0.03151309816656314,0.05739206690373638,0.00442710348472738
11,255,0.11000000000000036,0.04099565016266346,0.03861725042281882,0.5712764767165183,0.01590369326512071,0.04146845589720175,0.0021599227108503884,0.9990108980586317,0.004256220734001217,0.08279716284376161,0.029043760229308324,0.02513625607128412,-0.013004975491890827,0.044713868695639106,0.06446771173030655,2.681322105085952,-0.009776149562549298,55.241408824920654,0.0454698801040649,0.0415172539651393,0.5451452136039734,,,,,,,,0.545380468711517,0.7078773690339388,0.7397380876798056,0.5520194308940818,102400.0,96800.0,101000.0,101400.0,55.241408824920654,0.42832608729753474,-0.052403077794881237,0.002623439359236316,-0.06620672565480543,0.9002223172234644,-0.31361702985836953,10.047105680062945,55.241408824920654,0.007951052792140185,-2.9473523649288753e-05,0.49997842086440636,0.0,0.0,0.0,1.0,0.0,1.402386978473882e-18,-9.568369488545757e-19,0.24613526315789475,3.368421052631582e-05,-7.947368421052609e-05,0.0,0.0,0.0,55.241408824920654,3.5840001106262207,False,True,False,True,True,False,False,1786.7126463746195,3192673.009553062,1702.8566808333012,2899863.746087567,1766.7790822604866,3121988.253727737,1760.5262854262714,3099536.8154094806,0.0315017882470272,0.08779166981858924,0.004425514615745824
12,256,0.12000000000000015,0.04168037650522855,0.03831989151429253,0.5713923698811516,0.01585225919724503,0.05611799455602709,0.0022931160476090434,0.9982956566990289,0.005039138801016568,0.1122172401159299,0.02915279536762426,0.03927793772100131,-0.014355280843020434,0.04877863504724523,0.06311307136095362,2.711246444490628,-0.0005430269266140082,55.25104212760925,0.0459072217345237,0.0415680967271328,0.5451263189315796,,,,,,,,0.5859321121985015,0.7061467598274227,0.7219105027217622,0.5713845313317909,99700.0,101000.0,105300.0,97700.0,55.25104212760925,0.4893770860453013,-0.1539946443415503,0.0012153761279168976,-0.0023126774628370334,1.15682709915883,-0.3159825657421259,10.072362626714796,55.25104212760925,0.007951052792140185,-2.9473523649288753e-05,0.49997842086440636,0.0,0.0,0.0,1.0,0.0,1.402386978473882e-18,-9.568369488545757e-19,0.24613526315789475,3.368421052631582e-05,-7.947368421052609e-05,0.0,0.0,0.0,55.241408824920654,3.5840001106262207,False,True,False,True,True,False,False,1732.976691125934,3002611.3336346047,1760.9562643114455,3103083.7728892877,1830.44125857392,3351231.044328128,1711.916479721647,2930801.259668719,0.03148720023173637,0.1153929436281055,0.0044234652249500375
13,257,0.12999999999999992,0.04248060266525051,0.038054908356944014,0.5714437488027744,0.01577179842762068,0.07124185842603713,0.0023762050361917004,0.9973315404778839,0.0057478313377590405,0.14269895066544885,0.029253884424188175,0.05685624709212373,-0.01699444417625726,0.051501781156089735,0.038594217793880475,2.9009932587636937,0.005305321217208544,55.26161551475525,0.0468044802546501,0.0416323319077491,0.5449331402778625,,,,,,,,0.7091577631518917,0.636943443274083,0.6422605914174857,0.670594055537702,97700.0,104500.0,106400.0,97100.0,55.26161551475525,0.5300813555889462,-0.1519130040533098,0.0025059775259388003,0.03897610434568163,1.375441310607374,-0.320222719762994,10.181977163013924,55.26161551475525,0.018951052792140183,-2.9473523649288753e-05,0.49997842086440636,0.0,0.0,0.0,1.0,0.0,1.402386978473882e-18,-9.568369488545757e-19,0.4061352631578948,3.368421052631582e-05,-7.947368421052609e-05,0.0,0.0,0.0,55.27149271965027,3.5840001106262207,False,True,False,True,True,False,False,1722.5907776191127,2967962.216940551,1804.5429699048036,3256179.782657857,1851.996957816195,3429574.1319871135,1699.2710220825657,2887650.0109030907,0.031470626550732544,0.14019684710591523,0.0044211368787957185
14,258,0.14000000000000015,0.04344091451014391,0.037827312860720504,0.5713774238348752,0.015670185799341232,0.08663594816102804,0.002440150753778132,0.9961138004402673,0.006438099594112774,0.17387737761543828,0.029368243285326813,0.07839863752733235,-0.020776617933280207,0.05288665807508998,0.0005234469407995115,3.156800699594992,-0.0009641961150937442,55.27149271965027,0.04823824390769,0.0412387214601039,0.5448551177978516,,,,,,,,0.6957119228938801,0.662631814945154,0.6955231107128999,0.6879048773824384,103400.0,101000.0,103400.0,100700.0,55.27149271965027,0.570969310917308,-0.0799799812452664,0.0050325582002237156,0.07880310111407451,1.6571009555734688,-0.35412750851686264,10.304643237996086,55.27149271965027,0.018951052792140183,-2.9473523649288753e-05,0.49997842086440636,0.0,0.0,0.0,1.0,0.0,1.402386978473882e-18,-9.568369488545757e-19,0.4061352631578948,3.368421052631582e-05,-7.947368421052609e-05,0.0,0.0,0.0,55.27149271965027,3.546999931335449,False,True,False,True,True,False,False,1790.7847692970372,3210319.007396451,1788.4153494246866,3198736.8602520265,1818.6354532519463,3307620.2288981117,1747.7713692388033,3056137.6988323946,0.031445991936310404,0.17045344604425958,0.0044176760960197205
15,259,0.14999999999999994,0.044614829069357084,0.03762087370595755,0.5711840454848958,0.015538471386774482,0.10225467836173004,0.002497874277363406,0.994633750324307,0.007136732491573252,0.2057006994192747,0.02947817164688664,0.10454284017000949,-0.024421117857191265,0.05221849731201575,-0.03247475884970008,3.3233160939098285,-0.017458803239235998,55.28383946418762,0.0497864224016666,0.0409373044967651,0.5445541739463806,,,,,,,,0.6573971771549576,0.6755939495279061,0.7411001263957622,0.6884557309769124,105300.0,102400.0,104900.0,101700.0,55.28383946418762,0.5659814650796471,0.0008570274516973564,0.006388018073176265,0.07306193261466709,2.0642961029697604,-0.3995248350913828,10.402226721471935,55.28383946418762,0.018951052792140183,-2.9473523649288753e-05,0.49997842086440636,0.0,0.0,0.0,1.0,0.0,1.402386978473882e-18,-9.568369488545757e-19,0.4061352631578948,3.368421052631582e-05,-7.947368421052609e-05,0.0,0.0,0.0,55.27149271965027,3.546999931335449,False,True,False,True,True,False,False,1838.4527706823483,3377622.4736832604,1775.0416641514198,3151762.359500845,1820.2412816467968,3313831.703568453,1780.3906162978444,3168412.573967144,0.03141368774878976,0.2033712044245677,0.004413137856701326
16,260,0.16000000000000017,0.04605275257272111,0.03740406166853186,0.5708938230933106,0.015373805882241609,0.11802179119253815,0.002539171112084002,0.9928887427634899,0.007824297040884194,0.23804369483068075,0.029568596001331982,0.13518696137350333,-0.026581595435283906,0.04940475747386948,-0.04405821209268815,3.3101732662974452,-0.03202443346667011,55.29889535903931,0.0514874197542667,0.0405091233551502,0.5443819761276245,,,,,,,,0.7360200032517079,0.6239249304961079,0.6770231075051446,0.7581624702934981,105300.0,102000.0,105600.0,102700.0,55.29889535903931,0.486429635467164,0.05281939339263269,0.004870671346196714,-0.006336491260523923,2.548415151063816,-0.388623307703712,10.495699254260824,55.29889535903931,0.03495105279214019,-2.9473523649288753e-05,0.49997842086440636,0.0,0.0,0.0,1.0,0.0,1.402386978473882e-18,-9.568369488545757e-19,0.5811352631578947,3.368421052631582e-05,-7.947368421052609e-05,0.0,0.0,0.0,55.31188917160034,3.546999931335449,False,True,False,True,True,False,False,1841.3418116610192,3389469.6251949547,1778.0126751757505,3161039.5205694484,1848.7974415495562,3418401.7928585922,1790.3066452727776,3204523.0077725574,0.03137570562214502,0.23617817546652292,0.0071622071547298065
17,261,0.16999999999999996,0.047792743692637654,0.037142223874714074,0.5705663268416973,0.01519079315066021,0.13374092859196735,0.002541356616498691,0.9908966370562371,0.008449473191289912,0.2705232845598569,0.029648059631474256,0.16931985704576352,-0.02721642888174588,0.04645070859748434,-0.03348214241909165,3.148132910471682,-0.03283234675490301,55.303876876831055,0.0533263124525547,0.0401801839470863,0.5442845821380615,,,,,,,,0.7800115731744419,0.6727366917094028,0.688205571124672,0.7840191670306582,106800.0,102000.0,106400.0,104500.0,55.303876876831055,0.40787039451656537,0.06286214833600198,0.0009922751233132957,-0.08447492728390615,3.0419919272330542,-0.3112320570072761,10.599794547824624,55.303876876831055,0.03495105279214019,-2.9473523649288753e-05,0.49997842086440636,0.0,0.0,0.0,1.0,0.0,1.402386978473882e-18,-9.568369488545757e-19,0.5811352631578947,3.368421052631582e-05,-7.947368421052609e-05,0.0,0.0,0.0,55.31188917160034,3.546999931335449,False,True,False,True,True,False,False,1870.505040186746,3501415.3938605534,1781.7421004545456,3172821.274731716,1849.1464529038046,3417811.085766688,1829.7855871917134,3349986.1596228676,0.031332373328310216,0.2688591829119594,0.004401714436751917
18,262,0.1800000000000002,0.04985775633304442,0.036810568527809,0.5702782514992142,0.015010901850362506,0.1491384644012692,0.002483264470571535,0.9886992589555428,0.008952296065828605,0.3025859151039447,0.029729690026562165,0.2056194396263848,-0.02780997441757109,0.04645618922106767,-0.018304475453051392,2.9525285180485947,-0.02014557669495185,55.31188917160034,0.0533263124525547,0.0401801839470863,0.5442845821380615,,,,,,,,0.7226210731018713,0.7805880453713556,0.7878287828351933,0.7271229277863321,110300.0,104200.0,106400.0,107900.0,55.31188917160034,0.42626141068737045,0.031031480944302657,-0.002348513101036385,-0.06596477307205902,3.51371776179011,-0.2493840802565008,10.731185760214304,55.31188917160034,0.03495105279214019,-2.9473523649288753e-05,0.49997842086440636,0.0,0.0,0.0,1.0,0.0,1.402386978473882e-18,-9.568369488545757e-19,0.5811352631578947,3.368421052631582e-05,-7.947368421052609e-05,0.0,0.0,0.0,55.31188917160034,3.503999948501587,False,True,False,True,True,False,False,1910.635212817017,3650406.2487784554,1826.0524766740973,3336575.0122002102,1865.9699165611412,3482222.017505761,1874.2019982878103,3512409.3583265557,0.02853760444612579,0.3013999279593849,0.004394912276172298
19,263,0.18999999999999997,0.05225944223725181,0.036402239843097615,0.5701106616206892,0.014837532336297615,0.16397896299629866,0.002354227097738413,0.9863494334887613,0.009282655221149374,0.33374907767153494,0.02978911888278234,0.24322263423193652,-0.02992172608647762,0.05119158088992277,-0.020172667487186484,2.834896442548024,-0.007119210461286201,55.321552991867065,0.0581464655697345,0.0391860343515872,0.5441640019416809,,,,,,,,0.7244573189505045,0.7648665347795084,0.7938674750652873,0.7201877156148941,109100.0,109100.0,110700.0,107500.0,55.321552991867065,0.518848732486709,-0.016430041793795182,-0.0020943508165638153,0.02648030043376821,3.934919815361382,-0.2799107641772828,10.921235913422365,55.321552991867065,0.05795105279214019,-2.9473523649288753e-05,0.49997842086440636,0.0,0.0,0.0,1.0,0.0,1.402386978473882e-18,-9.568369488545757e-19,0.7731352631578947,3.368421052631582e-05,-7.947368421052609e-05,0.0,0.0,0.0,55.34143328666687,3.503999948501587,False,True,False,True,True,False,False,1910.9358445117377,3650670.4324047295,1897.7109975588537,3602456.8069303073,1932.5748172390122,3737277.252158121,1880.4808412194836,3535290.171369271,0.02849247998013318,0.3310854302499369,0.004387962916778063
20,264,0.2000000000000002,0.05500579604277061,0.03592871789268068,0.5701363942360813,0.014639365153679241,0.17815966849459675,0.0021610557642387203,0.9838903146935519,0.009423746966884918,0.3638051468276144,0.02974600244565091,0.28225990247456734,-0.03361370988144635,0.060377163765817365,-0.04530579260118231,2.825198621522823,-0.00774329359730003,55.33119988441467,0.061146143823862,0.0388090163469314,0.544294536113739,,,,,,,,0.7969814375927272,0.7090324248682756,0.7506706199727571,0.7856064394524618,109100.0,110700.0,114100.0,107900.0,55.33119988441467,0.5763133836345933,-0.03289047065362785,0.0017052434690924731,0.08382493899018746,4.301688240193954,-0.38906140934386835,11.155797625136705,55.33119988441467,0.05795105279214019,-2.9473523649288753e-05,0.49997842086440636,0.0,0.0,0.0,1.0,0.0,1.402386978473882e-18,-9.568369488545757e-19,0.7731352631578947,3.368421052631582e-05,-7.947368421052609e-05,0.0,0.0,0.0,55.34143328666687,3.503999948501587,False,True,False,True,True,False,False,1913.233098140966,3661697.401953834,1924.7051586545426,3702941.2922467417,1979.2297605787244,3916207.862143235,1885.7598868697928,3556822.1302506574,0.03118527066863081,0.3579406163791864,0.004381048785477733
21,265,0.21,0.05810916039170973,0.03541368275985292,0.5704068823726226,0.014360444662650419,0.1917219080909755,0.0019374630100002976,0.9813423122560911,0.009428253568236351,0.39285416132429224,0.029501964393873318,0.32398850917904126,-0.03758433615810053,0.07289320112401998,-0.07860254005447503,2.860786751508322,-0.023938987955793592,55.34143328666687,0.0646420419216156,0.0382777154445648,0.5446714758872986,,,,,,,,0.8122658208170566,0.7340984093808088,0.7726701682220676,0.820506848719618,112800.0,109100.0,112800.0,110300.0,55.34143328666687,0.5569100738936532,-0.0017329381775791231,0.005443909242956307,0.06443358321659445,4.671578069806976,-0.47883651020505635,11.377770712222077,55.34143328666687,0.05795105279214019,-2.9473523649288753e-05,0.49997842086440636,0.0,0.0,0.0,1.0,0.0,1.402386978473882e-18,-9.568369488545757e-19,0.7731352631578947,3.368421052631582e-05,-7.947368421052609e-05,0.0,0.0,0.0,55.34143328666687,3.503999948501587,False,True,False,True,True,False,False,1952.905549519496,3814750.49416449,1921.5263831717016,3692990.4779907563,1977.8750813727622,3911783.2767576687,1924.13658673795,3703108.3251698515,0.028400194067011157,0.38467557395580537,0.004373750494244019
22,266,0.22000000000000022,0.061592293240139116,0.03488384718197693,0.570939382102331,0.01395290824609785,0.2047826940202577,0.0017480281688833038,0.9787064467851442,0.009440880560440729,0.42116428319198257,0.02901350099799917,0.37028191283527284,-0.04066775683887552,0.0875569419136615,-0.09782156190289477,2.851664800323003,-0.04465757297598979,55.35641598701477,0.0684652179479599,0.0379742123186588,0.5450292229652405,,,,,,,,0.7861256109152801,0.7499960841405144,0.7873284910853856,0.8060397509325734,113600.0,111500.0,112800.0,113200.0,55.35641598701477,0.5286478324374214,0.037098760665284676,0.005497471583576033,0.03623272327593534,5.0987607639014385,-0.4523147961958426,11.539760923871826,55.35641598701477,0.05795105279214019,-2.9473523649288753e-05,0.49997842086440636,0.0,0.0,0.0,1.0,0.0,1.402386978473882e-18,-9.568369488545757e-19,0.7731352631578947,3.368421052631582e-05,-7.947368421052609e-05,0.0,0.0,0.0,55.34143328666687,3.499000072479248,False,True,False,True,True,False,False,1991.0331535602488,3962932.964201346,1935.5889538273082,3747608.9552031597,1978.9513705055167,3917384.5237154067,1966.7329686146265,3867132.621346598,0.028349216942456214,0.4112673117000736,0.004365899800576531
23,267,0.23,0.06549168091203421,0.03436040654909395,0.5717113427023026,0.013408469648810416,0.21744179317860052,0.001667609503623529,0.9759797634169958,0.009652812176678044,0.4489691271658207,0.028334515802195273,0.42252173242610075,-0.04288376665073948,0.10289512568206796,-0.09472504125944423,2.761843237388981,-0.05650699861938806,55.36009860038757,0.0728513598442077,0.0372393317520618,0.5457722544670105,,,,,,,,0.7732989731016292,0.7505751597165833,0.7799599473277127,0.7766557408967305,114900.0,111500.0,115400.0,113200.0,55.36009860038757,0.5623099545984921,0.03320620013924309,0.0017364153775952084,0.06991708415916771,5.554856904612862,-0.32680179055353137,11.591752057654924,55.36009860038757,0.08795105279214017,-2.9473523649288753e-05,0.49997842086440636,0.0,0.0,0.0,1.0,0.0,1.402386978473882e-18,-9.568369488545757e-19,0.9661352631578947,3.368421052631582e-05,-7.947368421052609e-05,0.0,0.0,0.0,55.374290466308594,3.499000072479248,False,True,False,True,True,False,False,2008.0199585941027,4032204.7931270134,1941.0154031306997,3766922.703798482,1986.6852285165346,3947350.6535864174,1992.2577317501623,3969090.259395431,0.028295101533548028,0.43771238469706036,0.0043575657977912
24,268,0.24000000000000024,0.06985754512927055,0.033853531175859444,0.5726696174523984,0.012764838831053548,0.229725584054557,0.0017239433670745684,0.9731702024515944,0.010153532297899477,0.47633033802225144,0.027572920626165873,0.48068603019595946,-0.045137412316456564,0.11740710125865489,-0.08252520377430554,2.6299481961290234,-0.05486200219800373,55.374290466308594,0.0777921974658966,0.0367591567337513,0.5468277931213379,,,,,,,,0.7538577477209469,0.8052453974258672,0.8104028351877961,0.7477402137581681,115800.0,110300.0,112400.0,115400.0,55.374290466308594,0.6400928857189121,-0.012206243964160623,-0.002580089144013243,0.14768146830843357,5.962509315996254,-0.22950949755990224,11.516279831758233,55.374290466308594,0.08795105279214017,-2.9473523649288753e-05,0.49997842086440636,0.0,0.0,0.0,1.0,0.0,1.402386978473882e-18,-9.568369488545757e-19,0.9661352631578947,3.368421052631582e-05,-7.947368421052609e-05,0.0,0.0,0.0,55.374290466308594,3.499000072479248,False,True,False,True,True,False,False,2015.9237681903057,4064551.34320027,1936.0674637608267,3748255.608926994,1987.0387945172372,3948639.3760917378,2000.3896709657936,4002389.6642347286,0.025520713646820674,0.46400842301297673,0.004348811191650999
25,269,0.25000000000000006,0.07474981021164426,0.03336082762686534,0.5737530791153276,0.01208121975139016,0.2415924565565564,0.0018204757207209924,0.9703008888651177,0.010723208871001316,0.5031245962372587,0.02676711434839762,0.5434967112846942,-0.048135298279339496,0.13046043953901035,-0.08168912009755905,2.5161578124313984,-0.046660639358795934,55.38119959831238,0.0835142731666565,0.0361930988729,0.547920286655426,,,,,,,,0.7607421967062982,0.7988566772544705,0.7976085805499904,0.7584999411219472,115400.0,112800.0,115400.0,113600.0,55.38119959831238,0.6685018950298794,-0.047021616781260496,-0.00360141472847454,0.1760717031399249,6.288795026999975,-0.23476069617599526,11.400412406466085,55.38119959831238,0.08795105279214017,-2.9473523649288753e-05,0.49997842086440636,0.0,0.0,0.0,1.0,0.0,1.402386978473882e-18,-9.568369488545757e-19,0.9661352631578947,3.368421052631582e-05,-7.947368421052609e-05,0.0,0.0,0.0,55.374290466308594,3.499000072479248,False,True,False,True,True,False,False,2012.6989886168255,4050816.557258603,1965.1276379788096,3862886.316901765,2006.3688827426713,4026413.812074993,1987.5955404918213,3950560.7018648763,0.022754843121311243,0.4901428437498007,-0.0010839705114361773
26,270,0.2600000000000003,0.08023035527589047,0.03286953630797355,0.574916902077054,0.01139991440256045,0.25297810410547866,0.0016932612372848978,0.9674033562383346,0.010706194761177993,0.5291217616921748,0.02576415803857341,0.6094277779790023,-0.05156243075043879,0.14231821136019168,-0.09833353174257065,2.437134212200523,-0.04381223593330117,55.392494440078735,0.0896523594856262,0.0355468094348907,0.5489782691001892,,,,,,,,0.8045674951908672,0.690130915898242,0.7241757866319964,0.799906738353026,114500.0,114500.0,116700.0,113600.0,55.392494440078735,0.563640923274848,-0.03157244789415046,-4.792958259822904e-05,0.07121087322866478,6.566997191783544,-0.26959479272895387,11.3182007756999,55.392494440078735,0.12195105279214018,-2.9473523649288753e-05,0.49997842086440636,0.0,0.0,0.0,1.0,0.0,1.402386978473882e-18,-9.568369488545757e-19,1.1501352631578947,3.368421052631582e-05,-7.947368421052609e-05,0.0,0.0,0.0,55.41150975227356,3.5360000133514404,False,True,False,True,True,False,False,2007.047363958782,4028297.4346297965,1994.8687884150054,3978895.9827039894,2031.1316165991693,4125553.7656844947,1981.2431443267405,3924991.6967866323,0.02271424850994206,0.5109239539296304,0.0016249081667081278
27,271,0.2700000000000001,0.08635383938368893,0.03236151374304467,0.5761461594351219,0.010722681655282437,0.2638379338839099,0.0009653206776760019,0.9645069397873601,0.009134490933508073,0.5540767718494813,0.02421325412919295,0.6774751782272871,-0.054254405036660076,0.1530671613290021,-0.11834957970037445,2.3569621107542718,-0.05192458805056355,55.40143632888794,0.0958690196275711,0.0351091623306274,0.5504735112190247,,,,,,,,0.792378742921882,0.664066521491623,0.7237560232678067,0.7921711637473503,115800.0,112800.0,115800.0,114500.0,55.40143632888794,0.35362814354297123,0.012332956325793416,0.005090349627293679,-0.13879308721117278,6.825150151143769,-0.23974211840608767,11.18881272746481,55.40143632888794,0.12195105279214018,-2.9473523649288753e-05,0.49997842086440636,0.0,0.0,0.0,1.0,0.0,1.402386978473882e-18,-9.568369488545757e-19,1.1501352631578947,3.368421052631582e-05,-7.947368421052609e-05,0.0,0.0,0.0,55.41150975227356,3.5360000133514404,False,True,False,True,True,False,False,2010.9533999273617,4043965.0813756227,1969.2198554645502,3878356.66033488,2023.9894529756614,4096684.665680011,2005.3677315081102,4021826.4895909275,0.02266678157092815,0.5341678624334568,0.004322800356535861
28,272,0.2800000000000003,0.09316032043220954,0.03181959957489025,0.5774542403111285,0.010019500369620954,0.2741586657808609,-0.0006844672375136488,0.961632033105284,0.005153778603826401,0.5777831970597435,0.021729265901226334,0.7470447778310874,-0.05523807335675667,0.16209898684875065,-0.12401548431242713,2.2356675661304184,-0.06285406849455707,55.41150975227356,0.1037933975458145,0.0344292595982551,0.5514853596687317,,,,,,,,0.7327991764769137,0.7382569763957407,0.7636036464729963,0.7457964506832656,114500.0,110300.0,114500.0,116300.0,55.41150975227356,0.1956753486577148,0.0310054054099554,0.006442782365031921,-0.29674195204842546,7.035436880888907,-0.1813052715686872,10.917506563779105,55.41150975227356,0.12195105279214018,-2.9473523649288753e-05,0.49997842086440636,0.0,0.0,0.0,1.0,0.0,1.402386978473882e-18,-9.568369488545757e-19,1.1501352631578947,3.368421052631582e-05,-7.947368421052609e-05,0.0,0.0,0.0,55.41150975227356,3.5360000133514404,False,True,False,True,True,False,False,2006.0836110137348,4024445.8386129662,1930.6006053320864,3727327.1999669005,2006.4586729760417,4025509.8498789696,2017.7921678876096,4071700.3361905646,0.01992721333917744,0.554712597804546,-0.0010777052224356398
29,273,0.2900000000000001,0.10067202887667394,0.031233637036604384,0.5788694342212509,0.009261640062608392,0.28394248312395703,-0.0033038784745408304,0.9587908910121005,-0.0014103935734529204,0.600089215280989,0.01815911907416214,0.8174760146260752,-0.05461831006608134,0.16900004014129527,-0.11437433321289117,2.0730049863158366,-0.0585303968299013,55.42136001586914,0.1114432066679,0.0339991897344589,0.5532487034797668,,,,,,,,0.727848708797646,0.7479693328666186,0.7242874115303544,0.7397588011908813,114100.0,110700.0,114900.0,113600.0,55.42136001586914,0.23433784176945782,0.008610234709045168,0.0009700376541537465,-0.25808179081660887,7.167572479009259,-0.20018530660595518,10.570866851799826,55.42136001586914,0.1639510527921402,-2.9473523649288753e-05,0.49997842086440636,0.0,0.0,0.0,1.0,0.0,1.402386978473882e-18,-9.568369488545757e-19,1.3271352631578948,3.368421052631582e-05,-7.947368421052609e-05,0.0,0.0,0.0,55.44128155708313,3.5360000133514404,False,True,False,True,True,False,False,1985.7091185773118,3943470.4365452724,1930.026732565276,3724776.3820728236,1994.155688692921,3976474.2382050958,1989.6781458268465,3959494.610457166,0.01989663270431283,0.5753970331380266,-0.003768022604958457
30,274,0.3000000000000003,0.10889501000317187,0.03060431187043977,0.5804165212081471,0.008453209774853806,0.29318629432673593,-0.006524137033512968,0.9559956985778895,-0.009662556910474856,0.6209021130980206,0.013793080585972619,0.8880379271922132,-0.05347464465688502,0.17440353171037823,-0.10621026441979381,1.9003607474132482,-0.024651633075915287,55.43111062049866,0.1114432066679,0.0339991897344589,0.5532487034797668,,,,,,,,0.7438308423250359,0.7131329075361832,0.6837793241723175,0.7566929864712473,112800.0,111900.0,112400.0,112400.0,55.43111062049866,0.43995801066948675,-0.019079986465585164,-0.009443939676317386,-0.052464511218772894,7.248942298466094,-0.2897361771768924,10.276985702090066,55.43111062049866,0.1639510527921402,-2.9473523649288753e-05,0.49997842086440636,0.0,0.0,0.0,1.0,0.0,1.402386978473882e-18,-9.568369488545757e-19,1.3271352631578948,3.368421052631582e-05,-7.947368421052609e-05,0.0,0.0,0.0,55.44128155708313,3.552000045776367,False,True,False,True,True,False,False,1971.837016976489,3887649.295712134,1942.3559674822882,3772908.785276532,1964.4430351676415,3860314.982942583,1966.1893507645057,3865635.4261376425,0.01722293659438045,0.5948720544385105,-0.011856516518106727
31,275,0.3100000000000001,0.11782487891064113,0.029943479307621562,0.5821007248566462,0.007639023664736051,0.30187367531209414,-0.00959734427719382,0.9532690178820683,-0.017706796864541498,0.6401926237846586,0.009373375660762672,0.9584076684262006,-0.05302081242562339,0.17920314935788925,-0.11554583458247245,1.742467753013488,0.03628554605386447,55.44128155708313,0.1204720288515091,0.0332203209400177,0.5547997355461121,,,,,,,,0.7104901104523795,0.723114820972478,0.7014392121474945,0.749523396057812,111900.0,110300.0,110300.0,113600.0,55.44128155708313,0.6399431060636688,-0.01888363672616813,-0.019826237635300212,0.1475203623914222,7.315342347065009,-0.32276184312572803,10.05285778836296,55.44128155708313,0.1639510527921402,-2.9473523649288753e-05,0.49997842086440636,0.0,0.0,0.0,1.0,0.0,1.402386978473882e-18,-9.568369488545757e-19,1.3271352631578948,3.368421052631582e-05,-7.947368421052609e-05,0.0,0.0,0.0,55.44128155708313,3.552000045776367,False,True,False,True,True,False,False,1957.7319111781985,3832312.2768673506,1946.0412099166922,3787578.3665422564,1931.2847333953316,3729577.7450657114,1972.6909469346438,3891477.740505663,0.014544188364638218,0.6144152856823453,-0.017265270770100045
32,276,0.3199999999999999,0.12745467449041778,0.02927089649212567,0.5839003559385469,0.006885209531809971,0.30997768328504127,-0.011635969634017375,0.9506476918215381,-0.023245403984162666,0.6579840842149282,0.005857485820541016,1.0289049045955403,-0.05383654323376826,0.1828982008480331,-0.14149417649967272,1.5979025013951353,0.1030345701464796,55.45105409622192,0.1404505521059036,0.0319848284125328,0.558326780796051,,,,,,,,0.6829205566545107,0.7152387001654166,0.6867988144685344,0.7366441095601366,111100.0,112800.0,109900.0,113200.0,55.45105409622192,0.6988924552138657,0.0005835983526682933,-0.025125025194212485,0.20647095840245944,7.3471032947906725,-0.24985433526830675,9.798859325585582,55.45105409622192,0.1639510527921402,-2.9473523649288753e-05,0.49997842086440636,0.0,0.0,0.0,1.0,0.0,1.402386978473882e-18,-9.568369488545757e-19,1.3271352631578948,3.368421052631582e-05,-7.947368421052609e-05,0.0,0.0,0.0,55.44128155708313,3.552000045776367,False,True,False,True,True,False,False,1923.3535071045017,3700330.1186256343,1948.4666351037317,3796914.4878087733,1913.448656930641,3660240.7174122566,1980.0724733152358,3920910.0994170243,0.014558690982881558,0.6312309796223816,-0.02808450199930428
33,277,0.3300000000000001,0.13778178113982364,0.028608624966901725,0.5857710609719643,0.006246745658125963,0.31745925855537543,-0.011965637237879292,0.9481758385719631,-0.024489053322732934,0.6743056963292284,0.004030825291903578,1.1000548881770762,-0.05564083333212843,0.18329896985594307,-0.16860976222193882,1.4495158537627948,0.1471279493468497,55.46147966384888,0.1513994932174682,0.0314714685082435,0.5599833130836487,,,,,,,,0.6910154249343992,0.6692437977628405,0.6636811336783632,0.7183333740425828,107500.0,110300.0,108300.0,112800.0,55.46147966384888,0.6201237799955691,0.010628400707022272,-0.0223269832606786,0.1277029515846935,7.318341492506504,-0.17665691851631002,9.428953524368648,55.46147966384888,0.2109510527921402,-2.9473523649288753e-05,0.49997842086440636,0.0,0.0,0.0,1.0,0.0,1.402386978473882e-18,-9.568369488545757e-19,1.4861352631578948,3.368421052631582e-05,-7.947368421052609e-05,0.0,0.0,0.0,55.47265005111694,3.552000045776367,False,True,False,True,True,False,False,1895.524426577777,3593421.6777805947,1936.5197779340806,3750353.586813319,1886.5683486517164,3560183.1055219993,1974.6158367799003,3898972.498665506,0.011868125106249513,0.6452737940501878,-0.0281080376036122
34,278,0.3399999999999999,0.14881078033149403,0.02797501525066766,0.5876588498401907,0.005741415028068464,0.32425216217058594,-0.010427242928128088,0.9458957892316116,-0.020957213908455716,0.6891140445640582,0.004154334866466889,1.1718941008471218,-0.057615450010737534,0.17830924864174275,-0.18173738027396202,1.2796706162119789,0.15058509580889373,55.47265005111694,0.1630161851644516,0.0310487113893032,0.5618988275527954,,,,,,,,0.6830078902061822,0.6544607990033192,0.7004404602431442,0.6849930184075763,109100.0,109100.0,106000.0,112800.0,55.47265005111694,0.5017893641674128,0.004131956181475383,-0.012549385171495004,0.00936825717877219,7.257916996561995,-0.18040381345275547,9.003375175784463,55.47265005111694,0.2109510527921402,-2.9473523649288753e-05,0.49997842086440636,0.0,0.0,0.0,1.0,0.0,1.402386978473882e-18,-9.568369488545757e-19,1.4861352631578948,3.368421052631582e-05,-7.947368421052609e-05,0.0,0.0,0.0,55.47265005111694,3.572999954223633,False,True,False,True,True,False,False,1895.752931265285,3593841.1292288397,1901.4646216236022,3615672.0742652584,1856.7675272142146,3448087.4067422785,1957.4520809717071,3831503.4175602435,0.011878281335643295,0.6593514394034901,-0.022721932487463372
35,279,0.35000000000000014,0.16055049312754058,0.02738016495450592,0.5895142101210952,0.005341921990354745,0.33024415979652355,-0.007477088592268876,0.9438508102109785,-0.013769057311205025,0.7022219695561797,0.005819881345942433,1.2437821655070518,-0.059016520725012886,0.16797331870224902,-0.17745439446920805,1.072759846118485,0.11605682052293213,55.48129057884216,0.175375685095787,0.0305393375456333,0.5635751485824585,,,,,,,,0.6707736040603218,0.6408648231627507,0.6987043214671103,0.6787061439267255,109100.0,106800.0,106400.0,109500.0,55.48129057884216,0.4521795353257919,0.0031176445809539127,-0.0010029138678949463,-0.04024200958413103,7.197294351864459,-0.18434655936952998,8.673491554410878,55.48129057884216,0.2109510527921402,-2.9473523649288753e-05,0.49997842086440636,0.0,0.0,0.0,1.0,0.0,1.402386978473882e-18,-9.568369488545757e-19,1.4861352631578948,3.368421052631582e-05,-7.947368421052609e-05,0.0,0.0,0.0,55.47265005111694,3.572999954223633,False,True,False,True,True,False,False,1894.3899488412953,3589049.3523806143,1862.3404703886533,3467922.618900458,1855.5503144737118,3442156.74261711,1920.5337116442615,3689101.3467655573,0.011888702362272628,0.6734670974769675,-0.009204599766187175
36,280,0.3600000000000004,0.17300601592413498,0.026824358699608794,0.5912995339980998,0.004985805264864724,0.33527318515736043,-0.004032733883619432,0.9420991296661531,-0.0052738980344833285,0.713282007813665,0.008080330893887223,1.3149537975131977,-0.05965005126078262,0.15448329339189532,-0.16409386425066794,0.8136271207348217,0.06065281968109009,55.4913330078125,0.188504472374916,0.0301627181470394,0.5652570128440857,,,,,,,,0.6879027451348836,0.5896587370410354,0.6275385244391509,0.6946374104884043,106800.0,104500.0,106400.0,107900.0,55.4913330078125,0.5194524872419448,0.025675504614702593,0.007599494591299538,0.02703087380927563,7.114772222977755,-0.10297152201970672,8.45955606474351,55.4913330078125,0.2619510527921402,-2.9473523649288753e-05,0.49997842086440636,0.0,0.0,0.0,1.0,0.0,1.402386978473882e-18,-9.568369488545757e-19,1.618135263157895,3.368421052631582e-05,-7.947368421052609e-05,0.0,0.0,0.0,55.51222586631775,3.572999954223633,False,True,False,True,True,False,False,1884.1430662526,3550499.8991706707,1827.104007730128,3338363.1260055057,1854.8728848449891,3440652.0243890444,1878.630079428947,3529281.231147712,0.009187866052587744,0.6847901299686531,-0.014630043031692866
37,281,0.37000000000000016,0.18616913749016817,0.026300025618933527,0.5929873043904766,0.004595854543757612,0.3391464167472556,-0.0011297996396251336,0.9407216961893053,0.0018258237014311296,0.7218400514029921,0.009797870892009774,1.3851706451407992,-0.05989804651747914,0.14002732131565968,-0.15271226290440354,0.49669832543527614,0.0016663649700680988,55.504337787628174,0.2020415365695953,0.0295234359800815,0.5666763782501221,,,,,,,,0.6855576794280418,0.570270177983683,0.6202873531218849,0.6674487321446992,109100.0,102700.0,104900.0,106400.0,55.504337787628174,0.6485781369855453,0.05547679807666634,0.012946886985223742,0.15615669671777416,6.984695475510566,0.010204872614874745,8.221924844727425,55.504337787628174,0.2619510527921402,-2.9473523649288753e-05,0.49997842086440636,0.0,0.0,0.0,1.0,0.0,1.402386978473882e-18,-9.568369488545757e-19,1.618135263157895,3.368421052631582e-05,-7.947368421052609e-05,0.0,0.0,0.0,55.51222586631775,3.572999954223633,False,True,False,True,True,False,False,1888.0580111983238,3565063.785297192,1788.068793967906,3197537.540313632,1827.27418786594,3340044.4434875995,1857.6114604846803,3450211.514252601,0.009191264943783837,0.6904642540351734,-0.0010834205776693755
38,282,0.37999999999999995,0.20001199678175507,0.025796251135762775,0.5945530403622032,0.004104193232984484,0.3416735497686571,0.0004735677922318756,0.9398096172735931,0.0055131622698703295,0.7274333488045076,0.010077179318171838,1.4546345045513527,-0.060330959147468624,0.12480622548224274,-0.14665282455313008,0.13961057895208245,-0.04919657293875135,55.51222586631775,0.2020415365695953,0.0295234359800815,0.5666763782501221,,,,,,,,0.6392650197578003,0.5943151142518902,0.6704733937219272,0.6176956921310003,107900.0,100000.0,103100.0,105600.0,55.51222586631775,0.722152809004011,0.059955354687577705,0.01616571629773132,0.22973147915454417,6.816853444678513,0.057127122934146096,7.898441063783169,55.51222586631775,0.2619510527921402,-2.9473523649288753e-05,0.49997842086440636,0.0,0.0,0.0,1.0,0.0,1.402386978473882e-18,-9.568369488545757e-19,1.618135263157895,3.368421052631582e-05,-7.947368421052609e-05,0.0,0.0,0.0,55.51222586631775,3.609999895095825,False,True,False,True,True,False,False,1888.3730012622939,3565988.087900073,1750.2160896613136,3063109.53148639,1810.810377161773,3278413.7187202564,1845.6435881231014,3406410.4533686303,0.00919648280624801,0.6989921296742688,0.007051801194538479
39,283,0.3900000000000002,0.21448809791097367,0.02530375776000202,0.5959697998818339,0.003475048177529807,0.3426991887991345,0.0005878969577112345,0.9394385793726729,0.005244495049080711,0.7296888241827123,0.008617363732545324,1.5231608727668824,-0.06118637700867538,0.10735665884445722,-0.13902486076403162,-0.22213224561876505,-0.08133750855336007,55.52476263046265,0.2314694821834564,0.0284656099975109,0.569288432598114,,,,,,,,0.6095357398346433,0.5873423435125913,0.6496469385275072,0.6193041125807053,106400.0,99000.0,104200.0,104500.0,55.52476263046265,0.6765919440443778,0.036593681056043624,0.01521071001983209,0.18417058347638007,6.613517917945092,0.03967828423301207,7.593959068185757,55.52476263046265,0.3179510527921402,-2.9473523649288753e-05,0.49997842086440636,0.0,0.0,0.0,1.0,0.0,1.402386978473882e-18,-9.568369488545757e-19,1.729135263157895,3.368421052631582e-05,-7.947368421052609e-05,0.0,0.0,0.0,55.54129505157471,3.609999895095825,False,True,False,True,True,False,False,1858.5030448373527,3454101.548678995,1724.5136159792692,2973853.570023625,1810.7094380037806,3278140.663147431,1819.418613551608,3310736.6835198603,0.006484488063577637,0.6989868579997691,0.004339822626675921
40,284,0.39999999999999997,0.22954145102574733,0.024818243810832395,0.5972084415976299,0.0027197825905003136,0.3421226431262882,-0.0003534875397116789,0.9396513049474801,0.0021222219307566958,0.7283840979085625,0.005823046866487544,1.5895627957796785,-0.062052176274074486,0.08660367395075272,-0.12197845098931859,-0.5635182304440923,-0.08497212084129725,55.532360553741455,0.2314694821834564,0.0284656099975109,0.569288432598114,,,,,,,,0.618529826104088,0.5621519469850316,0.5820239800192994,0.6512718738864702,104200.0,98000.0,102400.0,102700.0,55.532360553741455,0.5615538758603138,0.01791114073867264,0.0074568455210864085,0.06913244988227128,6.365768742032455,0.02060821116883676,7.396681434475362,55.532360553741455,0.3179510527921402,-2.9473523649288753e-05,0.49997842086440636,0.0,0.0,0.0,1.0,0.0,1.402386978473882e-18,-9.568369488545757e-19,1.729135263157895,3.368421052631582e-05,-7.947368421052609e-05,0.0,0.0,0.0,55.54129505157471,3.609999895095825,False,True,False,True,True,False,False,1818.2173113042331,3305580.3516136175,1710.2228696316106,2925006.4565815567,1779.930959274055,3170041.091649002,1794.7296045530727,3220923.323556146,0.00648444756691464,0.6989824927152702,-0.0010840206878048844
41,285,0.4100000000000002,0.24512029929909887,0.02434088452759209,0.5982428484769459,0.001896807322780673,0.3398993173200789,-0.0015210111164018626,0.9404586874140237,-0.0016807994297366581,0.7234511730348299,0.002599934117107997,1.6521453584675312,-0.06205100784210037,0.06308175005497907,-0.0988747160141169,-0.8910051140724429,-0.06065699489735645,55.54129505157471,0.2798157930374145,0.0272024106234312,0.571811318397522,,,,,,,,0.6214655381900447,0.5731947321328792,0.5652431344032123,0.6468162014533663,103100.0,97100.0,98000.0,102400.0,55.54129505157471,0.4641062602874203,0.02557027112554393,-0.004114227454494296,-0.028315181004353866,6.106231667086634,0.017527539297577825,7.276009912006044,55.54129505157471,0.3179510527921402,-2.9473523649288753e-05,0.49997842086440636,0.0,0.0,0.0,1.0,0.0,1.402386978473882e-18,-9.568369488545757e-19,1.729135263157895,3.368421052631582e-05,-7.947368421052609e-05,0.0,0.0,0.0,55.54129505157471,3.609999895095825,False,True,False,True,True,False,False,1795.9075511234648,3225454.29239324,1698.7645864773594,2885750.99502643,1730.745705171435,2995886.576701592,1791.0134100034634,3207438.870287062,0.0037711133520972216,0.693296431330793,-0.006505376814697332
42,286,0.42,0.261189485322854,0.023876093170115954,0.5990563116958988,0.00109408923527697,0.3360255905994048,-0.0020956693420679092,0.9418498891018011,-0.003988467058762444,0.7149268124971154,-7.594981202019334e-05,1.7101164209307858,-0.060525773232187136,0.038013179725240875,-0.08429307257494552,-1.2297483758003576,-0.025323288955274578,55.5525496006012,0.2798157930374145,0.0272024106234312,0.571811318397522,,,,,,,,0.6026404959716556,0.5880826312791105,0.5898600370527538,0.6099659432562403,102400.0,96800.0,99000.0,102700.0,55.5525496006012,0.4039468868723282,0.042298999609431606,-0.011616293075281479,-0.08847453085602015,5.87919485565639,0.011677911886886721,7.1844203812654825,55.5525496006012,0.3179510527921402,-2.9473523649288753e-05,0.49997842086440636,0.0,0.0,0.0,1.0,0.0,1.402386978473882e-18,-9.568369488545757e-19,1.729135263157895,3.368421052631582e-05,-7.947368421052609e-05,0.0,0.0,0.0,55.54129505157471,3.615000009536743,False,True,False,True,True,False,False,1791.1799357920065,3208387.9675186914,1683.624263221374,2834576.5669613564,1707.5074731035966,2914784.622411699,1784.6722191547226,3185415.7459336305,0.0010596431686826502,0.6847842977377824,-0.011920536658201548
43,287,0.4300000000000002,0.2777362369597099,0.02342782477035021,0.5996456632333681,0.00040118277934379033,0.3305183353184571,-0.0016459974195179574,0.9437980503069439,-0.0036209073946006335,0.7028789753619983,-0.0015869832364819871,1.7645667667250002,-0.05769299121814386,0.011824081844246754,-0.0887030751018603,-1.5918548624238298,-0.003043436220303071,55.56401968002319,0.2968888580799103,0.0267179273068904,0.5724639296531677,,,,,,,,0.5830431688800434,0.5739687973641425,0.6111850185946124,0.5860661476196489,102000.0,95200.0,96500.0,100300.0,55.56401968002319,0.34253834656683313,0.038689242725687134,-0.009852830689808897,-0.14988305334328236,5.662991399257631,0.004359129510013767,7.122020484049141,55.56401968002319,0.3779510527921402,-2.9473523649288753e-05,0.49997842086440636,0.0,0.0,0.0,1.0,0.0,1.402386978473882e-18,-9.568369488545757e-19,1.8111352631578947,3.368421052631582e-05,-7.947368421052609e-05,0.0,0.0,0.0,55.57111597061157,3.615000009536743,False,True,False,True,True,False,False,1781.6078589164713,3173640.664435061,1666.0280434750257,2775773.3498321245,1695.8578032425487,2876656.39645197,1755.033173316704,3080681.8703009347,0.0010588808595051488,0.6734619066348888,-0.0010822315895791413
44,288,0.44,0.2947670516020947,0.022996416413988176,0.6000212579742907,-0.00011743711769015446,0.32340400787618206,-0.00028232376296941466,0.9462609334593913,-0.0008083051260414549,0.6873512086469586,-0.0018778625452586658,1.8177540494748614,-0.0546001701167808,-0.015708531582025037,-0.10352563846135923,-1.961552712942737,-0.007527968126341163,55.57111597061157,0.3148674368858337,0.0263022128492593,0.5727855563163757,,,,,,,,0.5731095566107818,0.5638200380035743,0.6254314268263867,0.587227884393809,100700.0,94600.0,96500.0,98400.0,55.57111597061157,0.27346515709976577,0.01077979854857166,-0.0009364669130122595,-0.21895624572478856,5.408063425373204,0.008855765212215514,7.094443060619081,55.57111597061157,0.3779510527921402,-2.9473523649288753e-05,0.49997842086440636,0.0,0.0,0.0,1.0,0.0,1.402386978473882e-18,-9.568369488545757e-19,1.8111352631578947,3.368421052631582e-05,-7.947368421052609e-05,0.0,0.0,0.0,55.57111597061157,3.615000009536743,False,True,False,True,True,False,False,1749.1386433088783,3060079.90762344,1649.4433048547403,2720694.9078250444,1679.033706881699,2819357.5614998536,1720.623132164149,2959952.5465919306,0.0010579472824527045,0.6593429816989349,0.0016237679397780808
45,289,0.45000000000000023,0.3122972872252289,0.022577849008204046,0.6002016860099889,-0.00044026762264459196,0.3147245457275544,0.001467412893977784,0.949181812499799,0.0031289400648811224,0.6683564308860921,-0.0013660823183070843,1.8710905574498544,-0.05237220083781386,-0.04399759359555138,-0.1054180394846707,-2.309345170303561,-0.03283407493983096,55.58372378349304,0.332705944776535,0.0259241908788681,0.5728268027305603,,,,,,,,0.5769469575995281,0.5737028229628933,0.6357540129328724,0.587288012806823,97400.0,93500.0,96200.0,97400.0,55.58372378349304,0.25001579485413267,-0.019736530081033293,0.008700698573847466,-0.2424056176001084,5.1328269467488665,0.023819791749954845,7.104273852272509,55.58372378349304,0.3779510527921402,-2.9473523649288753e-05,0.49997842086440636,0.0,0.0,0.0,1.0,0.0,1.402386978473882e-18,-9.568369488545757e-19,1.8111352631578947,3.368421052631582e-05,-7.947368421052609e-05,0.0,0.0,0.0,55.57111597061157,3.615000009536743,False,True,False,True,True,False,False,1709.960856956045,2924326.4503063764,1633.3320756260541,2667626.194644546,1684.4684605679017,2837185.6442344906,1692.7552324392261,2865307.740079812,-0.0016451161631976542,0.6396370432141061,0.00162181409329942
46,290,0.46,0.33033897712181737,0.022166119398180858,0.6002035692981875,-0.0005969107875333272,0.3045534429004038,0.0029624636186866547,0.9524904555555033,0.006567684638494719,0.6459237932186997,-0.0006655496410911508,1.9238109383730153,-0.05141563305611444,-0.07115614238877645,-0.07918014740776684,-2.6151890397373423,-0.059884409979119174,55.59129238128662,0.3512990474700928,0.0254470482468605,0.5726799964904785,,,,,,,,0.5945854649452027,0.5831820929288882,0.6329481244891053,0.5729103646176337,97100.0,93500.0,98700.0,95200.0,55.59129238128662,0.32164594646727707,-0.03316252989046463,0.013654303259796035,-0.17077546899128565,4.897205972015817,0.040927706314320265,7.172966384988714,55.59129238128662,0.4379510527921402,-2.9473523649288753e-05,0.49997842086440636,0.0,0.0,0.0,1.0,0.0,1.402386978473882e-18,-9.568369488545757e-19,1.858135263157895,3.368421052631582e-05,-7.947368421052609e-05,0.0,0.0,0.0,55.61725234985352,3.609999895095825,False,True,False,True,True,False,False,1691.172693746526,2859728.89173152,1625.511826343667,2642218.7933323556,1714.1795535810452,2938717.6052772645,1665.2446630488057,2773635.693152177,-0.0016432269405830364,0.6200116494136632,0.009716015109325933
47,291,0.47000000000000025,0.3488939684116564,0.02175743684189556,0.600030379036243,-0.0006644180897544425,0.2930069927323917,0.003764243113685173,0.9561026572666259,0.008383373416328931,0.6201726609225731,-0.0002975022489178498,1.9737011087014154,-0.051181795050007015,-0.09536465915818305,-0.036231996775248965,-2.8776511763709385,-0.07228586057394809,55.6015248298645,0.3898461163043976,0.0247619841247797,0.5721312761306763,,,,,,,,0.6079481100649506,0.5858166774890349,0.6120694974481824,0.5694304741093656,97100.0,92900.0,98400.0,94300.0,55.6015248298645,0.47215468419714735,-0.03008953097069183,0.012072346540968483,-0.020266728132163084,4.698442946626811,0.052457380735109874,7.310981648575062,55.6015248298645,0.4379510527921402,-2.9473523649288753e-05,0.49997842086440636,0.0,0.0,0.0,1.0,0.0,1.402386978473882e-18,-9.568369488545757e-19,1.858135263157895,3.368421052631582e-05,-7.947368421052609e-05,0.0,0.0,0.0,55.61725234985352,3.609999895095825,False,True,False,True,True,False,False,1689.150206177931,2853287.9973278847,1634.2506321371898,2671212.4079452185,1727.2740517433772,2983430.231752254,1648.9834770581197,2719033.871265799,-0.0016408817542048345,0.5948732953605921,0.01239698412072845
48,292,0.48000000000000004,0.3679563769818557,0.021353512414464964,0.599667047684365,-0.0007452253420487631,0.280238312494944,0.0038188904310515635,0.9599225744428824,0.00839871824420395,0.5913697542608254,-0.000512323378139473,2.0191188498550012,-0.05060049058076236,-0.11640450592294543,-0.006774025406867607,-3.105496600302483,-0.06861392495522822,55.61725234985352,0.3898461163043976,0.0247619841247797,0.5721312761306763,,,,,,,,0.6004204970698894,0.5912680474039171,0.6002485463752126,0.5857417555641864,96200.0,94900.0,98400.0,94900.0,55.61725234985352,0.616643783473132,-0.025228896749136368,0.0062236627333412085,0.12422237396273882,4.469068307021593,0.0485309143422822,7.492294867071571,55.61725234985352,0.4379510527921402,-2.9473523649288753e-05,0.49997842086440636,0.0,0.0,0.0,1.0,0.0,1.402386978473882e-18,-9.568369488545757e-19,1.858135263157895,3.368421052631582e-05,-7.947368421052609e-05,0.0,0.0,0.0,55.61725234985352,3.609999895095825,False,True,False,True,True,False,False,1688.1367123852815,2849914.419685278,1643.3783598416712,2700838.7351290807,1709.0759118400356,2920798.3991403175,1649.0984195161923,2719375.603235153,-0.001639674742622262,0.5675071380798044,0.0016164497471370266
