,Unnamed: 0,t,x,y,z,qx,qy,qz,qw,yaw,pitch,roll,vx,vy,vz,wx,wy,wz,ros_timestamp,x_poses,y_poses,z_poses,qx_poses,qy_poses,qz_poses,qw_poses,yaw_poses,pitch_poses,roll_poses,m1_thrust,m2_thrust,m3_thrust,m4_thrust,m1_erpm,m2_erpm,m3_erpm,m4_erpm,ros_timestamp_motors,thrust,torque_roll,torque_pitch,torque_yaw,ax,ay,az,ros_timestamp_image_accel,x_r,y_r,z_r,qx_r,qy_r,qz_r,qw_r,yaw_r,pitch_r,roll_r,vx_r,vy_r,vz_r,wx_r,wy_r,wz_r,ros_timestamp_r,Vbat,can_be_armed,is_armed,auto_arm,can_fly,is_flying,is_tumbled,is_locked,m1_rads,m1_rads2,m2_rads,m2_rads2,m3_rads,m3_rads2,m4_rads,m4_rads2,rx,ry,rz
0,249,3.5298244590411646e-16,0.038914767841514306,-0.029713620548344307,0.5656741615932557,0.00692824401308031,-0.0011338130505761863,-0.00022733593679433175,0.9999753308063322,-9.551584668046614e-05,-0.002522495087991357,0.010656835232816526,0.00022950855843477565,0.06255668911698194,0.0390995055420852,-0.09446780999710146,-0.20683885378093952,-0.038708997695084034,30.35963797569275,0.0430660881102085,-0.0256249513477087,0.537756085395813,,,,,,,,0.5991209166340075,0.5803769017210183,0.6787429794898131,0.6866761370884581,105600.0,100300.0,96200.0,99000.0,30.35963797569275,0.7555484019956782,0.06737805987671426,-0.0036315439991729333,0.2629838372897297,0.059138135412430216,-0.174994932290477,9.912219680126395,30.35907769203186,2.8421213192816348e-05,-0.000224210365754552,0.500065789285459,0.0,0.0,0.0,1.0,0.0,1.402386978473882e-18,-9.568369488545757e-19,0.00017263157894736915,-0.00019684210526315794,0.00019947368421052667,0.0,0.0,0.0,30.35963797569275,3.572999954223633,False,True,False,True,True,False,False,1843.0785867299242,3396938.5717092026,1750.5666518902194,3064486.0787445684,1679.0037017285154,2819053.198006879,1727.881884571918,2985576.7407824574,0.013858962301778615,-0.002406388361130019,-0.00045508646984188046
1,250,0.010000000000000139,0.0386834534307785,-0.029463068757155562,0.5662497231727096,0.0061160619854002014,-0.003641161259452748,-0.00033803747706653625,0.9999746104082531,-0.00033984878173395677,-0.0075434395660359905,0.00903139127393708,-0.0026915282999796473,0.060603737414968314,0.037893297390595757,-0.2083377893971004,-0.43655708174954777,-0.06165412089718052,30.36954689025879,0.0426563434302806,-0.0254752226173877,0.5378965139389038,,,,,,,,0.4854594875425327,0.6703267605297888,0.7839302847964351,0.5730029608523577,101400.0,98700.0,100300.0,99700.0,30.36954689025879,0.7003452672310986,-0.08399151970931845,-0.001189962307733259,0.20778070252514996,0.043360088954577464,-0.2488756298796792,9.861901051961276,30.367149591445923,2.8421213192816348e-05,-0.000224210365754552,0.500065789285459,0.0,0.0,0.0,1.0,0.0,1.402386978473882e-18,-9.568369488545757e-19,0.00017263157894736915,-0.00019684210526315794,0.00019947368421052667,0.0,0.0,0.0,30.35963797569275,3.556999921798706,False,True,False,True,True,False,False,1789.0596604864504,3195800.060039847,1697.0982905165688,2875259.4305882165,1746.4904275622985,3046544.1297140466,1747.2830035474503,3049578.5040947977,0.013859034708944085,-0.005173520508417803,-0.0004550888474745349
2,251,0.019999999999999928,0.038483427164319205,-0.029227458032480502,0.5667318256716689,0.005395424289791091,-0.005391324980165779,-0.0005312317421279868,0.9999707699750666,-0.0007420130179165942,-0.011044673273604973,0.007586765609028219,-0.00546488782761926,0.05900634385681963,0.03711094661237063,-0.2044525857071771,-0.3170693894857467,-0.0757237328005593,30.37938141822815,0.0428784266114234,-0.0249963011592626,0.5383272171020508,,,,,,,,0.4261340359086281,0.8164692385391349,0.8327815491160664,0.4562325389679598,97700.0,98000.0,107900.0,97100.0,30.37938141822815,0.6782466549267895,-0.2259564587285734,-0.0034019052101942064,0.18568209022084076,0.08331494031719155,-0.3012605861376814,9.843353834059524,30.37681007385254,2.8421213192816348e-05,-0.000224210365754552,0.500065789285459,0.0,0.0,0.0,1.0,0.0,1.402386978473882e-18,-9.568369488545757e-19,0.03417263157894737,-0.00019684210526315794,0.00019947368421052667,0.0,0.0,0.0,30.399428606033325,3.556999921798706,False,True,False,True,True,False,False,1678.1037292177764,2819438.97492646,1741.4534867385992,3036062.2358658183,1892.9423419982627,3588171.0542904977,1683.6921175733908,2838223.878628211,0.011091819718059186,-0.007940571042848536,-0.00045508490401132047
3,252,0.03000000000000016,0.03834532869326558,-0.0290224034095461,0.5670506889798735,0.00483143600317314,-0.00561560413336253,-0.0008313830434390958,0.9999722151233001,-0.0013447640754538496,-0.011483865496120512,0.006452446328046823,-0.008321493327728247,0.057737561609740654,0.03860900645255636,-0.09120846277677958,0.26524323316719917,-0.07369910274504869,30.38955020904541,0.0426427274942398,-0.025092976167798,0.5383327007293701,,,,,,,,0.5652039844508188,0.7935312569883431,0.6946842817372217,0.5089650064033489,90100.0,107500.0,114500.0,90900.0,30.38955020904541,0.6646670015898088,-0.2933491072051212,-0.009130439138886226,0.17210243688386023,0.09702366597543263,-0.2621268042980517,9.883265389426558,30.38671898841858,2.8421213192816348e-05,-0.000224210365754552,0.500065789285459,0.0,0.0,0.0,1.0,0.0,1.402386978473882e-18,-9.568369488545757e-19,0.03417263157894737,-0.00019684210526315794,0.00019947368421052667,0.0,0.0,0.0,30.399428606033325,3.556999921798706,False,True,False,True,True,False,False,1587.9575568795115,2520869.1034986516,1862.6578946750506,3475083.549121342,1992.2491168974884,3964272.770698303,1593.8634937810082,2540170.614224503,0.008324718344767888,-0.0107076597426083,-0.00045508460097357014
4,253,0.039999999999999945,0.038289702123176145,-0.02886339670239059,0.5671616459350646,0.004440179315408326,-0.0036897285648192293,-0.0011799105060522493,0.9999826391102811,-0.0020251479090788874,-0.007613647203838392,0.005663452719595471,-0.011486243202788184,0.05651428909152996,0.043421629366005035,0.010132853617283909,1.1241141446398826,-0.05688999385858674,30.399428606033325,0.0427402704954147,-0.0249358359724283,0.5384717583656311,,,,,,,,0.7322718122156613,0.6197176958262125,0.5371847114562965,0.655540498274404,92600.0,110300.0,111100.0,91200.0,30.399428606033325,0.6005111117192182,-0.24034424593194897,-0.012238595802124632,0.10794654701326956,-0.07019652284204218,-0.12580912569064434,10.023720489727381,30.39655351638794,2.8421213192816348e-05,-0.000224210365754552,0.500065789285459,0.0,0.0,0.0,1.0,0.0,1.402386978473882e-18,-9.568369488545757e-19,0.03417263157894737,-0.00019684210526315794,0.00019947368421052667,0.0,0.0,0.0,30.399428606033325,3.556999921798706,False,True,False,True,True,False,False,1624.532245417975,2643054.6011081655,1917.620809386669,3674274.1441749334,1927.5095683453571,3721597.3021997195,1592.74896784441,2535963.657567892,0.008324743824703803,-0.010707692516147626,-0.003222188217812477
5,254,0.050000000000000176,0.038323619031790025,-0.02876092793598252,0.5670548736710339,0.004177172769030986,0.0007186096988782314,-0.0014597803118377296,0.9999899518841174,-0.0025444692450125274,0.001223300943672832,0.005137254494357351,-0.014000534228644355,0.05509254509025695,0.048859747229219055,-0.003665958930233747,1.9278403204549843,-0.0371944871168699,30.409822463989254,0.0432901233434677,-0.0247513391077518,0.538581371307373,,,,,,,,0.6567048478351203,0.5635917538859992,0.6033944016939766,0.6646681845702025,100300.0,105600.0,102400.0,95800.0,30.409822463989254,0.4897174262806564,-0.12068756977374223,-0.008683424149051855,-0.0028471384252923213,-0.39566145854759055,-0.017222988441141562,10.259740312113026,30.4067223072052,0.0020284212131928166,-0.000224210365754552,0.500065789285459,0.0,0.0,0.0,1.0,0.0,1.402386978473882e-18,-9.568369488545757e-19,0.11817263157894736,-0.00019684210526315794,0.00019947368421052667,0.0,0.0,0.0,30.433714628219604,3.572999954223633,False,True,False,True,True,False,False,1726.0821282917,2981093.0055544395,1854.172167310214,3440269.2911805334,1814.621346872008,3294471.1936156685,1665.9085989570751,2777417.0030459464,0.008324154231175942,0.00036069083213762144,-0.0032219600088298616
6,255,0.06000000000000041,0.0384440860375777,-0.02871517397039325,0.5667658927890531,0.003953341478157703,0.007542633891527916,-0.0015562939298689234,0.9999625281551001,-0.002671268853315882,0.014881673151451247,0.0047030877667888615,-0.013301252253003257,0.0532766986310636,0.050328325417729865,-0.11803507789056189,2.440170266360136,-0.026818219791433832,30.41935157775879,0.0439545735716819,-0.0246468242257833,0.5387834310531616,,,,,,,,0.5268406162512744,0.5879518792256697,0.7147820418719958,0.6318449763371083,99000.0,102400.0,104500.0,96800.0,30.41935157775879,0.4255001240991611,-0.0179834817521144,-0.0015541625940482394,-0.06706444060678766,-0.5957249618585335,-0.042492319682542676,10.451780423463093,30.416600704193115,0.0020284212131928166,-0.000224210365754552,0.500065789285459,0.0,0.0,0.0,1.0,0.0,1.402386978473882e-18,-9.568369488545757e-19,0.11817263157894736,-0.00019684210526315794,0.00019947368421052667,0.0,0.0,0.0,30.433714628219604,3.572999954223633,False,True,False,True,True,False,False,1751.4641201840043,3065129.366065694,1787.935241304272,3195739.109852203,1798.9435265392626,3233637.9089963846,1697.2975244441454,2879563.147507471,0.00832497863944489,0.019730989178741026,-0.0032222791055692697
7,256,0.07000000000000019,0.03864867076753599,-0.028713519258326593,0.5663789561009497,0.0036735209222625966,0.016344268597908485,-0.0014201816608392442,0.9998586666184793,-0.0023108315377612563,0.03247793119133159,0.004176978550858085,-0.007099901410803638,0.05085757130293421,0.04675625598582724,-0.2295937470785209,2.642934581364912,-0.027142949995345986,30.41935157775879,0.0439545735716819,-0.0246468242257833,0.5387834310531616,,,,,,,,0.5958205084602762,0.5561509140390934,0.6726913685461415,0.7002086499637484,99000.0,102400.0,104500.0,96800.0,30.41935157775879,0.4626747470195964,0.060817611289011024,0.0026584501917354692,-0.02988981768635241,-0.4438128869709933,-0.14427598471531622,10.43286523553434,30.416600704193115,0.0020284212131928166,-0.000224210365754552,0.500065789285459,0.0,0.0,0.0,1.0,0.0,1.402386978473882e-18,-9.568369488545757e-19,0.11817263157894736,-0.00019684210526315794,0.00019947368421052667,0.0,0.0,0.0,30.433714628219604,3.572999954223633,False,True,False,True,True,False,False,1712.9621954499194,2934514.998932264,1776.7155729811475,3156072.3712824574,1833.0486243391042,3360891.363035046,1677.3345649467387,2812086.185602897,0.00832497863944489,0.019730989178741026,-0.0032222791055692697
8,257,0.07999999999999997,0.03894849040937798,-0.028732382249619808,0.5660115984802334,0.003275815508652083,0.026531724250461866,-0.0011007001981945077,0.9996419984675136,-0.0015730458153871414,0.05283594970447689,0.003433154399681449,0.0036177002043974154,0.04778472750937583,0.04247305503354402,-0.2534880460112841,2.6682528086020048,-0.030440126620480307,30.433714628219604,0.0447807610034942,-0.0245028510689735,0.5389372706413269,,,,,,,,0.681620759724487,0.5931165812722278,0.6576084845288843,0.7174879856839448,98000.0,100000.0,104500.0,96800.0,30.433714628219604,0.5140620997725439,0.1464202205084051,0.0018134980203268383,0.02149753506659513,-0.06390093331190644,-0.18628490639814765,10.225906828323781,30.43652367591858,0.0020284212131928166,-0.000224210365754552,0.500065789285459,0.0,0.0,0.0,1.0,0.0,1.402386978473882e-18,-9.568369488545757e-19,0.11817263157894736,-0.00019684210526315794,0.00019947368421052667,0.0,0.0,0.0,30.433714628219604,3.572999954223633,False,True,False,True,True,False,False,1718.8838388648178,2955441.557356487,1757.244190364625,3089104.3038987503,1828.1607518905462,3342487.4462706563,1705.831826026224,2912086.0752394376,0.008324113514038512,0.04739786447177482,-0.0032219442487916848
9,258,0.0900000000000002,0.03937591909291929,-0.028742830937616527,0.5657799354530096,0.002740711868307606,0.037717014700944386,-0.0007297518805432827,0.9992844353649748,-0.0007424378502617691,0.07520870606724488,0.0024208296361364814,0.014400237166599814,0.04433049349797929,0.04244603970113625,-0.19247104092316092,2.6588349310393875,-0.030486934743499148,30.45024847984314,0.0449913665652275,-0.0246338117867708,0.539008378982544,,,,,,,,0.6195756845463387,0.7254688694584256,0.7566761355448173,0.6101584144736856,101400.0,100000.0,104500.0,102700.0,30.45024847984314,0.45553658580537937,0.20459461833631032,-0.00021860329385540815,-0.03702797890056942,0.2935401972524552,-0.1302370868661132,10.036439601221847,30.450886726379395,0.008028421213192817,-0.000224210365754552,0.500065789285459,0.0,0.0,0.0,1.0,0.0,1.402386978473882e-18,-9.568369488545757e-19,0.24617263157894737,-0.00019684210526315794,0.00019947368421052667,0.0,0.0,0.0,30.46427011489868,3.5309998989105225,False,True,False,True,True,False,False,1765.6459161108737,3117359.9531490807,1731.836166807994,2998103.6482468387,1814.236101638951,3290823.085141396,1781.1794310785183,3173118.2629003944,0.0027884766797426686,0.10266754974491119,-0.00045474960566346465
10,259,0.09999999999999999,0.03998138415717984,-0.028718322607238778,0.5657615639092177,0.0020703796752679702,0.050013168561123894,-0.00046450030781502636,0.998746304492758,-0.00016173072671563915,0.09987574004180545,0.0011249186871780783,0.02183913344604431,0.04098728474688159,0.0469075113692696,-0.1154741385982231,2.697000459451309,-0.0285834158706144,30.45024847984314,0.0449913665652275,-0.0246338117867708,0.539008378982544,,,,,,,,0.5780858143601466,0.7614623946460457,0.7743313836498338,0.5468007737622419,101400.0,100000.0,104500.0,102700.0,30.45024847984314,0.29710711930958966,0.1667066986471923,0.0005593361697727695,-0.19545744539635906,0.5996611620907161,-0.055644137598158214,10.01327161809158,30.450886726379395,0.008028421213192817,-0.000224210365754552,0.500065789285459,0.0,0.0,0.0,1.0,0.0,1.402386978473882e-18,-9.568369488545757e-19,0.24617263157894737,-0.00019684210526315794,0.00019947368421052667,0.0,0.0,0.0,30.46427011489868,3.5309998989105225,False,True,False,True,True,False,False,1771.0352007834322,3136395.422656359,1763.5971780543014,3111458.058179306,1832.861959884056,3359630.517207624,1791.0499006454743,3207907.1640092917,0.0027884766797426686,0.10266754974491119,-0.00045474960566346465
11,260,0.11000000000000022,0.04081912924060199,-0.02864236900117004,0.5659766487877782,0.0012656998454024042,0.06400295223305395,-0.00041688230533643147,0.9979488194885038,-8.42517330760893e-05,0.12807448338424696,-0.00047362050624137863,0.028602318666198036,0.03824931911873816,0.052310435285116585,-0.08650060455701511,2.8096124346125757,-0.029912611683325742,30.46427011489868,0.0470570921897888,-0.0241071339696645,0.5395941734313965,,,,,,,,0.6446353389467048,0.6905974836974456,0.6927883358094558,0.59742470429422,100000.0,105300.0,106000.0,98400.0,30.46427011489868,0.1677122183194104,0.05010537154736153,0.003269928880404729,-0.32485234638653826,0.940773738257888,-0.02867215702668159,10.115450549793394,30.46742057800293,0.008028421213192817,-0.000224210365754552,0.500065789285459,0.0,0.0,0.0,1.0,0.0,1.402386978473882e-18,-9.568369488545757e-19,0.24617263157894737,-0.00019684210526315794,0.00019947368421052667,0.0,0.0,0.0,30.46427011489868,3.5309998989105225,False,True,False,True,True,False,False,1741.6331956984004,3033239.6419565193,1822.0978007379495,3321135.8555164216,1848.4238565462942,3416425.803307148,1727.0957836153452,2984119.7906767405,0.002786993362466718,0.13024878915960697,-0.00045450770371348147
12,261,0.12000000000000001,0.04192823275467582,-0.028513626527883525,0.5663935680393211,0.0003303661211789079,0.08028552544297232,-0.0006062179553251216,0.9967716678168388,-0.0005686721840375262,0.1610784325561337,-0.00238167327218274,0.04251857748287185,0.03641303295228257,0.056735317031253354,-0.11341459597421996,2.978627506352219,-0.03650648899726731,30.46427011489868,0.0470570921897888,-0.0241071339696645,0.5395941734313965,,,,,,,,0.7023811004619683,0.6496873762566031,0.6727802837681838,0.6825475429760481,100000.0,105300.0,106000.0,98400.0,30.46427011489868,0.1529608244764481,-0.039012765600379216,0.004188127182775558,-0.3396037402295006,1.2885482481743846,-0.02942662257939642,10.221664364077245,30.46742057800293,0.008028421213192817,-0.000224210365754552,0.500065789285459,0.0,0.0,0.0,1.0,0.0,1.402386978473882e-18,-9.568369488545757e-19,0.24617263157894737,-0.00019684210526315794,0.00019947368421052667,0.0,0.0,0.0,30.46427011489868,3.5309998989105225,False,True,False,True,True,False,False,1756.228031710469,3084966.071774631,1835.9709950049098,3370683.8562114723,1836.2921745845078,3372530.306781061,1708.7957722733377,2917709.271092896,0.002786993362466718,0.13024878915960697,-0.00045450770371348147
13,262,0.13000000000000025,0.04331983391743929,-0.028346034862907574,0.5669499295264772,-0.0007015328199553685,0.09887596566522606,-0.0009580662574694884,0.9950990570664399,-0.0014671081316276389,0.19897676054668012,-0.004532922244595971,0.06936064231379856,0.03538640407919417,0.06217591011799387,-0.1528788941061837,3.144005593463872,-0.04495299975594606,30.48517727851868,0.0496692955493927,-0.0238160640001297,0.5400428771972656,,,,,,,,0.7135349677005361,0.654194051834665,0.7093269162881038,0.7394215966016473,105300.0,102400.0,103100.0,102000.0,30.48517727851868,0.2215812563350267,-0.03700892474628625,0.0019865911691597416,-0.270983308370922,1.6014438148426813,-0.0251329621549971,10.288465613181339,30.48698401451111,0.019028421213192814,-0.000224210365754552,0.500065789285459,0.0,0.0,0.0,1.0,0.0,1.402386978473882e-18,-9.568369488545757e-19,0.40717263157894734,-0.00019684210526315794,0.00019947368421052667,0.0,0.0,0.0,30.50093030929565,3.509999990463257,False,True,False,True,True,False,False,1821.6450000006125,3319410.9864476956,1812.6508263747476,3286549.6035792027,1829.6202102597904,3349199.598285364,1783.6394329417926,3182888.3865194353,2.3369518014362805e-05,0.19073874731305634,-0.0032128896344548823
14,263,0.14000000000000004,0.04498093572992038,-0.028162874433144167,0.5675775234097747,-0.00174973565143228,0.1189365156775519,-0.0013454927114326866,0.9928994074492123,-0.0025053778574762636,0.24012087675670235,-0.006754901009449896,0.10694872239304935,0.03467776819333561,0.07133111220912731,-0.15826482397142083,3.238380993328849,-0.05048372378340733,30.50093030929565,0.0511942990124225,-0.0236440170556306,0.5402872562408447,,,,,,,,0.7145608804274374,0.6913749370861103,0.7334959036905278,0.7303215496304685,106000.0,104900.0,107900.0,106800.0,30.50093030929565,0.3107186891938365,0.007864449068360901,-0.0010281677963195858,-0.18184587551211226,1.9503187993590425,-0.03799523707515094,10.370532922897866,30.502349376678467,0.019028421213192814,-0.000224210365754552,0.500065789285459,0.0,0.0,0.0,1.0,0.0,1.402386978473882e-18,-9.568369488545757e-19,0.40717263157894734,-0.00019684210526315794,0.00019947368421052667,0.0,0.0,0.0,30.50093030929565,3.509999990463257,False,True,False,True,True,False,False,1865.6126615059306,3479553.5846655914,1794.1998344588196,3219006.372603601,1848.1777604416893,3416402.4814143786,1865.43733669941,3479202.3215652527,-0.00548137459048877,0.2563267426035868,-0.003205002076388579
15,264,0.15000000000000027,0.046896695813156516,-0.027986325194836965,0.5682254975572995,-0.0027114360221054947,0.13908531022145793,-0.0016461154292429661,0.9902753227760916,-0.003405658694476337,0.2817383762272191,-0.008819873778367137,0.14743677043257375,0.03375121759716422,0.08400588586993513,-0.12471380510620873,3.243084996099814,-0.05213532277366346,30.509755849838257,0.0533944927155971,-0.0235585365444421,0.5407471060752869,,,,,,,,0.7186247209079648,0.7479282153855972,0.7475955605191087,0.6932740552191968,107100.0,102000.0,106400.0,107900.0,30.509755849838257,0.41822419616230383,0.020681741399440977,-0.002258052314612116,-0.07434036854364509,2.390598870255041,-0.0828116508258856,10.508070275639128,30.506648540496823,0.019028421213192814,-0.000224210365754552,0.500065789285459,0.0,0.0,0.0,1.0,0.0,1.402386978473882e-18,-9.568369488545757e-19,0.40717263157894734,-0.00019684210526315794,0.00019947368421052667,0.0,0.0,0.0,30.50093030929565,3.509999990463257,False,True,False,True,True,False,False,1858.8424965563604,3455421.377837886,1806.690043064636,3264540.5981332697,1879.6620036097415,3532886.8721389454,1878.5299185861638,3528817.578924063,-0.005473195855553137,0.28892307998808675,-0.003200219906876497
16,265,0.16000000000000006,0.049080039726872915,-0.027827061341847113,0.5688772881474704,-0.0035126949403502554,0.15805158617271828,-0.0017852963907794765,0.98742299436429,-0.003989210890663926,0.32125997020905356,-0.010555777977089105,0.18519122918880154,0.03253502423156212,0.09732112753960387,-0.08977739496219636,3.200108118088161,-0.05329291914713678,30.519676446914676,0.055665485560894,-0.0233598165214061,0.5412107110023499,,,,,,,,0.7511669060463382,0.7412448587794498,0.7341467115805509,0.7214080015424648,106000.0,106400.0,109500.0,106000.0,30.519676446914676,0.5686989149240402,0.0011465120964585778,-0.0015209914901194348,0.07613435021809133,2.8550846405117962,-0.10294902219144784,10.653380538564843,30.518102407455444,0.03502842121319282,-0.000224210365754552,0.500065789285459,0.0,0.0,0.0,1.0,0.0,1.402386978473882e-18,-9.568369488545757e-19,0.5821726315789474,-0.00019684210526315794,0.00019947368421052667,0.0,0.0,0.0,30.529561042785645,3.509999990463257,False,True,False,True,True,False,False,1852.8772003906738,3433027.7419459233,1851.6605811969903,3430605.4653517287,1909.1200140845444,3645523.523870102,1854.8414452893278,3440874.314223061,-0.008208904640215548,0.31866735585813855,-0.003195343409608223
17,266,0.1700000000000003,0.05158958630362895,-0.027679117323323735,0.5695548378948757,-0.004148263488138116,0.17519732487984832,-0.0017524897592206849,0.984523040890675,-0.004224785100012617,0.3573942888832434,-0.011937498669387151,0.2214858222847368,0.03157095150276399,0.1082000032926346,-0.0909247041788454,3.161800000340194,-0.057536387328132245,30.529561042785645,0.05829543992877,-0.0231325402855873,0.5416354537010193,,,,,,,,0.7806535677789144,0.7011436955307098,0.7297243340076645,0.7788658736817458,107900.0,107900.0,110300.0,106800.0,30.529561042785645,0.7111811817307532,0.0010119461797900037,-0.0004474525597130588,0.21861661702480434,3.2534597253978728,-0.04540894241220987,10.75820436397408,30.526927947998047,0.03502842121319282,-0.000224210365754552,0.500065789285459,0.0,0.0,0.0,1.0,0.0,1.402386978473882e-18,-9.568369488545757e-19,0.5821726315789474,-0.00019684210526315794,0.00019947368421052667,0.0,0.0,0.0,30.529561042785645,3.499000072479248,False,True,False,True,True,False,False,1887.549829812131,3563397.412188687,1878.1640528198789,3527226.286796353,1915.8508438071087,3670642.307510292,1861.6547970314991,3465638.2594173104,-0.008195236487002825,0.34827104061618447,-0.0031900230355505405
18,267,0.18000000000000008,0.05452219798258003,-0.027522499098066935,0.5703073273852424,-0.004680033515285561,0.1906040667410068,-0.0015973845992703157,0.981654539739173,-0.004228023808470446,0.39032444066608246,-0.01309675510234977,0.2618958859473474,0.03155741582005621,0.11531528064020714,-0.12511736779492272,3.1392799735111305,-0.06444797090799814,30.539227962493896,0.0614670142531394,-0.0229303538799285,0.5422632694244385,,,,,,,,0.7441596841888001,0.7310982293476596,0.7904830661708087,0.7766039008025174,110700.0,107100.0,109500.0,108700.0,30.539227962493896,0.713947948707927,0.03594663075308884,-0.0005780602742955674,0.22138338400197827,3.599301999563278,0.05282878644236165,10.853486505079537,30.536848545074463,0.03502842121319282,-0.000224210365754552,0.500065789285459,0.0,0.0,0.0,1.0,0.0,1.402386978473882e-18,-9.568369488545757e-19,0.5821726315789474,-0.00019684210526315794,0.00019947368421052667,0.0,0.0,0.0,30.529561042785645,3.499000072479248,False,True,False,True,True,False,False,1925.2066114498043,3706694.886991596,1864.6794373756666,3476039.159505952,1913.1367428309013,3659234.7706763186,1898.2315290865981,3603625.3839562414,-0.008179021315257615,0.380390683827325,-0.003183711226065279
19,268,0.1900000000000003,0.057982319897290836,-0.027331628106020817,0.5711893125627618,-0.005196806994773176,0.2047828207629582,-0.0014185214792007046,0.9787926120043196,-0.004234999868596452,0.42111952591650326,-0.014252082414614857,0.3106376907982029,0.03271927377309047,0.11992826597902773,-0.1526507346787572,3.102354637511824,-0.06954299380912705,30.54992914199829,0.0650869160890579,-0.0227271281182765,0.5429782271385193,,,,,,,,0.7140530238138478,0.7521390905261844,0.8097895176866019,0.7702953068247615,109900.0,106400.0,110700.0,110300.0,30.54992914199829,0.5097727160776657,0.06987869317579427,-0.0023170089699228505,0.017208151371717023,3.983006217153752,0.11516104272046707,10.960190795116153,30.546733140945435,0.05802842121319282,-0.000224210365754552,0.500065789285459,0.0,0.0,0.0,1.0,0.0,1.402386978473882e-18,-9.568369488545757e-19,0.7731726315789474,-0.00019684210526315794,0.00019947368421052667,0.0,0.0,0.0,30.55944538116455,3.499000072479248,False,True,False,True,True,False,False,1923.2790727695879,3698696.432503157,1875.256469635673,3517990.85472288,1944.4961887403897,3782122.764780611,1923.9932604552987,3701263.2903366457,-0.010891638940700346,0.409658869074035,-0.003177455970388819
20,269,0.2000000000000001,0.06204546866315376,-0.027084943481021893,0.5722370440345126,-0.005763060508627096,0.21827464461438018,-0.0013490350767726444,0.9758694312029665,-0.004562545259740305,0.4508973165404626,-0.015608790963438273,0.3677695605810768,0.03472169660939692,0.12524869807306407,-0.13914277176552006,3.016177269661113,-0.06817147422546961,30.55944538116455,0.0686682909727096,-0.0220313947647809,0.5436881184577942,,,,,,,,0.7699345867836375,0.6961577199731459,0.7307347196688407,0.8152354129519392,110300.0,110300.0,114100.0,111500.0,30.55944538116455,0.23045854593973764,0.07324852387536995,-0.005009665426744902,-0.2621060187662109,4.43664454617493,0.11701879369884383,11.026473953016655,30.556400060653687,0.05802842121319282,-0.000224210365754552,0.500065789285459,0.0,0.0,0.0,1.0,0.0,1.402386978473882e-18,-9.568369488545757e-19,0.7731726315789474,-0.00019684210526315794,0.00019947368421052667,0.0,0.0,0.0,30.55944538116455,3.499000072479248,False,True,False,True,True,False,False,1919.1982249007424,3682798.788375941,1912.1115027733354,3657283.3193424623,1978.588240178107,3915285.8152314248,1943.7316158158442,3777872.3104241216,-0.010868783584894974,0.43875180738779573,-0.0031707882974008937
21,270,0.21000000000000033,0.06673730294227669,-0.026771487352810576,0.5734521381108912,-0.006386046181831008,0.23138336960016204,-0.0015345030667539392,0.9728404802365989,-0.005549682577168492,0.48024347815042434,-0.01728176982981653,0.4304613073058711,0.03718254101153194,0.13381483987741677,-0.08949584651637307,2.873555344379799,-0.0593014379207319,30.569599151611328,0.0733263865113258,-0.0219263862818479,0.5451792478561401,,,,,,,,0.8110866554906707,0.6939099945110543,0.7054175925357131,0.8278412843224614,111500.0,109900.0,112800.0,112800.0,30.569599151611328,0.12422369372776162,0.052012414416396674,-0.007775075079487269,-0.3683408709781871,4.892932959860048,0.0999759579614059,11.027238927485396,30.56710124015808,0.05802842121319282,-0.000224210365754552,0.500065789285459,0.0,0.0,0.0,1.0,0.0,1.402386978473882e-18,-9.568369488545757e-19,0.7731726315789474,-0.00019684210526315794,0.00019947368421052667,0.0,0.0,0.0,30.55944538116455,3.4830000400543213,False,True,False,True,True,False,False,1957.852696779692,3834375.107333747,1908.0289586671229,3639927.087755311,1963.488360959136,3855489.840233707,1979.176510054424,3917885.8923109137,-0.013561306297673624,0.4676547033073125,-0.0031636871823594046
22,271,0.2200000000000001,0.07203982725535246,-0.026392882558493178,0.5748011108319031,-0.007014581824971868,0.2441301442688185,-0.002097409723910134,0.969714839101453,-0.00747132225672224,0.5090933222753226,-0.019265043347388294,0.4956753570238195,0.04007970761254977,0.14487909981766423,-0.039226717077251574,2.7021604144024813,-0.045479313120520254,30.57962989807129,0.0786653906106948,-0.0216253884136676,0.5464110970497131,,,,,,,,0.7656698368050696,0.7585959646799272,0.7600553496177759,0.7835457823192737,115400.0,107500.0,110700.0,115800.0,30.57962989807129,0.3026226772254975,0.024243077534009543,-0.010233317370369945,-0.1899418874804513,5.307124003983189,0.12402658390274698,11.00680595725272,30.57661747932434,0.0880284212131928,-0.000224210365754552,0.500065789285459,0.0,0.0,0.0,1.0,0.0,1.402386978473882e-18,-9.568369488545757e-19,0.9671726315789474,-0.00019684210526315794,0.00019947368421052667,0.0,0.0,0.0,30.599771976470947,3.4830000400543213,False,True,False,True,True,False,False,1998.4993650621686,3994215.014604222,1900.9898836534792,3614604.266654712,1953.1840344105717,3815495.163586571,2004.5304110041789,4018420.738036423,-0.01352920269484015,0.49636240764294753,-0.003156197803787574
23,272,0.23000000000000034,0.07791878598382326,-0.02596129608215253,0.5762333316500412,-0.00756431304305707,0.256372293684072,-0.003091521202105846,0.9665435689590053,-0.010431572037740791,0.5369784008051562,-0.021441649088536612,0.5617595016054117,0.04360076211753947,0.15494089324150906,-0.016264934729248667,2.5430140645087835,-0.029368128797459675,30.589470386505127,0.0842248946428299,-0.0213260669261217,0.5471914410591125,,,,,,,,0.7348384583656251,0.7515098733973284,0.7560265056647071,0.778860780067856,113600.0,112400.0,114500.0,113600.0,30.589470386505127,0.6188653915598241,0.0037948928511807797,-0.012392208016665168,0.12630082685387523,5.724970741760631,0.19266222501570177,10.983481905365,30.58677124977112,0.0880284212131928,-0.000224210365754552,0.500065789285459,0.0,0.0,0.0,1.0,0.0,1.402386978473882e-18,-9.568369488545757e-19,0.9671726315789474,-0.00019684210526315794,0.00019947368421052667,0.0,0.0,0.0,30.599771976470947,3.4830000400543213,False,True,False,True,True,False,False,1992.8221663540755,3971481.1451465683,1948.791757749363,3800322.1153739914,1984.3928709139996,3938747.0121953725,1996.812073241344,3987549.4039116353,-0.016206401146578387,0.5196905464118228,-0.008559509140380363
24,273,0.24000000000000013,0.08435300388667288,-0.025494644860064627,0.5777078344489766,-0.007953362652094436,0.26796049973936825,-0.004459625359991332,0.963386748063103,-0.014265401991865783,0.5633866196785776,-0.02361316377130277,0.6283351002658893,0.047728796428138535,0.16113333015660997,-0.01589460918941619,2.413552509389193,-0.01015667148966641,30.599771976470947,0.0904399305582046,-0.0208186451345682,0.5487152338027954,,,,,,,,0.7603397358647743,0.7155210494744946,0.7183087910090983,0.8189067359332027,112800.0,114100.0,114500.0,114100.0,30.599771976470947,0.8349906732423491,0.0022762820746409316,-0.014574578384081821,0.3424261085364003,6.160369027942139,0.2256830936093399,10.924573804966375,30.59680199623108,0.0880284212131928,-0.000224210365754552,0.500065789285459,0.0,0.0,0.0,1.0,0.0,1.402386978473882e-18,-9.568369488545757e-19,0.9671726315789474,-0.00019684210526315794,0.00019947368421052667,0.0,0.0,0.0,30.599771976470947,3.4830000400543213,False,True,False,True,True,False,False,1969.8556105496248,3880282.077535045,1979.2338789977944,3917132.4488058873,1988.9162490549825,3956575.3387235925,1985.930749702356,3943835.728515492,-0.01617208345199098,0.542882514156399,-0.005842226559867027
25,274,0.25000000000000033,0.09134681364708029,-0.025010343447912895,0.579211768329454,-0.008131392502754105,0.27883132921120424,-0.006013383856794454,0.9602868371069501,-0.01849089242626357,0.5880121618006449,-0.025531516276387962,0.6952738531085081,0.05202622479866398,0.1636324229476625,-0.012764694846735133,2.291725438100959,0.01691033747184756,30.6096453666687,0.0975475013256073,-0.0202989000827074,0.5502287149429321,,,,,,,,0.7634759647119598,0.7457363172145164,0.7269478973969692,0.8226927300425393,113200.0,110300.0,110700.0,114500.0,30.6096453666687,0.8560050859207617,0.02056464714336104,-0.01786513527397597,0.3634405212148131,6.51937823479613,0.16704038850107322,10.819555098576112,30.60664248466492,0.12202842121319281,-0.000224210365754552,0.500065789285459,0.0,0.0,0.0,1.0,0.0,1.402386978473882e-18,-9.568369488545757e-19,1.1501726315789473,-0.00019684210526315794,0.00019947368421052667,0.0,0.0,0.0,30.629554510116577,3.49399995803833,False,True,False,True,True,False,False,1966.8226293388943,3868299.5196267157,1949.6425049756415,3801680.790482397,1955.1250175362122,3823073.6335140774,1996.8984189662465,3987537.2830270547,-0.016140232524304424,0.5633640332092095,-0.013912244760049396
26,275,0.2600000000000001,0.09892061016260233,-0.024519215069634625,0.5807594430817076,-0.008092276205882489,0.2890069481499905,-0.007452597407115615,0.9572637869358288,-0.02235434391894612,0.6108092840360033,-0.02693090162789035,0.7623301156660106,0.0557762679627857,0.16468961716868646,0.007909596896251859,2.143441457399706,0.056175025377456944,30.61950945854187,0.1047479063272476,-0.0198601633310318,0.5519018769264221,,,,,,,,0.7383701058709329,0.7637318156978781,0.7195463883884888,0.7995547724025687,112400.0,111900.0,111900.0,115400.0,30.61950945854187,0.7469679895346217,0.04253329165823367,-0.023144362305889926,0.2544034248286732,6.747137646335702,0.0941574957362096,10.690579263705438,30.616944074630737,0.12202842121319281,-0.000224210365754552,0.500065789285459,0.0,0.0,0.0,1.0,0.0,1.402386978473882e-18,-9.568369488545757e-19,1.1501726315789473,-0.00019684210526315794,0.00019947368421052667,0.0,0.0,0.0,30.629554510116577,3.49399995803833,False,True,False,True,True,False,False,1971.0219716829079,3885087.145970056,1936.101759302197,3748568.8023585575,1940.524289471242,3765174.1565789892,2017.3609622867184,4069837.2714585047,-0.01615448958734793,0.5854314292323618,-0.013924533786884795
27,276,0.2699999999999999,0.10709136379268372,-0.024021444217136246,0.5823753249072582,-0.007870446318035634,0.2985382216648677,-0.008431142652879203,0.9543279845595538,-0.02498950177974711,0.6318958309403877,-0.02757052399360999,0.8304250119714431,0.05839474411316419,0.16599189553536903,0.03547261703749539,1.9623673285023067,0.10488766840325292,30.629554510116577,0.1131535321474075,-0.0193107649683952,0.5534337759017944,,,,,,,,0.7284763410192052,0.7434993818959553,0.6997353772957413,0.7889092807838677,112800.0,112400.0,111500.0,116700.0,30.629554510116577,0.5810421184527773,0.051453534073234344,-0.02868068536128253,0.08847755374682872,6.937828409229234,0.11352550523100038,10.548163099611756,30.62681746482849,0.12202842121319281,-0.000224210365754552,0.500065789285459,0.0,0.0,0.0,1.0,0.0,1.402386978473882e-18,-9.568369488545757e-19,1.1501726315789473,-0.00019684210526315794,0.00019947368421052667,0.0,0.0,0.0,30.629554510116577,3.49399995803833,False,True,False,True,True,False,False,1962.9095719947554,3852955.804247045,1965.9416450156891,3864740.7759284964,1936.7809222802393,3751491.3949676324,2033.5889807626768,4135347.308135786,-0.016174833886733634,0.6077656824581328,-0.01664168653443421
28,277,0.28000000000000014,0.11586220886659943,-0.023506029805870472,0.5840735037999489,-0.007526267314019429,0.30744391899712187,-0.008658297598416876,0.9514970445853767,-0.025666476962210704,0.6514042714393924,-0.02729277195004248,0.9028507128797522,0.05983047924214987,0.1673190341547279,0.048793297801092116,1.773034830334291,0.15124970004409133,30.640435218811035,0.1223801970481872,-0.0186694897711277,0.5551700592041016,,,,,,,,0.7186035879696682,0.7514345287067858,0.7400471036879328,0.766388437095,111100.0,114100.0,109100.0,116300.0,30.640435218811035,0.37849849670168867,0.047938838773244855,-0.030455342287437612,-0.1140660680042601,7.186197288946561,0.182010423756583,10.384893512508814,30.63668155670166,0.12202842121319281,-0.000224210365754552,0.500065789285459,0.0,0.0,0.0,1.0,0.0,1.402386978473882e-18,-9.568369488545757e-19,1.1501726315789473,-0.00019684210526315794,0.00019947368421052667,0.0,0.0,0.0,30.629554510116577,3.49399995803833,False,True,False,True,True,False,False,1942.647535879789,3773869.470619796,1990.9980962267116,3964077.3192392164,1923.9918194076113,3702469.637436526,2035.852006152997,4144630.45946077,-0.01619068733166404,0.6245748993525554,-0.01936025938538002
29,278,0.2899999999999999,0.12523433276686327,-0.022954104968512988,0.5858448566553984,-0.007124972254882148,0.3156778440791808,-0.008004069096807186,0.9488059171431116,-0.0240526243503752,0.669360378505747,-0.026078777401234012,0.9829349938222585,0.060589312846574025,0.16729220406520867,0.04159217459594943,1.5958097121357417,0.18077982313806207,30.649254083633423,0.1321092098951339,-0.0181650388985872,0.5568922162055969,,,,,,,,0.7104391107334826,0.7304633092385271,0.7530742137045041,0.745024519936951,110300.0,114100.0,111100.0,116300.0,30.649254083633423,0.19247837964461784,0.04732789927501374,-0.0263792228441779,-0.30008618506133106,7.433214376694847,0.17244040005581537,10.188664032837835,30.646726608276367,0.16402842121319283,-0.000224210365754552,0.500065789285459,0.0,0.0,0.0,1.0,0.0,1.402386978473882e-18,-9.568369488545757e-19,1.3271726315789474,-0.00019684210526315794,0.00019947368421052667,0.0,0.0,0.0,30.65944981575012,3.5309998989105225,False,True,False,True,True,False,False,1921.3431563349027,3691748.0316022905,1995.5759217519237,3982251.284949664,1926.984271015952,3713487.5083863596,2019.0941860501835,4077214.717046716,-0.013501954067347766,0.6414312235099401,-0.01667470624951041
30,279,0.30000000000000016,0.13523950114218508,-0.022345114476645986,0.5876566562208309,-0.006713191051278733,0.32313042785852814,-0.006566752616247675,0.9463078449521332,-0.020379606341846053,0.6856323435126436,-0.024069770702052563,1.0684775091832708,0.061316333112854685,0.16497851009260153,0.030535356533476884,1.4203617574281364,0.18514939053183,30.65944981575012,0.1426631510257721,-0.0173303447663784,0.5587450861930847,,,,,,,,0.7269147982368195,0.6410610206695646,0.6647301251063578,0.7660337969257985,109500.0,113600.0,110700.0,114100.0,30.65944981575012,0.1428882190259611,0.06222905947256055,-0.018861515865593887,-0.34967634567998773,7.570883879634381,0.0840302283167433,9.958380694061626,30.657607316970825,0.16402842121319283,-0.000224210365754552,0.500065789285459,0.0,0.0,0.0,1.0,0.0,1.402386978473882e-18,-9.568369488545757e-19,1.3271726315789474,-0.00019684210526315794,0.00019947368421052667,0.0,0.0,0.0,30.65944981575012,3.5309998989105225,False,True,False,True,True,False,False,1914.330856885525,3664556.7853559903,1976.6345857903816,3906584.094938554,1929.4830103934341,3722743.5098676784,2002.198989809272,4008712.6136210724,-0.013515929608918963,0.6583418008152874,-0.011276419674915454
31,280,0.3100000000000004,0.14597248787719078,-0.021663707034266972,0.58946338441382,-0.006300558463901666,0.32965724083642806,-0.004667685399163168,0.9440681221395893,-0.015429377068112215,0.6999593318731873,-0.021534673125913673,1.1496073514920924,0.06236320049722762,0.16082692075133215,0.03920994118249802,1.2209028868830152,0.16603530279692474,30.66909527778625,0.1537010818719864,-0.0164676550775766,0.5605799555778503,,,,,,,,0.7282732405202019,0.5973424850921492,0.6061560204742666,0.7773743222557175,109900.0,109900.0,107900.0,114500.0,30.66909527778625,0.30186132589698744,0.08544432251499268,-0.012232130799254023,-0.19070323880896115,7.610447490445917,0.030590329221394107,9.729285442221983,30.666426181793213,0.16402842121319283,-0.000224210365754552,0.500065789285459,0.0,0.0,0.0,1.0,0.0,1.402386978473882e-18,-9.568369488545757e-19,1.3271726315789474,-0.00019684210526315794,0.00019947368421052667,0.0,0.0,0.0,30.65944981575012,3.5309998989105225,False,True,False,True,True,False,False,1919.183746724867,3683056.652108524,1921.237995214235,3692328.8974096524,1893.663946950938,3586393.0010579675,1996.3015946992273,3985026.5386985834,-0.013527953705573668,0.6724783172051372,-0.013996633426820457
32,281,0.3200000000000002,0.1575876568908544,-0.02090496239204315,0.5912230893366985,-0.005855916424405477,0.3351177335267842,-0.002759843652483825,0.9421540193523114,-0.010307987806465631,0.7120319108884842,-0.018788480509829623,1.216149624695524,0.06380418105797597,0.15598296703549563,0.07525523443246802,0.9904343413528044,0.1342349552020077,30.67934250831604,0.1658088564872741,-0.0157229714095592,0.562293291091919,,,,,,,,0.6921086953730002,0.6351442158898633,0.6495239503449043,0.7239568349939844,110300.0,106800.0,106400.0,114100.0,30.67934250831604,0.5877529670823367,0.09229163139160226,-0.009251396766211057,0.09518840237638831,7.6397180186365805,0.052830969947169695,9.53782150193918,30.676621913909912,0.21102842121319282,-0.000224210365754552,0.500065789285459,0.0,0.0,0.0,1.0,0.0,1.402386978473882e-18,-9.568369488545757e-19,1.4861726315789474,-0.00019684210526315794,0.00019947368421052667,0.0,0.0,0.0,30.702181816101078,3.5309998989105225,False,True,False,True,True,False,False,1918.2726780900352,3680276.566654689,1863.805112534387,3473679.856963371,1849.463546523395,3420196.264650548,1980.8797823659215,3924675.8271184117,-0.010825600442198578,0.6838135818701755,-0.00587033340879431
33,282,0.32999999999999996,0.1702290510291877,-0.020076569499028238,0.5929110648225995,-0.005322971389968785,0.3394011363441928,-0.0012692193397751625,0.940625814926488,-0.0060563759172045225,0.7215667202042656,-0.01608704099814877,1.2698238861799758,0.06575310070886559,0.15037266370240665,0.12270248724234784,0.7452222479007046,0.10689893472582654,30.689209699630737,0.1783799976110458,-0.0147903058677911,0.5640209317207336,,,,,,,,0.6683274519179823,0.6619290223066299,0.6759954190427825,0.6647172880398347,109100.0,106000.0,106000.0,110700.0,30.689209699630737,0.8178254507618792,0.06857714207649532,-0.01074393416356181,0.3252608860559306,7.6758902056605285,0.09438824292480709,9.33372343143104,30.686267375946045,0.21102842121319282,-0.000224210365754552,0.500065789285459,0.0,0.0,0.0,1.0,0.0,1.402386978473882e-18,-9.568369488545757e-19,1.4861726315789474,-0.00019684210526315794,0.00019947368421052667,0.0,0.0,0.0,30.702181816101078,3.568000078201294,False,True,False,True,True,False,False,1912.2615078571766,3656899.5152312163,1849.7708686076248,3420784.349184334,1847.2524860751907,3412279.3219128503,1949.5216059932095,3800890.5863185464,-0.010833671590957238,0.6951800939009937,0.00226778534708075
34,283,0.3400000000000002,0.18390089912824825,-0.019197984505703137,0.5945237217698761,-0.00465073989571086,0.3424238194800163,-0.0004273187349410789,0.9395339886719578,-0.0032441413524868915,0.7283265827318398,-0.013542170792352827,1.3267478951053675,0.06836770730775805,0.14164579616229125,0.15599534791678335,0.4935330416398285,0.10059071846053012,30.689209699630737,0.1783799976110458,-0.0147903058677911,0.5640209317207336,,,,,,,,0.6676455970899039,0.6501282877050572,0.6304583692907614,0.6612814668272808,109100.0,106000.0,106000.0,110700.0,30.689209699630737,0.8545999619736058,0.03317735915817119,-0.01591452714033791,0.362035397267657,7.647862166929896,0.12066749838668656,9.017071747437164,30.686267375946045,0.21102842121319282,-0.000224210365754552,0.500065789285459,0.0,0.0,0.0,1.0,0.0,1.402386978473882e-18,-9.568369488545757e-19,1.4861726315789474,-0.00019684210526315794,0.00019947368421052667,0.0,0.0,0.0,30.702181816101078,3.568000078201294,False,True,False,True,True,False,False,1901.1177520561978,3613248.4902486866,1852.8363208684088,3433209.976720428,1864.962441646343,3477145.308837007,1917.977478446755,3678096.8393819276,-0.010833671590957238,0.6951800939009937,0.00226778534708075
35,284,0.35,0.19834368143260822,-0.018296953048030935,0.5960709605215588,-0.0038242639539634153,0.3441078837987929,-0.00017582528876560301,0.9389223122272655,-0.0017450826128338796,0.7320952502480008,-0.011101318847916614,1.4027872303689604,0.07142038781618049,0.12669333423672882,0.16195499100867394,0.2152903504735077,0.11948800143424407,30.702181816101078,0.2055617421865463,-0.0129595212638378,0.5671840906143188,,,,,,,,0.6584884911012752,0.6175478540046848,0.5895804201713102,0.6855266859471316,106800.0,105300.0,106400.0,107900.0,30.702181816101078,0.6917524448379512,0.022474695969204386,-0.021208054679432008,0.1991878801320024,7.498918953606229,0.13394944581398655,8.60232694532111,30.706381797790527,0.2620284212131928,-0.000224210365754552,0.500065789285459,0.0,0.0,0.0,1.0,0.0,1.402386978473882e-18,-9.568369488545757e-19,1.6191726315789474,-0.00019684210526315794,0.00019947368421052667,0.0,0.0,0.0,30.72941493988037,3.568000078201294,False,True,False,True,True,False,False,1861.873888792763,3467294.1708921925,1828.0881434986673,3343023.153249846,1836.251075750691,3373058.179070605,1888.6939192191262,3567754.1543106697,-0.008122506179155234,0.7008672271015867,-0.005876880338681142
36,285,0.3600000000000002,0.21301652038901342,-0.017403186027647045,0.5975620972134731,-0.002877248228606972,0.34437415163118357,-0.0001942165519078576,0.9388280606217863,-0.0008116456839469523,0.7326748516486544,-0.008596853234380501,1.495328410416323,0.07415239915525738,0.10446363090201763,0.1491838074794694,-0.11789321143417035,0.14896575432486048,30.71962070465088,0.2202489227056503,-0.0120997484773397,0.5685290098190308,,,,,,,,0.6527474886835689,0.5592411862015509,0.579988734975811,0.6908321039026141,103400.0,101700.0,100000.0,106800.0,30.71962070465088,0.43967189281616037,0.051659639297862714,-0.0211550888285896,-0.05289267188978828,7.254152102693255,0.1232853322455053,8.22525298978274,30.719353914260864,0.2620284212131928,-0.000224210365754552,0.500065789285459,0.0,0.0,0.0,1.0,0.0,1.402386978473882e-18,-9.568369488545757e-19,1.6191726315789474,-0.00019684210526315794,0.00019947368421052667,0.0,0.0,0.0,30.72941493988037,3.568000078201294,False,True,False,True,True,False,False,1805.254107043561,3259653.0470811743,1789.7833672559127,3202971.1689571273,1760.3272693197214,3100979.3546198015,1864.074930292617,3475076.834506391,-0.0054083760661663375,0.7037174383022231,-0.00044663039928662357
37,286,0.37,0.22725161627865154,-0.01653942935757525,0.5989932216884646,-0.0018775787374869558,0.34317261719850994,-3.0315061522042032e-05,0.9392704767979277,0.0006106972008784667,0.7299582161983114,-0.005823448343652102,1.5830021007211783,0.07590134200429322,0.07713538595634517,0.13737978025708555,-0.5083168416128285,0.16597520129068857,30.72941493988037,0.2354569435119629,-0.0110025079920887,0.5698782205581665,,,,,,,,0.6573551241236131,0.5246031132558271,0.5715094824171632,0.6689318003882991,101700.0,101400.0,98000.0,106000.0,30.72941493988037,0.26740459834924035,0.09474049665088057,-0.013060776936258602,-0.2251599663567083,6.976210793608258,0.08526889421703299,7.952868915783063,30.72668719291687,0.2620284212131928,-0.000224210365754552,0.500065789285459,0.0,0.0,0.0,1.0,0.0,1.402386978473882e-18,-9.568369488545757e-19,1.6191726315789474,-0.00019684210526315794,0.00019947368421052667,0.0,0.0,0.0,30.72941493988037,3.5840001106262207,False,True,False,True,True,False,False,1779.8373171282324,3167028.8418574203,1759.5326812661833,3095382.078825254,1708.0801569828561,2916073.5656308522,1850.0594262688442,3421956.53267406,-0.0026926960599069436,0.7037197563256956,0.0022690659508095064
38,287,0.3800000000000002,0.24054321894960903,-0.015712286057479933,0.6003405844024703,-0.0008951134632292862,0.34052873357314367,0.0007330614844111168,0.9402333981537877,0.003492534734611616,0.7240302656031582,-0.002603836497043797,1.6450496045022573,0.07684357989983481,0.04882510045824598,0.13897169387705027,-0.9184931698959973,0.1597556285057711,30.74132513999939,0.2512383162975311,-0.0100584831088781,0.5708723664283752,,,,,,,,0.6395330633708021,0.5674686881913894,0.5832884239357419,0.6326241450101194,102400.0,99000.0,98000.0,104900.0,30.74132513999939,0.31347797123086607,0.10505011960810684,-0.0006375869802886461,-0.17908659347508274,6.682401038037719,0.045488423220301014,7.7268312171233,30.73679280281067,0.2620284212131928,-0.000224210365754552,0.500065789285459,0.0,0.0,0.0,1.0,0.0,1.402386978473882e-18,-9.568369488545757e-19,1.6191726315789474,-0.00019684210526315794,0.00019947368421052667,0.0,0.0,0.0,30.72941493988037,3.5840001106262207,False,True,False,True,True,False,False,1782.7994885176279,3178490.142849218,1725.8415635158954,2979540.6550639593,1703.5908614081918,2902047.2936409144,1830.445644274527,3350827.8736711247,-0.002691681019392098,0.698025149420606,0.0022682106021850476
39,288,0.39,0.25283411091780666,-0.01490675496042555,0.6015589276194172,2.8073046512774837e-05,0.33655160581946375,0.002336638117005073,0.9416621240947065,0.008390282828521669,0.7151779434864762,0.0011609298412415306,1.6790768638257307,0.07789243616178687,0.02342395257853394,0.15118012627826666,-1.2843129500064001,0.14085425156105758,30.749839544296265,0.2677895724773407,-0.0089139062911272,0.5715326070785522,,,,,,,,0.6037548528524228,0.6320054252579222,0.638263391871205,0.5935572662739469,101700.0,96500.0,97100.0,103100.0,30.749839544296265,0.5674024300613344,0.06167105473686811,0.008455316706046087,0.07483786535538549,6.36439777759222,0.022548623828029215,7.506562663305709,30.74658703804016,0.3180284212131928,-0.000224210365754552,0.500065789285459,0.0,0.0,0.0,1.0,0.0,1.402386978473882e-18,-9.568369488545757e-19,1.7301726315789474,-0.00019684210526315794,0.00019947368421052667,0.0,0.0,0.0,30.765289783477783,3.5840001106262207,False,True,False,True,True,False,False,1770.2580800890028,3134568.1901874957,1696.0449409181742,2876821.271873241,1703.9188681721266,2904058.3130830163,1794.7906242871752,3221943.0854696617,2.297175942853088e-05,0.6838167504492966,-0.0004460493139614877
40,289,0.40000000000000024,0.26464530772056294,-0.014087795443043996,0.6025817106832105,0.0008905231789932959,0.3313761044659575,0.00476849909443964,0.943486272170306,0.015261815826120524,0.7037444692388537,0.005451352004714476,1.699751709608264,0.07985727501409111,0.0028236389277760225,0.16295183434214452,-1.5483472297091319,0.12679062570788738,30.765289783477783,0.3017575442790985,-0.0068551143631339,0.5727088451385498,,,,,,,,0.5954636172464083,0.6400719760715167,0.6838379450426373,0.570946029743172,99000.0,97700.0,98000.0,100000.0,30.765289783477783,0.8363440526418354,-0.0038197785694136285,0.009887880469556926,0.34377948793588664,6.077765053742549,0.009329967871811066,7.323006205576139,30.76701164245605,0.3180284212131928,-0.000224210365754552,0.500065789285459,0.0,0.0,0.0,1.0,0.0,1.402386978473882e-18,-9.568369488545757e-19,1.7301726315789474,-0.00019684210526315794,0.00019947368421052667,0.0,0.0,0.0,30.765289783477783,3.568000078201294,False,True,False,True,True,False,False,1741.440331837409,3032539.8251147615,1693.5680783602572,2867829.104816351,1700.8651389257507,2892525.312838887,1758.7514458864644,3092636.707550376,0.002732712158794625,0.6696641147494737,0.013103147535697574
41,290,0.41000000000000003,0.27697047636819927,-0.013209945929582757,0.6033241658868772,0.0017256418222025404,0.3250760874547846,0.007781334611990661,0.9456542763383704,0.023493589860930295,0.6899120422834584,0.0101153829899764,1.7240757115059553,0.08280759405608903,-0.0141159647927667,0.16630286554612167,-1.7005466493651535,0.1189833326199908,30.765289783477783,0.3017575442790985,-0.0068551143631339,0.5727088451385498,,,,,,,,0.6287960583483578,0.5981474740170485,0.6641778217147947,0.5925755357543805,99000.0,97700.0,98000.0,100000.0,30.765289783477783,0.8975230818434035,-0.03651783971555062,0.008097118385219398,0.40495851713745495,5.896485768204981,-0.0051567880935541035,7.203363422203823,30.76701164245605,0.3180284212131928,-0.000224210365754552,0.500065789285459,0.0,0.0,0.0,1.0,0.0,1.402386978473882e-18,-9.568369488545757e-19,1.7301726315789474,-0.00019684210526315794,0.00019947368421052667,0.0,0.0,0.0,30.765289783477783,3.568000078201294,False,True,False,True,True,False,False,1716.259652788954,2945221.8239161246,1708.6541802224838,2919641.3718673047,1720.3981987585055,2959922.1729271356,1727.3043064607991,2983851.677091216,0.002732712158794625,0.6696641147494737,0.013103147535697574
42,291,0.42000000000000026,0.29096960593609694,-0.012233173668804248,0.6036950552269759,0.0025844860122062573,0.31762085536784535,0.011009455149518206,0.9481503596818185,0.03216079431579543,0.6735810857565967,0.014903638221840682,1.7609321139522418,0.08615888424705569,-0.031181591255017408,0.16158042974591266,-1.7964743355674684,0.09682769848028183,30.77938199043274,0.319651186466217,-0.0057648653164505,0.5729285478591919,,,,,,,,0.67405365099103,0.548199483141831,0.6232945646095358,0.6373309197326427,97400.0,98000.0,100300.0,96500.0,30.77938199043274,0.708532137986643,-0.015176011967541394,0.012472834380387977,0.21596757328069444,5.773384790227388,-0.020585527092612868,7.167805583883377,30.782461881637573,0.3780284212131928,-0.000224210365754552,0.500065789285459,0.0,0.0,0.0,1.0,0.0,1.402386978473882e-18,-9.568369488545757e-19,1.8111726315789474,-0.00019684210526315794,0.00019947368421052667,0.0,0.0,0.0,30.79260230064392,3.568000078201294,False,True,False,True,True,False,False,1699.5078976250702,2888234.601266879,1715.5178595819189,2942916.131554713,1744.3919950568143,3043218.359770334,1697.5295728892406,2882472.169023124,0.005431305710097753,0.6358396627414158,0.023893066422096976
43,292,0.43000000000000005,0.30758189013618065,-0.011140195108862983,0.6036208212690113,0.003518232534193184,0.30891324023225614,0.014149570211046505,0.9509784549146665,0.04044607251985456,0.6544444484203833,0.01955867013851542,1.811988002872181,0.08918703410691967,-0.052448368486487706,0.15520736205804309,-1.9274299318762744,0.03815697812393414,30.77938199043274,0.319651186466217,-0.0057648653164505,0.5729285478591919,,,,,,,,0.695207699530749,0.5167097144040893,0.6320761308261391,0.6395076917465579,97400.0,98000.0,100300.0,96500.0,30.77938199043274,0.4450541085166498,0.0308531661315095,0.02532488736477985,-0.04751045618929893,5.588732884167745,-0.029992085233438534,7.251601159646638,30.782461881637573,0.3780284212131928,-0.000224210365754552,0.500065789285459,0.0,0.0,0.0,1.0,0.0,1.402386978473882e-18,-9.568369488545757e-19,1.8111726315789474,-0.00019684210526315794,0.00019947368421052667,0.0,0.0,0.0,30.79260230064392,3.568000078201294,False,True,False,True,True,False,False,1711.5143039161162,2929983.2838074686,1701.8973837603012,2896384.069733713,1747.4773750275263,3053599.0138735054,1681.4757011667787,2827125.658613112,0.005431305710097753,0.6358396627414158,0.023893066422096976
44,293,0.4400000000000003,0.32720612623368217,-0.00994841840749271,0.6030756591813023,0.004570477631279134,0.298875360240686,0.017123713332911735,0.9541275639121398,0.048035288654291165,0.6321945376980944,0.023930921284947306,1.8756627165704325,0.09150019809723722,-0.07903397510279306,0.15363478250056295,-2.159182208927183,-0.05341206274306795,30.79260230064392,0.3568248152732849,-0.0033515887334942,0.5728884935379028,,,,,,,,0.6822956562748455,0.521393199290698,0.6543293753266476,0.6050213691661634,101400.0,95200.0,100000.0,96500.0,30.79260230064392,0.33214052406512984,0.06090192680419524,0.036205468907082504,-0.16042404064081894,5.3377909439054525,-0.02966417484754722,7.426802191700743,30.79655408859253,0.3780284212131928,-0.000224210365754552,0.500065789285459,0.0,0.0,0.0,1.0,0.0,1.402386978473882e-18,-9.568369488545757e-19,1.8111726315789474,-0.00019684210526315794,0.00019947368421052667,0.0,0.0,0.0,30.79260230064392,3.568000078201294,False,True,False,True,True,False,False,1756.785911063482,3087138.8373201564,1668.4284470038183,2784170.162250705,1755.1369707722488,3080522.151054156,1679.3352489065333,2819950.8805952463,0.010828369279915146,0.6162649897115066,0.04818042459108838
45,294,0.45000000000000007,0.34957057615620896,-0.008709984554218193,0.6021026188846629,0.005779358516828359,0.2875001291896945,0.020117169713008982,0.9575518650254831,0.05523979453296572,0.6066869826223472,0.02805099035614696,1.946759357260178,0.09324234717315524,-0.10774468111022087,0.15772923313353543,-2.492527561840798,-0.14565889925420944,30.812142372131348,0.3761951327323913,-0.0024041188880801,0.5727424025535583,,,,,,,,0.6560779579140747,0.557706311536989,0.6255077268325604,0.5999323960526357,102000.0,93800.0,102000.0,95800.0,30.812142372131348,0.44933828464086906,0.06370999739714607,0.033688328787319644,-0.04322628006507974,5.120626902764172,-0.024376808316784605,7.588424487283753,30.80977439880371,0.4390284212131928,-0.000224210365754552,0.500065789285459,0.0,0.0,0.0,1.0,0.0,1.402386978473882e-18,-9.568369488545757e-19,1.8581726315789475,-0.00019684210526315794,0.00019947368421052667,0.0,0.0,0.0,30.82982325553894,3.578000068664551,False,True,False,True,True,False,False,1787.494101765486,3194362.581678225,1633.3909969348838,2667890.4600254525,1774.403079765248,3148544.876756342,1676.8975421652026,2812303.704849622,0.013497646895034686,0.5743786595810582,0.04267620519369216
46,295,0.4600000000000003,0.3738397484528504,-0.007497488979879403,0.6008135119005634,0.007175451022762148,0.27481563112159607,0.0234170586131964,0.9611849578305753,0.06265783558898748,0.5779319642266992,0.03207130023329342,2.0160197148179817,0.0949392084723718,-0.13347465468402112,0.16238846158644354,-2.8785337338901735,-0.20718048454914448,30.819201231002808,0.3761951327323913,-0.0024041188880801,0.5727424025535583,,,,,,,,0.6425594315844114,0.5858509536441152,0.5960780514035646,0.6102806512213449,102000.0,92600.0,101400.0,95800.0,30.819201231002808,0.6804610445483034,0.05319773925391532,0.021236336648325308,0.18789647984235455,4.964595711901259,-0.024643731416788068,7.698462787287825,30.816447019577023,0.4390284212131928,-0.000224210365754552,0.500065789285459,0.0,0.0,0.0,1.0,0.0,1.402386978473882e-18,-9.568369488545757e-19,1.8581726315789475,-0.00019684210526315794,0.00019947368421052667,0.0,0.0,0.0,30.82982325553894,3.578000068664551,False,True,False,True,True,False,False,1777.4821140646727,3159497.045723295,1617.7174031435982,2616518.1567255994,1764.5035723818557,3114248.758905409,1671.8508224705192,2794954.442621962,0.013503881758256137,0.5530743685378421,0.03999970985855717
47,296,0.4700000000000001,0.39890025587163014,-0.0063802234562064485,0.5993667304121703,0.008761491125575342,0.260806215170834,0.02710044039879396,0.9649709428432094,0.07047465164031776,0.5459785293922821,0.0360680995291277,2.075081561094016,0.0970336344611647,-0.1532968112612186,0.16354733374282826,-3.2609850729238303,-0.23781039615050337,30.82982325553894,0.3761951327323913,-0.0024041188880801,0.5727424025535583,,,,,,,,0.6448440893018572,0.5759039769166068,0.6358062026234047,0.5757296087733361,100700.0,92600.0,98700.0,95200.0,30.82982325553894,0.8264132415974813,0.037070772192792575,0.014427347496681953,0.33384867689153247,4.798145543529475,-0.04066195799784826,7.826114695777667,30.829314470291138,0.4390284212131928,-0.000224210365754552,0.500065789285459,0.0,0.0,0.0,1.0,0.0,1.402386978473882e-18,-9.568369488545757e-19,1.8581726315789475,-0.00019684210526315794,0.00019947368421052667,0.0,0.0,0.0,30.82982325553894,3.578000068664551,False,True,False,True,True,False,False,1760.2925721198949,3098874.8317536563,1616.2921043560757,2612776.705468376,1734.8110854463162,3009571.3712458983,1658.7474590093943,2751281.3561517615,0.01623853070042489,0.52736057149605,0.042797224853279504
