,Unnamed: 0,t,x,y,z,qx,qy,qz,qw,yaw,pitch,roll,vx,vy,vz,wx,wy,wz,ros_timestamp,x_poses,y_poses,z_poses,qx_poses,qy_poses,qz_poses,qw_poses,yaw_poses,pitch_poses,roll_poses,m1_thrust,m2_thrust,m3_thrust,m4_thrust,m1_erpm,m2_erpm,m3_erpm,m4_erpm,ros_timestamp_motors,thrust,torque_roll,torque_pitch,torque_yaw,ax,ay,az,ros_timestamp_image_accel,x_r,y_r,z_r,qx_r,qy_r,qz_r,qw_r,yaw_r,pitch_r,roll_r,vx_r,vy_r,vz_r,wx_r,wy_r,wz_r,ros_timestamp_r,Vbat,can_be_armed,is_armed,auto_arm,can_fly,is_flying,is_tumbled,is_locked,m1_rads,m1_rads2,m2_rads,m2_rads2,m3_rads,m3_rads2,m4_rads,m4_rads2,rx,ry,rz
0,4906,1.9680647827798707e-15,0.043304102472800435,0.0058428129703769986,0.5783582481807112,-0.0044953372564006285,-0.002266945112620537,-0.0009679262616888372,0.9999868579244228,-0.007078649410484962,-0.003685671856164612,-0.013812962398096167,-0.007428682384332455,0.008690610600344978,-0.003313791915105319,0.029301144518128618,-0.012271052425681888,-0.015098815382921443,55.01944446563721,0.0454313308000564,0.0105177871882915,0.5722134709358215,,,,,,,,0.5234623720934617,0.6069588618294379,0.6030470895894529,0.494396458028529,99000.0,96200.0,98400.0,100300.0,55.024317264556885,0.10485026361686156,-0.0017120881406121574,0.0017364651797465067,-0.3877219948485489,0.06815184421335993,-0.008959985187575749,9.67821128985479,55.01944446563721,4.736858161386911e-05,2.4737002666500644e-05,0.4998921050749327,0.0,0.0,0.0,1.0,0.0,1.402386978473882e-18,-9.568369488545757e-19,-0.00020210526315789473,0.00025210526315789427,-0.00018052631578947424,0.0,0.0,0.0,55.01944446563721,3.8949999809265137,False,True,False,True,True,False,False,1727.894441984323,2985626.250625333,1678.9852333656518,2818981.8052862217,1717.3803465321062,2949384.355446794,1750.591669710918,3064578.4704992967,-0.00899693096024226,-0.004688315809556178,-0.0019361308448459257
1,4907,0.00999999999999998,0.04333026642842027,0.00584363143240016,0.5791750292932845,-0.004680264899971549,-0.0021756958619810413,-0.00097110206818464,0.9999862091192836,-0.007079633209299439,-0.0035051509318557985,-0.01418190368797758,-0.007930425138537995,0.009323383694345209,0.003439477176033495,0.05775816414587656,-0.11105448150786089,-0.004937789467663986,55.02929663658142,0.0454313308000564,0.0105177871882915,0.5722134709358215,,,,,,,,0.34555362265885503,0.8274848451737545,0.8107938995777897,0.31625452834884915,94600.0,103100.0,103400.0,94600.0,55.03046154975891,0.6032268025825296,-0.0016874993084563476,0.003542054962627941,0.11065454411711914,0.07896550892387896,-0.058178904233155,9.831511945242024,55.02929663658142,4.736858161386911e-05,2.4737002666500644e-05,0.4998921050749327,0.0,0.0,0.0,1.0,0.0,1.402386978473882e-18,-9.568369488545757e-19,-0.00020210526315789473,0.00025210526315789427,-0.00018052631578947424,0.0,0.0,0.0,55.01944446563721,3.874000072479248,False,True,False,True,True,False,False,1647.5932175150724,2715947.083844334,1813.318799968003,3292891.2872567163,1821.2488461155287,3320646.779135363,1644.4720149328577,2706468.892435968,-0.00899693096024226,-0.004688315809556178,-0.0019361308448459257
2,4908,0.019999999999997988,0.04334298457757813,0.005842312321165694,0.579871679032162,-0.004690742871501083,-0.0028233849830283865,-0.0009917173259244175,0.9999845208428461,-0.007118579034058557,-0.0048034853770677725,-0.014205723584764853,-0.008140337916076714,0.009865311389934931,0.005713663246547386,0.11031127899800117,-0.30731280690365864,0.000892348971342047,55.03972506523132,0.0451913923025131,0.0105570582672953,0.5722377300262451,,,,,,,,0.45583297560915864,0.6887363534289219,0.7059680845194978,0.4425627986927029,90100.0,111500.0,111500.0,88800.0,55.04122185707092,0.8662373177035674,0.038766854214341305,0.006191741145667843,0.37366505923815707,0.14568781989376792,-0.06334900923677442,9.896036786437948,55.03972506523132,4.736858161386911e-05,2.4737002666500644e-05,0.4998921050749327,0.0,0.0,0.0,1.0,0.0,1.402386978473882e-18,-9.568369488545757e-19,0.03279789473684211,0.00025210526315789427,-0.00018052631578947424,0.0,0.0,0.0,55.058841943740845,3.874000072479248,False,True,False,True,True,False,False,1571.25596644592,2468213.931501851,1935.514689677383,3745702.979084025,1931.7134092929737,3732600.983433551,1551.4360624461247,2406412.6182946474,-0.00899693096024226,-0.004688315809556178,-0.0019361308448459257
3,4909,0.030000000000003104,0.04333411823701702,0.005838275909273625,0.5803602268633166,-0.004403379690391019,-0.004440120771863227,-0.001029082188645035,0.9999799180806995,-0.007195139701025243,-0.008039226892211326,-0.013637947437336952,-0.007993531166532945,0.010256422544925476,0.0032471383912063933,0.17862933068422615,-0.5241743549737243,0.004702279046801948,55.05269765853882,0.0451913923025131,0.0105570582672953,0.5722377300262451,,,,,,,,0.5906221817702487,0.4819918391728971,0.5442934101181838,0.6076951476761907,88200.0,112800.0,112800.0,86700.0,55.05193758010864,0.8898532742866397,0.07620936662598454,0.008922156709688024,0.3972810158212295,0.16916308007841854,-0.04152602886819144,9.879799050679686,55.05269765853882,4.736858161386911e-05,2.4737002666500644e-05,0.4998921050749327,0.0,0.0,0.0,1.0,0.0,1.402386978473882e-18,-9.568369488545757e-19,0.03279789473684211,0.00025210526315789427,-0.00018052631578947424,0.0,0.0,0.0,55.058841943740845,3.874000072479248,False,True,False,True,True,False,False,1550.2049664484848,2403160.20012354,1963.7292055300277,3855649.351768555,1966.7192993356348,3866718.994862759,1525.0567197014157,2326020.9965396454,-0.00899693096024226,-0.004688315809556178,-0.0019361308448459257
4,4910,0.04000000000000112,0.04330500241483197,0.005831953546313822,0.5806068352663168,-0.003790620932926054,-0.006548801100037358,-0.0010590280142248772,0.9999708110023813,-0.007260820913645895,-0.012257506833664384,-0.012420691888400502,-0.0077827405619159745,0.010497144003041439,6.97174272132116e-05,0.22475696608044654,-0.510718145697347,0.01266553631996302,55.058841943740845,0.0452416017651557,0.0104389544576406,0.5723125338554382,,,,,,,,0.5537121558551124,0.4834629008357165,0.5513593580990099,0.5884275267656405,92000.0,107900.0,108700.0,90900.0,55.06108713150024,0.8301247236421483,0.017028962844951964,0.00988246575300256,0.3375524651767379,0.003379090574828922,-0.0456719969956713,9.940701287018607,55.058841943740845,4.736858161386911e-05,2.4737002666500644e-05,0.4998921050749327,0.0,0.0,0.0,1.0,0.0,1.402386978473882e-18,-9.568369488545757e-19,0.03279789473684211,0.00025210526315789427,-0.00018052631578947424,0.0,0.0,0.0,55.058841943740845,3.874000072479248,False,True,False,True,True,False,False,1589.3144148072709,2528055.0927857077,1897.9680411112813,3604850.7781593353,1910.7718080593518,3652742.5714066667,1565.194411628885,2451551.0222186223,-0.00899730290102408,-0.010222705515419282,-0.001936210886142599
5,4911,0.04999999999999913,0.043268210619468304,0.005825165821690795,0.5806275359299605,-0.0029346142196451964,-0.008002164726305385,-0.0010398448054817777,0.9999631353814277,-0.007230068515868257,-0.015164458661265966,-0.010712716264784664,-0.007932703412555798,0.010639805790643088,0.00040111194293232966,0.21693789187970172,-0.03468047552998875,0.026288695356862336,55.069602251052856,0.045272059738636,0.0105533143505454,0.5721834301948547,,,,,,,,0.5998561870445985,0.48285758392391,0.5231379043351625,0.6147596399409524,92600.0,105600.0,106400.0,91500.0,55.071014165878296,0.7684035574223573,-0.15910376300975032,0.008554657702852768,0.2758312989569469,-0.3118813545747744,-0.09963290651307036,10.193172971328096,55.069602251052856,0.002047368581613869,2.4737002666500644e-05,0.4998921050749327,0.0,0.0,0.0,1.0,0.0,1.402386978473882e-18,-9.568369488545757e-19,0.1177978947368421,0.00025210526315789427,-0.00018052631578947424,0.0,0.0,0.0,55.08946752548218,3.8320000171661377,False,True,False,True,True,False,False,1634.810820367455,2671348.6558476673,1828.3741724512643,3341153.9266489213,1842.281110331243,3392948.701487163,1620.02896366565,2623492.0116043165,-0.00623032724197714,-0.01575721166634627,-0.0019362489256236457
6,4912,0.060000000000004244,0.04324740317313474,0.005821034510733648,0.5804733887345392,-0.001997943196513104,-0.00732504915580477,-0.0009311264435661001,0.9999707420126824,-0.007017540854761533,-0.013811163120677861,-0.00883252448839379,-0.008559058319746661,0.010738295233914636,0.004877005984058968,0.16131598356459356,0.898633078390236,0.03937550911911057,55.080317974090576,0.0457207411527633,0.0105412416160106,0.5720989108085632,,,,,,,,0.7555480472788367,0.40633905214231614,0.41860181875750746,0.7345243636745515,98000.0,100300.0,101000.0,98000.0,55.08083415031433,0.647673511534958,-0.34171809555230837,0.006868947251648385,0.15510125306954756,-0.5439178489032763,-0.17461537007886263,10.47490677408589,55.080317974090576,0.002047368581613869,2.4737002666500644e-05,0.4998921050749327,0.0,0.0,0.0,1.0,0.0,1.402386978473882e-18,-9.568369488545757e-19,0.1177978947368421,0.00025210526315789427,-0.00018052631578947424,0.0,0.0,0.0,55.08946752548218,3.8320000171661377,False,True,False,True,True,False,False,1684.0130966384068,2835653.574713128,1769.5854691782188,3131351.9074925557,1781.2644872711007,3172643.5492585483,1684.0863513360437,2836738.8080224777,-0.0034631956866293897,-0.0185244750125205,-0.0019362605927829306
7,4913,0.07000000000000225,0.04327486306199925,0.005823196198803572,0.5802176594953284,-0.00115645294503834,-0.0032325134958642926,-0.0007180166613744661,0.9999938489436618,-0.0065873282256930735,-0.005628721396011886,-0.007126629776445494,-0.009146694193475371,0.01078868759433282,0.011221778711208797,0.09767717601040743,2.0019768130919653,0.04382044060855185,55.08946752548218,0.0457207411527633,0.0105412416160106,0.5720989108085632,,,,,,,,0.7002179434156164,0.4766928884055055,0.4777339595308291,0.6744749042124127,98000.0,100300.0,101000.0,98000.0,55.08083415031433,0.4232488148602909,-0.3854062974365473,0.007000717381152204,-0.06932344360511947,-0.5062417148195039,-0.21807887031316672,10.525420895883045,55.08946752548218,0.002047368581613869,2.4737002666500644e-05,0.4998921050749327,0.0,0.0,0.0,1.0,0.0,1.402386978473882e-18,-9.568369488545757e-19,0.1177978947368421,0.00025210526315789427,-0.00018052631578947424,0.0,0.0,0.0,55.08946752548218,3.8320000171661377,False,True,False,True,True,False,False,1749.8644300748676,3063836.912356593,1715.3774200696198,2941970.8338080375,1729.2771899678155,2990170.880986549,1747.6114388929655,3054872.5246181823,-0.0006959811086898588,-0.010222299949388822,-0.0019361340707279278
8,4914,0.08000000000000027,0.04338686585396656,0.005834288258382399,0.5799455211291996,-0.0005265759393759624,0.004904511960120507,-0.0004270816224031789,0.9999877429656331,-0.005985966399392782,0.010644421326237944,-0.005825531175067695,-0.008600734669167168,0.010714111174859157,0.017808582268115408,0.06521481387405367,2.883076687902085,0.03692200790734336,55.09939455986023,0.0459116175770759,0.0104057602584362,0.5720369815826416,,,,,,,,0.5113100644334522,0.6193164170192987,0.6254881156186998,0.5114161834034572,103800.0,96800.0,97400.0,102700.0,55.09524655342102,0.1807981642403672,-0.24788057319209808,0.008771669104082728,-0.3117740942250431,-0.19874737218515331,-0.20699760427759936,10.35559892417542,55.09939455986023,0.002047368581613869,2.4737002666500644e-05,0.4998921050749327,0.0,0.0,0.0,1.0,0.0,1.402386978473882e-18,-9.568369488545757e-19,0.1177978947368421,0.00025210526315789427,-0.00018052631578947424,0.0,0.0,0.0,55.08946752548218,3.8320000171661377,False,True,False,True,True,False,False,1769.2298500755128,3132259.37149137,1736.4083832180543,3019254.2345199515,1746.7051826815314,3055232.2055941923,1747.0345820005414,3054891.698916288,-0.0006959106820438914,0.006378983711001763,-0.0019359381524378448
9,4915,0.08999999999999828,0.04361801935414316,0.0058540066378859985,0.579739020558772,-0.00012644230732420904,0.01686622457916413,-0.00011941334744180847,0.9998577399916653,-0.005331204529729778,0.03457370411404339,-0.0049672236189615806,-0.005657894064292698,0.010429871662215429,0.02494032513315099,0.0730438156753951,3.300834361443059,0.02329669106058952,55.109214544296265,0.0463229678571224,0.0102012455463409,0.572052001953125,,,,,,,,0.5316732869683678,0.5978262285347355,0.6171001363312651,0.5448689523998802,97100.0,106400.0,106400.0,94900.0,55.11205863952637,0.06310288338365538,-0.014850012815064415,0.010255228137390705,-0.429469375081755,0.28293108406071454,-0.17058046277389652,10.212541558034967,55.109214544296265,0.008047368581613869,2.4737002666500644e-05,0.4998921050749327,0.0,0.0,0.0,1.0,0.0,1.402386978473882e-18,-9.568369488545757e-19,0.2457978947368421,0.00025210526315789427,-0.00018052631578947424,0.0,0.0,0.0,55.12362694740296,3.8529999256134033,False,True,False,True,True,False,False,1718.9914313964762,2958142.417363658,1823.5676368804116,3330698.939526573,1818.735475902061,3312124.104199785,1692.7851807750399,2869051.377390323,-0.0006960126919144366,0.03405105582513703,0.0008308919135534091
10,4916,0.09999999999999629,0.04399651007474839,0.005877396894022998,0.5796570486915507,0.0001082330013865543,0.03173211444542376,0.00013905220833147414,0.9994963941220215,-0.004752426954174108,0.06434148008849448,-0.004425156520481726,0.0005984038262941145,0.009947846916765628,0.0325280539799656,0.10037531605085441,3.30563040198944,0.011591532201074643,55.12362694740296,0.0468601994216442,0.010336248204112,0.5717523694038391,,,,,,,,0.666822282584316,0.5252450612327013,0.5574002865175516,0.6726236860977366,96800.0,106400.0,105300.0,97100.0,55.12101745605469,0.11589003912503319,0.17736707891542874,0.010092228604140059,-0.37668221934037716,0.8198734884246514,-0.1438262495912695,10.231403114117239,55.12362694740296,0.008047368581613869,2.4737002666500644e-05,0.4998921050749327,0.0,0.0,0.0,1.0,0.0,1.402386978473882e-18,-9.568369488545757e-19,0.2457978947368421,0.00025210526315789427,-0.00018052631578947424,0.0,0.0,0.0,55.12362694740296,3.8529999256134033,False,True,False,True,True,False,False,1692.6628664268853,2865105.5756392535,1857.3340501684438,3448386.8380713044,1847.712696326827,3412576.1186221703,1681.3928772686472,2827415.898111684,-0.0006958378218552082,0.06723952315984744,0.0008306831556962272
11,4917,0.1100000000000014,0.04454202568822071,0.005894271118616804,0.5797212825911214,0.0002732943571614319,0.04829307231166815,0.0003147229219270058,0.998833121910951,-0.004315133445489275,0.09756531184800925,-0.004006447104757549,0.010479898129528646,0.009406830605859163,0.038516818215503505,0.11884232933126157,3.166259221385778,0.009229176939507495,55.129718542099,0.0471915528178215,0.0102514214813709,0.5720946788787842,,,,,,,,0.6693183708059949,0.5569210713915678,0.5989530744428322,0.6768949302387814,100300.0,103100.0,104200.0,99300.0,55.13143229484558,0.2463689707947924,0.22245968879895928,0.008175622418491537,-0.246203287670618,1.2568645316805238,-0.12747870917507287,10.323551415341623,55.129718542099,0.008047368581613869,2.4737002666500644e-05,0.4998921050749327,0.0,0.0,0.0,1.0,0.0,1.402386978473882e-18,-9.568369488545757e-19,0.2457978947368421,0.00025210526315789427,-0.00018052631578947424,0.0,0.0,0.0,55.12362694740296,3.8529999256134033,False,True,False,True,True,False,False,1734.0588985500733,3006705.884481622,1822.5369461507214,3321447.8428492667,1831.746163786319,3355135.220163516,1728.9304730814588,2988366.032643796,-0.000695522204974772,0.10039098983964627,0.0008303063759093327
12,4918,0.11999999999999941,0.04526694809665742,0.005890550201045685,0.5799174339859671,0.0004471698519446634,0.06549556773306975,0.00042571019918255303,0.9978526691938409,-0.003979745512444742,0.13218421769565747,-0.00354711856000424,0.023862777108414022,0.00896018115593015,0.04107180353825762,0.11320419933772673,3.14691722291119,0.017507756697361057,55.1404390335083,0.0495713204145431,0.0101635055616498,0.5720147490501404,,,,,,,,0.6221595234297836,0.5979667860314769,0.6429559458209531,0.6413506142149961,101700.0,103800.0,105300.0,101700.0,55.14223766326904,0.33051432382314305,0.10470594861662923,0.005138467368616412,-0.16205793464226736,1.5096790557874062,-0.126630352808681,10.365517151014672,55.1404390335083,0.01904736858161387,2.4737002666500644e-05,0.4998921050749327,0.0,0.0,0.0,1.0,0.0,1.402386978473882e-18,-9.568369488545757e-19,0.40579789473684214,0.00025210526315789427,-0.00018052631578947424,0.0,0.0,0.0,55.15981268882752,3.8529999256134033,False,True,False,True,True,False,False,1782.632422824636,3176703.3160872674,1794.0136208038502,3219044.5781838633,1827.055684241277,3339055.5306919795,1778.0661319879569,3160206.7594117858,0.002068314427929748,0.13348730596145328,0.0008297739250175578
13,4919,0.12999999999999742,0.04618008802565047,0.005851773563823888,0.5802079503626203,0.0006704245204893108,0.08271190613818435,0.0005292188936307915,0.9965731338147307,-0.0036247219714139914,0.16699268746962376,-0.002953818345755797,0.04058612335948448,0.008597039396548416,0.04132856369409731,0.08771670982348839,3.3164909597137058,0.029947219191044705,55.14939785003662,0.0495713204145431,0.0101635055616498,0.5720147490501404,,,,,,,,0.6287276757867524,0.6309178721437907,0.6609149345894402,0.6402461643641528,103100.0,102400.0,105300.0,103400.0,55.15110802650452,0.33342773615022403,-0.07458670207681521,0.002416528310594154,-0.15914452231518633,1.7017665982162116,-0.16612247364347077,10.34801325193371,55.14939785003662,0.01904736858161387,2.4737002666500644e-05,0.4998921050749327,0.0,0.0,0.0,1.0,0.0,1.402386978473882e-18,-9.568369488545757e-19,0.40579789473684214,0.00025210526315789427,-0.00018052631578947424,0.0,0.0,0.0,55.15981268882752,3.884999990463257,False,True,False,True,True,False,False,1808.2598645704852,3270673.7638993305,1782.7638983491893,3177439.824926014,1829.223625380318,3344977.744537896,1812.7661548914439,3287324.347113888,0.002066765596982475,0.1637618795954673,0.0008291525593697856
14,4920,0.14000000000000254,0.04729152483401941,0.005768024915766959,0.5805453843203929,0.0009515669725821026,0.09974881875123663,0.0006850257043106369,0.9950119589320593,-0.0031207499210603585,0.2016519121403142,-0.0021973751317217157,0.060730560631906114,0.008078106452777803,0.042451684353376797,0.06038126938199706,3.54371627393959,0.03666280723791973,55.15981268882752,0.0522986203432083,0.0100290942937135,0.5720089077949524,,,,,,,,0.6388749130138613,0.7014533128919446,0.70442078095675,0.6252781581365625,105300.0,102000.0,104500.0,105300.0,55.16393828392029,0.3164632583957372,-0.16802517365909445,0.0018773194224613512,-0.1761090000696732,2.038686518314624,-0.21996436011642706,10.345445132385127,55.15981268882752,0.01904736858161387,2.4737002666500644e-05,0.4998921050749327,0.0,0.0,0.0,1.0,0.0,1.402386978473882e-18,-9.568369488545757e-19,0.40579789473684214,0.00025210526315789427,-0.00018052631578947424,0.0,0.0,0.0,55.15981268882752,3.884999990463257,False,True,False,True,True,False,False,1824.3667721126246,3328811.341817281,1796.566510163399,3227731.5133517254,1842.9680442300587,3396958.397408573,1826.838810846124,3338086.8647283046,0.0020647179237636417,0.19670264783104005,0.0008283310663603086
15,4921,0.15000000000000055,0.04861713373196789,0.005638399739160145,0.5808821516707467,0.0012787598110860512,0.11666317964791624,0.0009189291889976552,0.9931702889519647,-0.0024091605495458733,0.23631618128673113,-0.0012961740948225606,0.08459443685433841,0.007105272518222775,0.046291679931115985,0.049731783902950785,3.656574264462872,0.032352181574784734,55.17061805725098,0.0522986203432083,0.0100290942937135,0.5720089077949524,,,,,,,,0.6621383932870268,0.7059954132401769,0.7078415433940427,0.646322211252581,105300.0,106800.0,108300.0,104200.0,55.17105174064636,0.35162070377131643,-0.11790769173636914,0.003992061981862673,-0.14095155469409398,2.5526893934289543,-0.21672926774545231,10.398765351080641,55.17061805725098,0.03504736858161387,2.4737002666500644e-05,0.4998921050749327,0.0,0.0,0.0,1.0,0.0,1.402386978473882e-18,-9.568369488545757e-19,0.5807978947368421,0.00025210526315789427,-0.00018052631578947424,0.0,0.0,0.0,55.19231867790222,3.884999990463257,False,True,False,True,True,False,False,1839.5102209891838,3382540.4305138667,1855.918064709812,3447160.4075220083,1883.2572121759958,3549005.9011356053,1818.8706679231584,3306695.8550337213,0.0020620835592728443,0.23226754447251163,0.0008272742024067734
16,4922,0.15999999999999856,0.05018186345580062,0.005472540516897858,0.5811800442718673,0.0016242597756039052,0.13353856794879737,0.0012092380164748777,0.9910415482681769,-0.0015355470314208305,0.2711822231743459,-0.0003112067373758102,0.1124626907525004,0.00561295585803733,0.05209017202791155,0.05947939505559641,3.597781893806471,0.020374074915712047,55.17948842048645,0.0563556551933288,0.0097873862832784,0.572235107421875,,,,,,,,0.6929710969345872,0.6585292908501132,0.696934426252751,0.7084895921181473,106400.0,109100.0,110300.0,104900.0,55.18084263801575,0.45230438939513634,-0.004738239675621793,0.006811434160351053,-0.040267869070274034,3.0925332783670583,-0.16474062729923064,10.459769602731594,55.17948842048645,0.03504736858161387,2.4737002666500644e-05,0.4998921050749327,0.0,0.0,0.0,1.0,0.0,1.402386978473882e-18,-9.568369488545757e-19,0.5807978947368421,0.00025210526315789427,-0.00018052631578947424,0.0,0.0,0.0,55.19231867790222,3.884999990463257,False,True,False,True,True,False,False,1870.6258978884262,3500314.6540117823,1899.2337950891529,3606357.92991922,1910.5921467254857,3649192.75036643,1840.8773702014062,3389691.238046812,0.0020590208270735008,0.2676852245160673,0.0035770190666544583
17,4923,0.16999999999999657,0.052021213436875456,0.005287541749877479,0.5814209181095554,0.0019465404324115862,0.15035120684854292,0.0015025536403776157,0.9886295908539706,-0.0006207775415339795,0.306220658233748,0.0006598767570483347,0.14446311879754875,0.003882048357037221,0.05822663096847085,0.07342534417319294,3.443707899861454,0.00865967168242203,55.19231867790222,0.0563556551933288,0.0097873862832784,0.572235107421875,,,,,,,,0.6765004060426649,0.7042457678338206,0.7566429654565888,0.7050709759489169,110300.0,107900.0,109100.0,109100.0,55.1917028427124,0.5803750206238936,0.05194406180819792,0.00786022388562184,0.08780276215848318,3.5428971377391547,-0.15702302840844917,10.49398134678229,55.19231867790222,0.03504736858161387,2.4737002666500644e-05,0.4998921050749327,0.0,0.0,0.0,1.0,0.0,1.402386978473882e-18,-9.568369488545757e-19,0.5807978947368421,0.00025210526315789427,-0.00018052631578947424,0.0,0.0,0.0,55.19231867790222,3.805000066757202,False,True,False,True,True,False,False,1908.6476674362937,3644141.951166669,1888.976271432717,3567002.0773530686,1925.6596028743352,3707629.0447814055,1899.411571894231,3609535.3519559857,0.004801857959531719,0.30293456387271267,0.0035709682828455997
18,4924,0.1800000000000017,0.05418026135888603,0.0051009860199104605,0.5816136672491875,0.0022008904172952887,0.16696053799500962,0.0017440942381333718,0.9859595797846262,0.00020400703899705886,0.3411618130686828,0.0015095545216255676,0.18069979685061366,0.00232314062723857,0.06406023176423636,0.07085572143300872,3.3063288854331647,0.0019675049292748547,55.199432134628296,0.0588639974594116,0.0097081251442432,0.5724758505821228,,,,,,,,0.6837696154203545,0.7591012258871654,0.7639384600867982,0.6738440888978379,109900.0,108700.0,113600.0,110700.0,55.20091223716736,0.6977758146733745,0.01952156655291776,0.006824807857699901,0.20520355620796407,3.9471248732267297,-0.21028109923731347,10.575728514028748,55.199432134628296,0.03504736858161387,2.4737002666500644e-05,0.4998921050749327,0.0,0.0,0.0,1.0,0.0,1.402386978473882e-18,-9.568369488545757e-19,0.5807978947368421,0.00025210526315789427,-0.00018052631578947424,0.0,0.0,0.0,55.19231867790222,3.805000066757202,False,True,False,True,True,False,False,1923.2999134879358,3697993.8272233224,1898.3438279798986,3604899.1080906875,1974.0517666407432,3899731.810090118,1920.9489912427066,3689224.211120614,0.004792768419257842,0.3379956992286732,0.0035642087201310816
19,4925,0.1899999999999997,0.056709757901142015,0.004923704249583582,0.5817923235830432,0.002358104543125418,0.18317593536816942,0.0018995096877929105,0.9830754843387693,0.0008495520147846928,0.37563713405919585,0.002162402763294353,0.22145789666366214,0.0011611317514009668,0.06986564259960325,0.05026498786158962,3.2339089916900927,-0.0013898136001399288,55.20922303199768,0.0619346126914024,0.0094844456762075,0.5727216601371765,,,,,,,,0.7547551954553882,0.7015549774639692,0.6682882261069254,0.7109786026711955,110700.0,111500.0,115800.0,108300.0,55.21129131317139,0.7941666845093259,-0.03428189123587851,0.0055224677329931485,0.3015944260439154,4.402293321542488,-0.23189849118951053,10.76484524496577,55.20922303199768,0.05804736858161387,2.4737002666500644e-05,0.4998921050749327,0.0,0.0,0.0,1.0,0.0,1.402386978473882e-18,-9.568369488545757e-19,0.7727978947368421,0.00025210526315789427,-0.00018052631578947424,0.0,0.0,0.0,55.220083236694336,3.805000066757202,False,True,False,True,True,False,False,1939.0097654546662,3760010.8563357284,1946.4080388708383,3789333.0720521277,2014.6467311620727,4058473.4101937,1909.0105082333334,3644453.523993143,0.0047843418439269345,0.36750076603477216,0.003557942180493034
20,4926,0.1999999999999977,0.05966026841575188,0.004756535740683951,0.5820064095315964,0.002418893939841494,0.1988276015775057,0.001956366145440088,0.9800295436539397,0.0012780585305744005,0.4093264172204652,0.0026043132286230806,0.267122019027128,0.0003624560775552484,0.0759766110122295,0.03242659885668644,3.1945643624475166,-0.005740239301222598,55.220083236694336,0.0651081353425979,0.0096112042665481,0.5731348395347595,,,,,,,,0.7536986622817651,0.6706853558728219,0.6739578001890135,0.7396311734337154,114100.0,113200.0,114100.0,111500.0,55.2209255695343,0.8652410493658236,-0.036596466747697495,0.00546061383004413,0.37266879090041294,4.908272495360666,-0.18515287434044375,10.976068558185457,55.220083236694336,0.05804736858161387,2.4737002666500644e-05,0.4998921050749327,0.0,0.0,0.0,1.0,0.0,1.402386978473882e-18,-9.568369488545757e-19,0.7727978947368421,0.00025210526315789427,-0.00018052631578947424,0.0,0.0,0.0,55.220083236694336,3.805000066757202,False,True,False,True,True,False,False,1983.09426425869,3933912.1795016173,1963.141261579451,3852940.810408222,1998.7238133089775,3993969.7805963913,1935.1859035338257,3746642.944295832,0.0047743966926105715,0.3995042414392266,0.0035505463307577583
21,4927,0.21000000000000282,0.06307717012617009,0.0045927526100445855,0.5823092469593503,0.0024130780243621554,0.21380109970855657,0.0019124550183693585,0.9768723608198069,0.001480655571338524,0.4420227462939512,0.0028788524698473666,0.3178443392559501,-0.0002107807576374295,0.08271204896922257,0.03465392010707731,3.130677763880186,-0.012486865564038665,55.22929263114929,0.0691692680120468,0.0092181488871574,0.5738879442214966,,,,,,,,0.6652921395516678,0.7271604215455606,0.7846824851456671,0.7056966329475314,114900.0,111100.0,114100.0,113200.0,55.23212909698486,0.8884954574040806,0.011092524536701969,0.006309582066410836,0.3959231989386701,5.388417740842637,-0.15268828758613273,11.101515784006757,55.22929263114929,0.05804736858161387,2.4737002666500644e-05,0.4998921050749327,0.0,0.0,0.0,1.0,0.0,1.402386978473882e-18,-9.568369488545757e-19,0.7727978947368421,0.00025210526315789427,-0.00018052631578947424,0.0,0.0,0.0,55.220083236694336,3.7790000438690186,False,True,False,True,True,False,False,2006.5456465844354,4025479.6156084025,1959.9126282272728,3842042.2417116687,1994.1566040727964,3977547.1696724,1974.050499336787,3896328.540793165,0.004763683998669265,0.43130168445050615,0.003542579687302114
22,4928,0.22000000000000083,0.06699913120264683,0.0044238695065373064,0.5827483879514246,0.0023839108594184153,0.2280380988442117,0.001767241535994941,0.9736476874629165,0.0014565757444018341,0.47361686302746064,0.0030562517267277286,0.3733844658713314,-0.0007220690418962871,0.09069264280818144,0.04750387998435184,3.0155070223442633,-0.019260062486941447,55.23967170715332,0.073505513370037,0.0092104040086269,0.5746878981590271,,,,,,,,0.6622859614318031,0.7065797454452336,0.7644608792295182,0.7126016154758246,112800.0,115400.0,118100.0,111900.0,55.24085640907288,0.8391629778875694,0.05597484020380454,0.00679921542440107,0.346590719422159,5.830010691438114,-0.19334064736075052,11.155910379925237,55.23967170715332,0.08804736858161387,2.4737002666500644e-05,0.4998921050749327,0.0,0.0,0.0,1.0,0.0,1.402386978473882e-18,-9.568369488545757e-19,0.9657978947368421,0.00025210526315789427,-0.00018052631578947424,0.0,0.0,0.0,55.2605094909668,3.7790000438690186,False,True,False,True,True,False,False,1974.7205818155903,3899696.6213901695,1997.6613519085004,3992451.3085014718,2049.7663708603923,4202571.474894765,1960.8534202694646,3844525.401245963,0.0047532061520434744,0.46025649902369614,0.0035347876913104487
23,4929,0.22999999999999884,0.07146014870597692,0.004244599753090048,0.5833591362855954,0.00236683913418017,0.2415254459153565,0.001526160971010407,0.9703903997261059,0.0012172332902511897,0.504049176568344,0.003196245079843237,0.43332805840572003,-0.0014306453864950711,0.10043884705596753,0.0465210374127282,2.867803491633488,-0.02361069285294664,55.24930596351624,0.0782817378640174,0.0090595232322812,0.5753177404403687,,,,,,,,0.7606142619151619,0.6148348972037654,0.6383839991123108,0.7745817707548752,111900.0,116300.0,118800.0,111500.0,55.251343727111816,0.7194604954267994,0.06502145548161116,0.006365281984323215,0.22688823696138888,6.284961498306876,-0.2544595011405212,11.197467839222309,55.24930596351624,0.08804736858161387,2.4737002666500644e-05,0.4998921050749327,0.0,0.0,0.0,1.0,0.0,1.402386978473882e-18,-9.568369488545757e-19,0.9657978947368421,0.00025210526315789427,-0.00018052631578947424,0.0,0.0,0.0,55.2605094909668,3.7790000438690186,False,True,False,True,True,False,False,1943.2971073136619,3775887.800877605,2038.0915088788151,4152660.8094195705,2089.372022982341,4363183.759647948,1936.1752018026523,3748708.0508116176,0.004743148260478073,0.4864099902565376,0.003527308000725046
24,4930,0.23999999999999685,0.0764929459788751,0.004054240603996885,0.5841615955095426,0.0023732000109514097,0.2542890239619052,0.0012129275589120355,0.9671245984985318,0.0008081480337528633,0.533274727221865,0.0033228674887064488,0.49739668568004314,-0.0026429127597650537,0.11163628719149316,0.024702362349231143,2.7290250330463843,-0.02575492778334639,55.2605094909668,0.0840067714452743,0.008785487152636,0.5763400793075562,,,,,,,,0.7964196479128578,0.6113863294167582,0.6166698579955562,0.7791911542024841,111900.0,116300.0,118800.0,111500.0,55.251343727111816,0.5679511859877836,0.044463257091710374,0.0054986931533222835,0.07537892752237321,6.727096235770901,-0.2701492641239196,11.215862293575146,55.2605094909668,0.08804736858161387,2.4737002666500644e-05,0.4998921050749327,0.0,0.0,0.0,1.0,0.0,1.402386978473882e-18,-9.568369488545757e-19,0.9657978947368421,0.00025210526315789427,-0.00018052631578947424,0.0,0.0,0.0,55.2605094909668,3.7790000438690186,False,True,False,True,True,False,False,1963.4612000100308,3855651.740574033,2021.9193446653735,4088386.8261467074,2053.629551766572,4219141.544101486,1958.6784961514336,3837007.5168959703,0.004731513675984326,0.5149838066501099,0.0035186557805716393
25,4931,0.25000000000000194,0.08213164016869079,0.0038551138092308484,0.5851615087093446,0.0023856080954870805,0.2663935069716335,0.0008756183763201498,0.9638610074122865,0.0003205792439167009,0.5612599530975502,0.003418287354993806,0.5654831288683947,-0.004422078258810258,0.12326399290387752,0.0006446337690641304,2.624074565920633,-0.027739813593566996,55.26923680305481,0.0902249962091445,0.0087515702471137,0.5775492191314697,,,,,,,,0.7242719181623498,0.6653463169507507,0.6845465798226704,0.720049436066599,114900.0,112800.0,113200.0,114500.0,55.26576828956604,0.45803030555620095,0.012177630998750681,0.0048240288291943835,-0.03454195290920936,7.0667260474942974,-0.24627305532137544,11.163467415478898,55.26923680305481,0.12204736858161387,2.4737002666500644e-05,0.4998921050749327,0.0,0.0,0.0,1.0,0.0,1.402386978473882e-18,-9.568369488545757e-19,1.148797894736842,0.00025210526315789427,-0.00018052631578947424,0.0,0.0,0.0,55.29414868354797,3.7739999294281006,False,True,False,True,True,False,False,1998.4241979305398,3993858.7521157824,1982.0060252188557,3928921.6807777835,1997.8576678669574,3992746.350811177,1985.9769482330769,3944137.12105525,0.004720435881528682,0.540775649800744,0.0008106651301731497
26,4932,0.25999999999999995,0.08841306473641557,0.003650595872566918,0.5863529746831748,0.0023667903859534954,0.2779355419753961,0.0005766239852319757,0.9605966376762368,-0.0001271093515562165,0.5879969701927944,0.0034355239101649003,0.6374014131183803,-0.006369193271431586,0.13441456685647712,-0.008398261784145385,2.532844812090839,-0.031349980895329393,55.27972412109375,0.1050333231687545,0.0083861351013183,0.5800654888153076,,,,,,,,0.6486381398447335,0.6806204475149961,0.7186450790743093,0.6760553502321787,114100.0,113200.0,114900.0,112400.0,55.28185939788818,0.47253897474607454,-0.014195546597517374,0.0044881743545182855,-0.020033283719335784,7.3218022544215735,-0.21391370850798005,11.012301041908305,55.27972412109375,0.12204736858161387,2.4737002666500644e-05,0.4998921050749327,0.0,0.0,0.0,1.0,0.0,1.402386978473882e-18,-9.568369488545757e-19,1.148797894736842,0.00025210526315789427,-0.00018052631578947424,0.0,0.0,0.0,55.29414868354797,3.7739999294281006,False,True,False,True,True,False,False,1990.981947024582,3964257.1571841286,1961.857060303193,3848624.0564815486,1986.5909575669705,3946337.4731859155,1966.1193240158354,3866286.613167982,0.004710061283755377,0.5638314606991743,0.0008088834462639794
27,4933,0.26999999999999796,0.0953769049533513,0.0034442221809644125,0.587720118882217,0.002278611733616842,0.2890162799273683,0.00037068465181867296,0.9573213987258414,-0.00042936703725247205,0.6135014379830788,0.00332670806977158,0.7126318713678431,-0.007841243297224614,0.1445478678935384,-0.008223820608592471,2.4068018525722605,-0.03674325739848973,55.29414868354797,0.1050333231687545,0.0083861351013183,0.5800654888153076,,,,,,,,0.6396619734849027,0.6785445778510761,0.7035655099988143,0.6605491337212951,111500.0,111500.0,114100.0,110300.0,55.29314088821411,0.6281676660985918,-0.01866299252479859,0.004497347477717064,0.1355954076331813,7.597375723542257,-0.18851882756378274,10.761696423874772,55.29414868354797,0.12204736858161387,2.4737002666500644e-05,0.4998921050749327,0.0,0.0,0.0,1.0,0.0,1.402386978473882e-18,-9.568369488545757e-19,1.148797894736842,0.00025210526315789427,-0.00018052631578947424,0.0,0.0,0.0,55.29414868354797,3.7739999294281006,False,True,False,True,True,False,False,1953.3229182199184,3815520.384383316,1951.5579418659731,3808828.9968422498,2001.6452587651381,4006383.4714459623,1932.1283492027324,3732984.178933084,0.00470052892181316,0.5841973531958681,0.000807246403916898
28,4934,0.2800000000000031,0.10306455161592895,0.0032392187147832876,0.5892375032752406,0.0021030573312268105,0.29969587574186535,0.0002848441250998146,0.9540324303067493,-0.0005280261158179789,0.6377762181820623,0.0030765949702345613,0.7903349847277804,-0.008502688476935402,0.15296563809558264,-0.013638910258705911,2.2254476905512632,-0.04211638812096223,55.299421310424805,0.1135169863700866,0.0081996712833642,0.5816692113876343,,,,,,,,0.6735571969044198,0.6478390557822278,0.64564607889533,0.6626495750349912,111500.0,110700.0,114100.0,111100.0,55.300822496414185,0.8174522414781823,-0.005376050463002164,0.004881666874469165,0.3248799830127718,7.887728516605237,-0.18627667266073333,10.449471080215474,55.299421310424805,0.12204736858161387,2.4737002666500644e-05,0.4998921050749327,0.0,0.0,0.0,1.0,0.0,1.402386978473882e-18,-9.568369488545757e-19,1.148797894736842,0.00025210526315789427,-0.00018052631578947424,0.0,0.0,0.0,55.29414868354797,3.7739999294281006,False,True,False,True,True,False,False,1936.2423662328242,3748777.455601413,1937.4194603816186,3753555.333296151,1990.5189842839413,3961789.760305915,1926.5203123855842,3711378.469968402,0.004701991299581753,0.6085818936845213,0.0008074975456957277
29,4935,0.2900000000000011,0.11151620786542879,0.003037449399282332,0.5908718117869134,0.0018536285681469544,0.30995377542216096,0.00031037244083671306,0.9507497698299106,-0.00042703939917514085,0.6607605030965001,0.002719729687553072,0.8696595537632377,-0.008673124911314308,0.1585876923285436,-0.023421126946582084,2.02586684100434,-0.04542941734720423,55.31023979187012,0.1228926926851272,0.0080338139086961,0.5832362174987793,,,,,,,,0.6827216594489962,0.5799767215121694,0.5824056672556814,0.6735713972563445,111100.0,110300.0,111500.0,110300.0,55.31100749969482,0.8787866062688793,0.0007123595867153027,0.0052043885241052565,0.38621434780346875,8.071816722781117,-0.19680463619708322,10.142485765752385,55.31023979187012,0.16404736858161387,2.4737002666500644e-05,0.4998921050749327,0.0,0.0,0.0,1.0,0.0,1.402386978473882e-18,-9.568369488545757e-19,1.325797894736842,0.00025210526315789427,-0.00018052631578947424,0.0,0.0,0.0,55.321521282196045,3.8420000076293945,False,True,False,True,True,False,False,1947.541354109785,3793215.0457449043,1915.1587930700216,3667691.644229216,1941.1198401199526,3768552.4336477974,1934.0355605626762,3740652.4767906386,0.004708274203645005,0.630937465618392,0.0008085765416546034
30,4936,0.2999999999999991,0.12076589973239196,0.0028383283288891032,0.592586121861198,0.0015681653817174405,0.31967997978840773,0.00040630963220308853,0.9475241877083147,-0.00019510695610394798,0.6822998202542198,0.002319343390020676,0.9500512096335054,-0.009058833245366658,0.16058021388502974,-0.023441529093025014,1.8582865164193305,-0.047561310473157314,55.321521282196045,0.1328754872083664,0.0078978259116411,0.5848788619041443,,,,,,,,0.6278694458815002,0.5738029634718165,0.6001594356929763,0.6476950311905976,111900.0,107500.0,107900.0,110300.0,55.32135677337647,0.7571324461939244,-0.009089257276253804,0.004732128989865744,0.26456018772851386,8.103738432520142,-0.1662735271103709,9.872002220356205,55.321521282196045,0.16404736858161387,2.4737002666500644e-05,0.4998921050749327,0.0,0.0,0.0,1.0,0.0,1.402386978473882e-18,-9.568369488545757e-19,1.325797894736842,0.00025210526315789427,-0.00018052631578947424,0.0,0.0,0.0,55.321521282196045,3.8420000076293945,False,True,False,True,True,False,False,1947.3335643695405,3791768.0727736484,1882.3904780333426,3543802.8449366093,1888.2056224774476,3565492.1641252297,1924.2300932889934,3702375.2790771686,0.0020179163174972505,0.6505734060361367,0.0008095550272801864
31,4937,0.3100000000000042,0.13083489508339255,0.00263919840245307,0.5943449015396166,0.001285265137018683,0.3287016154872648,0.0005092820247166081,0.9444328121689808,3.449152402729531e-05,0.7021536445045118,0.0019115194688790159,1.031230708379251,-0.010075151287027767,0.15904416075472055,-0.011045853898711096,1.717545403027255,-0.05254860963317457,55.32920289039612,0.1437559425830841,0.0076846610754728,0.5865980982780457,,,,,,,,0.5607839458102322,0.625634747270059,0.6523816251808504,0.5898119283634902,109100.0,106400.0,106800.0,108700.0,55.33065414428711,0.5675399409054627,-0.009665947235968132,0.0036135388922593336,0.0749676824400522,8.063540286023787,-0.08854720687784993,9.594913415067966,55.32920289039612,0.16404736858161387,2.4737002666500644e-05,0.4998921050749327,0.0,0.0,0.0,1.0,0.0,1.402386978473882e-18,-9.568369488545757e-19,1.325797894736842,0.00025210526315789427,-0.00018052631578947424,0.0,0.0,0.0,55.321521282196045,3.8420000076293945,False,True,False,True,True,False,False,1907.8737776132207,3640334.435731709,1857.598181443741,3450831.814675998,1863.3488728087727,3471775.3793568127,1892.5628187350972,3581948.3776125098,0.002020449812993782,0.6702862594558406,0.0008105714242427484
32,4938,0.3200000000000022,0.1417256525205656,0.0024374048947727687,0.5961170227755475,0.0010200520191482264,0.33682809776602257,0.0005471492000579335,0.9415654478988457,7.684888935965704e-05,0.7200322843465998,0.0014551480799263367,1.1128743224006348,-0.011465647937867352,0.15480674574451647,-0.0021713725536505243,1.539344040832026,-0.06289660373110005,55.33938789367676,0.1553173214197158,0.007507056929171,0.5882391333580017,,,,,,,,0.5596480067489876,0.6089928200503532,0.6192790963122337,0.57438406011383,106400.0,106400.0,106400.0,106400.0,55.341081619262695,0.46487595215234845,0.021427157343630317,0.0030799042482209642,-0.027696306313062066,8.022268367494705,-0.04624105231092614,9.247490747935583,55.33938789367676,0.21104736858161385,2.4737002666500644e-05,0.4998921050749327,0.0,0.0,0.0,1.0,0.0,1.402386978473882e-18,-9.568369488545757e-19,1.484797894736842,0.00025210526315789427,-0.00018052631578947424,0.0,0.0,0.0,55.35903453826904,3.8420000076293945,False,True,False,True,True,False,False,1853.0805465389876,3434027.0546460934,1852.8539044219642,3432894.284572729,1853.3738353322005,3434965.3760977574,1860.6951790146218,3462422.671035857,0.002022692415919673,0.6872448771172568,0.000811471119862981
33,4939,0.33000000000000024,0.15341982292677606,0.002232368983747769,0.5978759200365887,0.0007574492853985176,0.343893248828846,0.00045792358203886936,0.9390083332891751,-0.0002579868868334433,0.735645005786357,0.0008364334859282523,1.1943503824029937,-0.012662202337025728,0.1484355740128329,-0.011234791068624513,1.2711457430898827,-0.0751635070377775,55.3497371673584,0.1676784306764602,0.0073242336511611,0.5898202657699585,,,,,,,,0.6018789455538882,0.5417167411405386,0.5485718660236211,0.601783344857638,104500.0,105300.0,104500.0,106000.0,55.350908041000366,0.4766160528389757,0.06641906227232991,0.003761992690579408,-0.015956205626434843,7.960955089978469,-0.08605344651708552,8.830273491457696,55.3497371673584,0.21104736858161385,2.4737002666500644e-05,0.4998921050749327,0.0,0.0,0.0,1.0,0.0,1.402386978473882e-18,-9.568369488545757e-19,1.484797894736842,0.00025210526315789427,-0.00018052631578947424,0.0,0.0,0.0,55.35903453826904,3.878999948501587,False,True,False,True,True,False,False,1828.9117740726124,3344688.7169473968,1841.3097034459788,3390081.2369252006,1829.1369160567217,3346070.995418281,1851.4505360141452,3427826.2369395527,0.002024612347040496,0.7014222648509936,0.0008122413648317227
34,4940,0.33999999999999825,0.16588301145388504,0.002025965913633021,0.5995979805033207,0.000466962611525826,0.34978005541740254,0.000213467664538966,0.9368317080509575,-0.0010835418503701282,0.7487422107891608,-6.332342902115704e-05,1.2747837626488367,-0.01346287684859362,0.1395222893120951,-0.03318945790279862,0.9334920313566828,-0.08196917247391625,55.35903453826904,0.1806758940219879,0.0071315262466669,0.5914327502250671,,,,,,,,0.6118777134971729,0.5226123899359303,0.535622144354792,0.6078306511060698,105600.0,103100.0,103100.0,106400.0,55.36021685600281,0.5106709552249382,0.08384411769962688,0.004497886092505832,0.018098696759527702,7.830594714370219,-0.1439430945595955,8.418432344927911,55.35903453826904,0.21104736858161385,2.4737002666500644e-05,0.4998921050749327,0.0,0.0,0.0,1.0,0.0,1.402386978473882e-18,-9.568369488545757e-19,1.484797894736842,0.00025210526315789427,-0.00018052631578947424,0.0,0.0,0.0,55.35903453826904,3.878999948501587,False,True,False,True,True,False,False,1838.5600065857388,3380494.722487986,1799.2479939587456,3237686.8332375595,1793.7587290088272,3217534.381533064,1852.2842513046924,3430838.1473965878,0.002026579262653074,0.7156418373177832,0.0008130304592102118
35,4941,0.34999999999999626,0.17907519398420726,0.0018214355103206986,0.6012605560254322,0.00012524706840480625,0.3544223549981799,-0.00016025842963275454,0.9350854254601296,-0.0023572033296586064,0.7591356188484859,-0.0012828520442862462,1.3534036914737122,-0.014190251039552102,0.12706542068719348,-0.05064589457930536,0.5977164421068306,-0.07890205440683144,55.36946201324463,0.1945300996303558,0.0068981805816292,0.5929147005081177,,,,,,,,0.5832983431288475,0.527576048627876,0.542535310002162,0.5894226020256712,105300.0,100300.0,100700.0,104900.0,55.37371301651001,0.4937115157009356,0.058843893083975946,0.0037575403796959485,0.0011392572355251097,7.631193497524451,-0.15215037499000023,8.080925319485516,55.36946201324463,0.26204736858161387,2.4737002666500644e-05,0.4998921050749327,0.0,0.0,0.0,1.0,0.0,1.402386978473882e-18,-9.568369488545757e-19,1.617797894736842,0.00025210526315789427,-0.00018052631578947424,0.0,0.0,0.0,55.38859724998474,3.878999948501587,False,True,False,True,True,False,False,1840.811508007887,3388536.200547751,1745.9742885945423,3048514.83097631,1764.400930183127,3112820.634108764,1834.5590124095277,3365839.817688649,-0.000681453257601115,0.7241924802973995,0.0008135110290129615
36,4942,0.3600000000000014,0.19296139931513637,0.0016223258582553622,0.6028397096682732,-0.00027107009103220054,0.35778320584961093,-0.0005806989564442995,0.9338044586109572,-0.003858755178951722,0.7666822104343054,-0.0027416748436455305,1.4298770592936636,-0.015150020873652633,0.11056434299274454,-0.05423173848363748,0.3063642372412616,-0.06872492115642034,55.3792884349823,0.2088029831647873,0.0066831987351179,0.5940285325050354,,,,,,,,0.5480274987876516,0.5193290893406,0.5383977255124128,0.5699207331290344,104200.0,97400.0,100000.0,103400.0,55.38186454772949,0.4381859280097179,0.024345916716603237,0.0019030022259985111,-0.054386330455692605,7.411657645835495,-0.125784258815382,7.815828736338638,55.3792884349823,0.26204736858161387,2.4737002666500644e-05,0.4998921050749327,0.0,0.0,0.0,1.0,0.0,1.402386978473882e-18,-9.568369488545757e-19,1.617797894736842,0.00025210526315789427,-0.00018052631578947424,0.0,0.0,0.0,55.38859724998474,3.878999948501587,False,True,False,True,True,False,False,1815.4155870191307,3295969.1828854326,1709.0087625537699,2920424.45917661,1737.3601079320729,3018724.1857667686,1803.5494099690052,3252830.660483148,-0.0006818612361821006,0.7327586087867651,-0.0018968543174483204
37,4943,0.3699999999999994,0.20751648621604504,0.0014320194162039971,0.6043067753370663,-0.0007083713632154017,0.3598152328757644,-0.0009336917252006488,0.9330228424965454,-0.005259945605297127,0.7712287373709774,-0.004274034114750858,1.5042950110270854,-0.01609908490919222,0.09050085909130576,-0.051164946712543694,0.028821480875296207,-0.05849953478252438,55.38859724998474,0.224366083741188,0.0064892503432929,0.5951327085494995,,,,,,,,0.5218563751338978,0.5243914835407817,0.5499573601544412,0.547349991622045,101700.0,97100.0,97400.0,102000.0,55.393702268600464,0.4058859993062548,0.025689441510757006,0.00095588037000458,-0.08668625915915577,7.2147810393756595,-0.10692181530713007,7.584705264711523,55.38859724998474,0.26204736858161387,2.4737002666500644e-05,0.4998921050749327,0.0,0.0,0.0,1.0,0.0,1.402386978473882e-18,-9.568369488545757e-19,1.617797894736842,0.00025210526315789427,-0.00018052631578947424,0.0,0.0,0.0,55.38859724998474,3.900000095367432,False,True,False,True,True,False,False,1780.0812965440166,3168493.2161733904,1685.283311952809,2840430.4169531483,1707.5031712532536,2915833.534602156,1780.5997015654102,3170282.3963528313,-0.0006819992237212325,0.7356183185664302,-0.0018972381818557207
38,4944,0.3799999999999974,0.22272175045923848,0.0012528309900347178,0.6056241571450491,-0.00116814325514056,0.3604176404545219,-0.0011199151576450248,0.9327896363492522,-0.0062625547270380106,0.7725384445870054,-0.005712331508866587,1.576771529837926,-0.016400802154540373,0.06762429993700086,-0.05480870901729825,-0.3017957482023276,-0.0534288388784582,55.40209341049194,0.2400012463331222,0.0063399393111467,0.5960417985916138,,,,,,,,0.5225350475403563,0.5280384242004225,0.5474962168672901,0.5396973310858085,100300.0,95200.0,97100.0,101000.0,55.40532159805298,0.4588037569656319,0.07053083969872644,0.001958451453488779,-0.03376850149977857,7.039703188319235,-0.10250114218131912,7.370108075011961,55.40209341049194,0.26204736858161387,2.4737002666500644e-05,0.4998921050749327,0.0,0.0,0.0,1.0,0.0,1.402386978473882e-18,-9.568369488545757e-19,1.617797894736842,0.00025210526315789427,-0.00018052631578947424,0.0,0.0,0.0,55.38859724998474,3.900000095367432,False,True,False,True,True,False,False,1744.948298416965,3044692.507241045,1665.28413751371,2773390.806344526,1688.2658291907962,2849977.7546281833,1761.3840373561725,3102522.4752988573,-0.0033933939419081094,0.7356169613707021,-0.001897234681503037
39,4945,0.3900000000000025,0.238556782991102,0.001084033998428961,0.6067437372219054,-0.0016377073874088586,0.35941381108189263,-0.001100257259636591,0.9331761997351119,-0.006733722255440926,0.7702470823685323,-0.006967677927366251,1.6470708308562463,-0.015712608481174353,0.042149862215234826,-0.06872306146833944,-0.719170195586904,-0.05411706985999572,55.41024494171143,0.2561627924442291,0.0061964937485754,0.5967586636543274,,,,,,,,0.5392660959613278,0.5134857463529147,0.517021394247811,0.5514963117407103,97700.0,94600.0,96200.0,99300.0,55.410250186920166,0.6011136678973392,0.1232150379691864,0.003571440730992124,0.10854140943192887,6.850303265349299,-0.09711921274410117,7.173229048207954,55.41024494171143,0.31804736858161387,2.4737002666500644e-05,0.4998921050749327,0.0,0.0,0.0,1.0,0.0,1.402386978473882e-18,-9.568369488545757e-19,1.728797894736842,0.00025210526315789427,-0.00018052631578947424,0.0,0.0,0.0,55.4220826625824,3.900000095367432,False,True,False,True,True,False,False,1709.3139126082947,2922092.0607107086,1655.543569179773,2740669.2301920457,1685.3158652497264,2840349.2196029164,1735.8798459666912,3013450.4582579816,-0.00339338567813193,0.7356151699565525,-0.004608619434773619
40,4946,0.4000000000000005,0.25499318223624534,0.0009203026375137621,0.6076118954438751,-0.0021127183501657145,0.35657080906572486,-0.0009128054355378896,0.9342654661977098,-0.006757391913982671,0.7638935546123388,-0.008058612300949461,1.7147373534852282,-0.01445208832750517,0.01413075527567116,-0.0815487955917543,-1.1971332921630529,-0.0585310712746859,55.4220826625824,0.2729337215423584,0.0060535441152751,0.5973137021064758,,,,,,,,0.5270743773632012,0.5255963448060901,0.5191295602691604,0.535705136339474,97100.0,95200.0,96800.0,98700.0,55.42378830909729,0.7264562949771375,0.14412349929276164,0.003908576516694059,0.23388403651172712,6.610355148716238,-0.07942220186672912,7.00168595004353,55.4220826625824,0.31804736858161387,2.4737002666500644e-05,0.4998921050749327,0.0,0.0,0.0,1.0,0.0,1.402386978473882e-18,-9.568369488545757e-19,1.728797894736842,0.00025210526315789427,-0.00018052631578947424,0.0,0.0,0.0,55.4220826625824,3.900000095367432,False,True,False,True,True,False,False,1691.4368767762217,2861093.0164540214,1652.7685178731017,2731735.4869257403,1682.8454287843633,2832245.4850898935,1718.7139233013913,2953980.1220845412,-0.003392023783576257,0.7298992948589234,-0.0018964686307730474
41,4947,0.40999999999999853,0.2719953545715965,0.000753107047586677,0.6081810773479182,-0.002590840958355404,0.3516620649677556,-0.0006476944174648256,0.9361232077550925,-0.006563086131236591,0.7530299517694007,-0.009069941635454742,1.7795929743418186,-0.013510637704881751,-0.015527179599825058,-0.07698092193481446,-1.6819992660058605,-0.0644838939298328,55.43370199203491,0.2906263172626495,0.0058856401592493,0.597734272480011,,,,,,,,0.49194202360592426,0.5673057302981809,0.5545941005805978,0.48781522215716866,97100.0,93800.0,95500.0,98400.0,55.43066883087158,0.6824747254117121,0.12435904328702563,0.0028849185894123195,0.18990246694630172,6.3174627932606455,-0.05237102542897327,6.880355683318703,55.43370199203491,0.31804736858161387,2.4737002666500644e-05,0.4998921050749327,0.0,0.0,0.0,1.0,0.0,1.402386978473882e-18,-9.568369488545757e-19,1.728797894736842,0.00025210526315789427,-0.00018052631578947424,0.0,0.0,0.0,55.4220826625824,3.9159998893737793,False,True,False,True,True,False,False,1698.48841879858,2884468.59487307,1643.6695803480443,2701910.4924213225,1672.4066729797855,2796785.6451122956,1721.0208875198537,2961721.2011907035,-0.0060974772270184835,0.7184868952282463,0.000813186042678809
42,4948,0.41999999999999654,0.2895291872797801,0.0005756878252586828,0.6084221133222734,-0.0030618723954255783,0.3445489241063484,-0.00039425850923562115,0.9387632866675282,-0.0063752806061194225,0.7373645594089477,-0.010070071536779161,1.8419096754924866,-0.013450547617515698,-0.0450116967232802,-0.04931503554582149,-2.137807944391676,-0.07010012301736399,55.4386305809021,0.3086993992328644,0.0057219648733735,0.597856879234314,,,,,,,,0.48575117647655297,0.5783203661776269,0.55899967743821,0.4729848682403731,97100.0,93800.0,95500.0,98400.0,55.43066883087158,0.4460461559472948,0.08492115223953223,0.0017403572042710672,-0.046526102518115536,6.007823855835127,-0.03469605364895777,6.836911185534344,55.4386305809021,0.37804736858161386,2.4737002666500644e-05,0.4998921050749327,0.0,0.0,0.0,1.0,0.0,1.402386978473882e-18,-9.568369488545757e-19,1.810797894736842,0.00025210526315789427,-0.00018052631578947424,0.0,0.0,0.0,55.45904922485352,3.9159998893737793,False,True,False,True,True,False,False,1692.974845457942,2865932.000957705,1636.4026394930768,2677647.6662384756,1663.7543473298288,2767996.0907070376,1717.8399939583967,2950764.7365035294,-0.0060915318004216065,0.7042587982625976,0.0008123931347684804
43,4949,0.43000000000000166,0.30757485566261916,0.0003888885456732186,0.6083302425171248,-0.0035018918504480696,0.335244354838677,-0.00019765444199444234,0.9421246840174545,-0.006290663247890161,0.7168715478995161,-0.011046842175581738,1.9019410350331247,-0.013982723181992607,-0.0728516087869518,-0.010266029011050072,-2.5586446329284143,-0.07388637002112775,55.45216870307922,0.3272505104541778,0.0054659186862409,0.5979771614074707,,,,,,,,0.5084153581502153,0.5536200819398971,0.5405229678609922,0.5088197890322167,94900.0,94600.0,95200.0,97100.0,55.446062088012695,0.18933793845583985,0.05154004293177611,0.0009295284104018759,-0.30323432000957057,5.720250614208354,-0.04180519231202663,6.872154761111525,55.45216870307922,0.37804736858161386,2.4737002666500644e-05,0.4998921050749327,0.0,0.0,0.0,1.0,0.0,1.402386978473882e-18,-9.568369488545757e-19,1.810797894736842,0.00025210526315789427,-0.00018052631578947424,0.0,0.0,0.0,55.45904922485352,3.9159998893737793,False,True,False,True,True,False,False,1651.2052612640673,2727449.834952575,1646.7163893451398,2711640.8748156163,1661.5004699240785,2761032.399594924,1687.6911551982869,2848893.3648704905,-0.006083427444984601,0.6844084437987699,-0.0018905956937701497
44,4950,0.43999999999999967,0.32613744363799585,0.00020359879390886498,0.607922737795755,-0.0038768379093740385,0.3239291478675686,-5.4089738829506937e-05,0.946073397979203,-0.00626726480198354,0.6918221103613659,-0.011908632823175313,1.9594467885985412,-0.014258724097253123,-0.09899743488823823,0.019386194178473856,-2.947822845158618,-0.07556033599299612,55.45904922485352,0.346118301153183,0.0054122349247336,0.5975914597511292,,,,,,,,0.514559650357921,0.5505192595562587,0.5576396072765388,0.5351750765368565,91500.0,95200.0,95200.0,94300.0,55.46109509468079,0.10434303928115461,0.032124974733831094,-0.0001724043815175874,-0.38822921918425574,5.453224707705976,-0.06364012726582871,6.966435465317952,55.45904922485352,0.37804736858161386,2.4737002666500644e-05,0.4998921050749327,0.0,0.0,0.0,1.0,0.0,1.402386978473882e-18,-9.568369488545757e-19,1.810797894736842,0.00025210526315789427,-0.00018052631578947424,0.0,0.0,0.0,55.45904922485352,3.9159998893737793,False,True,False,True,True,False,False,1608.9836465716794,2588818.2466010926,1668.4174368597535,2783797.5984831285,1665.757157722439,2774472.682489589,1655.7438812219502,2741577.003326966,-0.008770896957916241,0.6590064704331332,-0.00188748854606412
45,4951,0.4499999999999977,0.34524908919245134,3.751693399070006e-05,0.6072314941200049,-0.004155479086856123,0.31091044833568826,6.1493845040214e-05,0.9504301243793607,-0.006209797613415078,0.6627304439412967,-0.01254613546002714,2.014030718987122,-0.013649093395698945,-0.1243873950263662,0.026037844647016143,-3.2968190637304984,-0.07609062623768616,55.47444248199463,0.3654927015304565,0.0053506148979067,0.5971288681030273,,,,,,,,0.5028963095394305,0.58117832221694,0.5993298623732519,0.5249163414662794,92300.0,97100.0,97400.0,94600.0,55.47377920150757,0.18940923636312595,0.016181055754491976,-0.0017135726239365665,-0.30316302210228435,5.169314804765071,-0.0762230630931645,7.104470242034114,55.47444248199463,0.43804736858161386,2.4737002666500644e-05,0.4998921050749327,0.0,0.0,0.0,1.0,0.0,1.402386978473882e-18,-9.568369488545757e-19,1.857797894736842,0.00025210526315789427,-0.00018052631578947424,0.0,0.0,0.0,55.48947548866272,3.9159998893737793,False,True,False,True,True,False,False,1598.4632464845631,2554951.4290972054,1687.8478832777664,2848732.7062884877,1688.5636132346622,2850889.125194815,1646.1426136431285,2709674.7076030755,-0.00875712482452038,0.6337325904805032,0.0008087070953654971
46,4952,0.4600000000000028,0.36495919219962364,-9.211339527751205e-05,0.6062944016811386,-0.004324824571843727,0.29653592373704074,0.00016693989191781834,0.955011892049997,-0.006060589411344877,0.630239888744371,-0.012904295187988565,2.066029901853919,-0.012218226241550844,-0.1495504470550808,0.013321428490049244,-3.5875362306595795,-0.0762801497228677,55.4803466796875,0.3853986859321594,0.0050685014575719,0.5966063737869263,,,,,,,,0.5188426507017159,0.5953811182464679,0.6044068395945883,0.526016930834085,91700.0,97400.0,97700.0,94300.0,55.48472142219544,0.2827656761228917,-0.006324538669166587,-0.002829469217969869,-0.20980658234251864,4.848890923400055,-0.07152988668001943,7.281029307462733,55.4803466796875,0.43804736858161386,2.4737002666500644e-05,0.4998921050749327,0.0,0.0,0.0,1.0,0.0,1.402386978473882e-18,-9.568369488545757e-19,1.857797894736842,0.00025210526315789427,-0.00018052631578947424,0.0,0.0,0.0,55.48947548866272,3.9159998893737793,False,True,False,True,True,False,False,1607.531105524285,2584145.809829168,1704.552492045929,2905492.1649421267,1725.2335328595664,2977186.5162702617,1642.609437482838,2698176.263844938,-0.008739689448304654,0.6002164340477807,0.0008070969650158024
47,4953,0.4700000000000008,0.38531463886823264,-0.00017552121250270252,0.6051463989820516,-0.004397621641415676,0.281097453133301,0.00026585456846412527,0.9596691159390403,-0.005826566547876684,0.594991907819062,-0.01301287364490376,2.116694003228088,-0.010538457958381264,-0.17396667540905392,-0.0021740655590476725,-3.810103687272639,-0.07587132660073737,55.48947548866272,0.3853986859321594,0.0050685014575719,0.5966063737869263,,,,,,,,0.5639028315127684,0.5798309453635382,0.5774992581690626,0.560895416651743,93200.0,98700.0,101000.0,93500.0,55.49029898643494,0.28218482773154036,-0.03104519222629748,-0.002849667151817118,-0.21038743073387006,4.521880995346068,-0.06138284679417886,7.497131764106643,55.48947548866272,0.43804736858161386,2.4737002666500644e-05,0.4998921050749327,0.0,0.0,0.0,1.0,0.0,1.402386978473882e-18,-9.568369488545757e-19,1.857797894736842,0.00025210526315789427,-0.00018052631578947424,0.0,0.0,0.0,55.48947548866272,3.9159998893737793,False,True,False,True,True,False,False,1624.111290281213,2637773.783250517,1721.667477385156,2964417.8641082067,1739.6757089521693,3027310.1322323787,1637.7960153480394,2682381.8962778766,-0.00875461401642856,0.5689318727221292,0.0008084752260751028
