,Unnamed: 0,t,x,y,z,qx,qy,qz,qw,yaw,pitch,roll,vx,vy,vz,wx,wy,wz,ros_timestamp,x_poses,y_poses,z_poses,qx_poses,qy_poses,qz_poses,qw_poses,yaw_poses,pitch_poses,roll_poses,m1_thrust,m2_thrust,m3_thrust,m4_thrust,m1_erpm,m2_erpm,m3_erpm,m4_erpm,ros_timestamp_motors,thrust,torque_roll,torque_pitch,torque_yaw,ax,ay,az,ros_timestamp_image_accel,x_r,y_r,z_r,qx_r,qy_r,qz_r,qw_r,yaw_r,pitch_r,roll_r,vx_r,vy_r,vz_r,wx_r,wy_r,wz_r,ros_timestamp_r,Vbat,can_be_armed,is_armed,auto_arm,can_fly,is_flying,is_tumbled,is_locked,m1_rads,m1_rads2,m2_rads,m2_rads2,m3_rads,m3_rads2,m4_rads,m4_rads2,ax_body,ay_body,az_body,lag_samples,lag_seconds,rx,ry,rz
0,239,5.684825782629363e-16,0.006725644269241651,0.034100253538542465,0.5797502796181538,-0.0029762295467811984,-0.0015635692639332168,-0.0022317553628005836,0.9999918582552773,-0.011355890468406314,-0.0018813112660022106,-0.010149795267083716,-0.017599628885556846,0.005632327604664773,0.021977594684005022,0.05740104366649893,-0.004584448482144899,-0.0269002514128553,18.857027053833008,0.0046727340668439,0.0385377816855907,0.5618120431900024,,,,,,,,0.6055824645296324,0.5812344785589754,0.6271677493885776,0.6175994671594753,96800.0,95500.0,98000.0,94600.0,18.86169934272766,0.3642957198235216,0.011976722060273098,0.0005016811191134373,-0.12832584937580765,0.09521978820073722,-0.10197932572196328,9.553306744475758,18.86169934272766,0.0010236843710875537,-0.00024105247101770998,0.49935105244335376,0.0,0.0,0.0,1.0,0.0,1.402386978473882e-18,-9.568369488545757e-19,-0.002488421052631579,0.0011257894736842117,0.00705578947368421,0.0,0.0,0.0,18.86616539955139,3.7260000705718994,False,True,False,True,True,False,False,1689.4699246648138,2854306.291175502,1666.7910082664841,2778191.9378065863,1710.4763313788774,2925743.117171445,1651.1098321733402,2726172.064281405,0.09468076222406319,-0.1287009308797606,9.552870762224066,0,0.0,-0.005952958049265237,-0.0032813627720753727,-0.004468430882415534
1,240,0.010000000000000356,0.006738807660764126,0.03408792746481577,0.5785718556366996,-0.003201370502102799,-0.0012436082101206182,-0.002220231076075845,0.9999916375847835,-0.011330638215089648,-0.001243016729059399,-0.010600906544229679,-0.0174676131431422,0.005594066818028419,0.01226479320516325,0.02505545942088021,-0.015630540256230868,-0.01911479654996378,18.857027053833008,0.0046727340668439,0.0385377816855907,0.5618120431900024,,,,,,,,0.6097567828759876,0.5282446878124729,0.6230615559488024,0.6708176991136187,96800.0,95500.0,98000.0,94600.0,18.86169934272766,0.5706950578110397,-0.017531936138402697,0.0007051774999119097,0.07807348861171037,0.11548123279341214,-0.11239075364719106,9.505772073105216,18.86169934272766,0.0010236843710875537,-0.00024105247101770998,0.49935105244335376,0.0,0.0,0.0,1.0,0.0,1.402386978473882e-18,-9.568369488545757e-19,-0.002488421052631579,0.0011257894736842117,0.00705578947368421,0.0,0.0,0.0,18.86616539955139,3.7260000705718994,False,True,False,True,True,False,False,1678.7248029471962,2818672.5786156245,1688.1912538906013,2853973.0149101308,1724.3569974983393,2974160.0044604037,1659.9961884030279,2756586.334464634,0.09468076222406319,-0.1287009308797606,9.552870762224066,0,0.0,-0.005952958049265237,-0.0032813627720753727,-0.004468430882415534
2,241,0.020000000000000587,0.006748925707201475,0.03408281418445221,0.5776716832231985,-0.003281363679084276,-0.001038489230994684,-0.0022072687460778003,0.9999916410436666,-0.011303145140025936,-0.000834896970176368,-0.010760938590534187,-0.01726355649657525,0.005577120133835802,0.008127194235747325,0.0072334542516165005,0.01103349434049394,-0.01176921542422674,18.87629199028015,0.0046530188992619,0.0385277196764946,0.5618569254875183,,,,,,,,0.5999028257185516,0.5118303019661843,0.6124633404769682,0.6723823635256942,95800.0,96800.0,98700.0,96800.0,18.870307445526123,0.6949289382095007,-0.01719998757254218,0.001405861196659845,0.20230736901017163,0.11105702845223445,-0.09143320535481034,9.59900679123317,18.870307445526123,0.0010236843710875537,-0.00024105247101770998,0.49935105244335376,0.0,0.0,0.0,1.0,0.0,1.402386978473882e-18,-9.568369488545757e-19,-0.002488421052631579,0.0011257894736842117,0.00705578947368421,0.0,0.0,0.0,18.86616539955139,3.7260000705718994,False,True,False,True,True,False,False,1673.6714724695723,2801345.6396214804,1680.9232267454493,2828110.867325958,1731.5309089834664,2998530.8915857673,1682.2387682586636,2830516.224309089,0.14071664061997594,-0.11577298638367187,9.532906640619977,0,0.0,-0.005952958049265237,-0.0032813627720753727,-0.004468430882415534
3,242,0.030000000000000374,0.006753602656804074,0.03408926672289339,0.5772106335376216,-0.003078773936158049,-0.0010444461903598645,-0.0021960994780176667,0.9999923036855275,-0.011279711782802735,-0.0008486886884608445,-0.010354163216536951,-0.017009140087713193,0.005618366163429226,0.011668188623619706,0.0345367110070607,0.0667611680787345,-0.007656387342430926,18.884900093078613,0.0046392260119318,0.038467664271593,0.5618627667427063,,,,,,,,0.555608485306394,0.5705327175065364,0.618866840569161,0.5922415137372185,95200.0,95200.0,100700.0,97100.0,18.878703355789185,0.6838009549709715,0.02279196330913133,0.0030334338510824427,0.19117938577164253,0.12292828538220266,-0.03729972064587187,9.736161082659105,18.878703355789185,0.0010236843710875537,-0.00024105247101770998,0.49935105244335376,0.0,0.0,0.0,1.0,0.0,1.402386978473882e-18,-9.568369488545757e-19,0.030511578947368424,0.0011257894736842117,0.00705578947368421,0.0,0.0,0.0,18.88657307624817,3.7260000705718994,False,True,False,True,True,False,False,1673.075788947248,2798497.8407983445,1648.1957911955578,2711167.7763199494,1730.5296284924375,2994179.3165548365,1707.911900341023,2915076.5189368213,0.12079341165225822,-0.08829349759150068,9.74098341165226,0,0.0,-0.005952958049265237,-0.0032813627720753727,-0.004468430882415534
4,243,0.040000000000000605,0.006751587137706016,0.03410708406506547,0.5771869795100382,-0.002488241985196029,-0.0013681617999855432,-0.0021970505882768347,0.9999935548561425,-0.011282521404757958,-0.0014972436093789669,-0.00917074884530042,-0.01677744862308832,0.005740714589123762,0.019452770797830227,0.13748538508897498,0.08570032209473778,-0.01133757669188928,18.893296003341675,0.0046005146577954,0.0384363234043121,0.5617607831954956,,,,,,,,0.48373238463418183,0.6906628668757461,0.6599249909466889,0.4650158531719786,95200.0,94900.0,100000.0,98000.0,18.888407468795776,0.5488200565850323,0.06131873381964339,0.004833208021243289,0.05619848738570335,0.1693764266924817,-0.005137505625349814,9.730841107371495,18.888407468795776,0.0010236843710875537,-0.00024105247101770998,0.49935105244335376,0.0,0.0,0.0,1.0,0.0,1.402386978473882e-18,-9.568369488545757e-19,0.030511578947368424,0.0011257894736842117,0.00705578947368421,0.0,0.0,0.0,18.896915435791016,3.7260000705718994,False,True,False,True,True,False,False,1666.0840538985842,2775279.781576525,1634.415587733009,2661342.686218957,1732.3790962356659,3001023.3456823695,1707.3524458449535,2913302.5695379507,0.14300073557677365,-0.01346842679907373,9.782190735576776,0,0.0,-0.005952958049265237,-0.0032813627720753727,-0.004468430882415534
5,244,0.05000000000000039,0.0067428731639665165,0.03413046667278969,0.5774552387828648,-0.0014675882569952202,-0.0020238688355632924,-0.0022221641772606254,0.9999944060473607,-0.011337751360456576,-0.0028089563107553672,-0.007128582703849988,-0.016550458892425478,0.005899450045522314,0.02453828209715509,0.308790469141705,0.0017939289603383472,-0.024335039816875022,18.903000116348267,0.0044892104342579,0.0383238941431045,0.5617963075637817,,,,,,,,0.44162520946879885,0.7760580307936636,0.6994064631632411,0.39045886302694816,95500.0,94300.0,97400.0,96500.0,18.89911103248596,0.36496997179462637,0.01490867802748414,0.004421372594431836,-0.12765159740470272,0.14567036300412683,-0.060047046652446354,9.65104844402039,18.89911103248596,0.0010236843710875537,-0.00024105247101770998,0.49935105244335376,0.0,0.0,0.0,1.0,0.0,1.402386978473882e-18,-9.568369488545757e-19,0.030511578947368424,0.0011257894736842117,0.00705578947368421,0.0,0.0,0.0,18.896915435791016,3.7260000705718994,False,True,False,True,True,False,False,1641.9188154394703,2696878.032824991,1689.7095055366385,2860202.1836903244,1753.9884833193355,3079049.4754029494,1662.3960804878848,2766742.54998142,0.1148418098936344,-0.05731804864398592,9.69219,0,0.0,-0.003185903049909996,-0.0032811502190942163,-0.004468141436118028
6,245,0.06000000000000062,0.00672938725203236,0.03414823318524693,0.5778034331176229,-6.0436298515944415e-05,-0.002785449447200792,-0.0022742046931532884,0.9999935327850099,-0.011450860600275736,-0.004332172132803637,-0.004317144834014582,-0.016234682479746028,0.00599257529827049,0.022176465061189587,0.48641165866616387,-0.14513059275995932,-0.03914839546754047,18.91370368003845,0.0045187044888734,0.038225382566452,0.561754584312439,,,,,,,,0.4841006677197348,0.7337240622135739,0.6813815816270008,0.4440380746841511,91700.0,102000.0,104200.0,90900.0,18.90945339202881,0.2149844363824518,-0.15549164277596378,6.398779475045072e-06,-0.27763713281687735,-0.03653856501843892,-0.18578201565376048,9.757645162889371,18.90945339202881,0.0010236843710875537,-0.00024105247101770998,0.49935105244335376,0.0,0.0,0.0,1.0,0.0,1.402386978473882e-18,-9.568369488545757e-19,0.030511578947368424,0.0011257894736842117,0.00705578947368421,0.0,0.0,0.0,18.896915435791016,3.7260000705718994,False,True,False,True,True,False,False,1606.4692713904965,2582168.5966567174,1809.6270413695456,3294051.1251384933,1795.615143327869,3228202.2700671772,1593.7644060567134,2543721.1441666884,0.08951876503407825,-0.16077010422478102,9.567671234965925,0,0.0,-0.00041921433653051396,-0.0032809989962448117,-0.004467935506783986
7,246,0.07000000000000041,0.0067162198581928526,0.034145755085306186,0.5780417179583598,0.0016060220387394016,-0.0030817648809078144,-0.002335091202050616,0.9999912353453445,-0.011580264205129077,-0.004926168144714179,-0.0009908713372165428,-0.015836298372085805,0.005928899446014736,0.013918653518767293,0.5823923943342512,-0.15884343862785497,-0.04020043344052034,18.9240460395813,0.0047995802015066,0.0381129384040832,0.5616047382354736,,,,,,,,0.5883424864022084,0.58884563508744,0.6121103433554933,0.5897078798593332,90100.0,113200.0,106000.0,88200.0,18.928282260894772,0.13280949506816425,-0.36515523375420034,-0.006647429204802655,-0.359812074131165,-0.2424166211011734,-0.2961334395642775,10.059586212431466,18.928282260894772,0.0030236843710875535,-0.00024105247101770998,0.49935105244335376,0.0,0.0,0.0,1.0,0.0,1.402386978473882e-18,-9.568369488545757e-19,0.11551157894736841,0.0011257894736842117,0.00705578947368421,0.0,0.0,0.0,18.92882442474365,3.700000047683716,False,True,False,True,True,False,False,1582.8822918876886,2505828.7886086684,1920.8088384316277,3697074.2471381235,1833.7388208089992,3363989.5880650496,1549.6820999533784,2400801.1298063975,-0.3317612337174511,-0.23211026309024296,10.235473701088312,0,0.0,0.005114341505818884,-0.0032813020277111045,-0.004468348163127213
8,247,0.08000000000000064,0.006713061970109518,0.03410865417243786,0.5780583120035031,0.0033508342200564783,-0.002028125019033092,-0.0023615968300923058,0.9999895406849759,-0.011626114077544422,-0.0028236601316807765,0.002493004002419161,-0.015516035392616052,0.0056360811195509015,0.005928866488128461,0.5408934321741066,0.198530525703927,-0.016366581654440205,18.9240460395813,0.0047995802015066,0.0381129384040832,0.5616047382354736,,,,,,,,0.6705836320579048,0.46547889064205716,0.5617831643319655,0.7148198841240677,90100.0,113200.0,106000.0,88200.0,18.928282260894772,0.10331520210741911,-0.4629621588963855,-0.010734711905778781,-0.3893063670919101,-0.2530866328207302,-0.3443690922635704,10.256881024088557,18.928282260894772,0.0030236843710875535,-0.00024105247101770998,0.49935105244335376,0.0,0.0,0.0,1.0,0.0,1.402386978473882e-18,-9.568369488545757e-19,0.11551157894736841,0.0011257894736842117,0.00705578947368421,0.0,0.0,0.0,18.92882442474365,3.700000047683716,False,True,False,True,True,False,False,1589.0241031106846,2525613.7267554877,1947.5064079950052,3791163.765193168,1846.068811281167,3407131.4616217376,1561.4043536099812,2438575.948442701,-0.3317612337174511,-0.23211026309024296,10.235473701088312,0,0.0,0.005114341505818884,-0.0032813020277111045,-0.004468348163127213
9,248,0.09000000000000043,0.0067354121231187015,0.0340274846122208,0.5778294294560502,0.004988252345453213,0.001370230952648392,-0.002294624091693568,0.9999839871247701,-0.011448401219893128,0.003963977490727217,0.005773122470466917,-0.015314325217095453,0.004979845875415804,0.0036552767579570095,0.38320307445289836,0.9776593543297499,0.0248735726911296,18.93670463562012,0.005001132376492,0.0380372181534767,0.5612744092941284,,,,,,,,0.6780518603549868,0.4531550103216556,0.5769149879975162,0.743308539575336,94600.0,105600.0,103800.0,94600.0,18.941362380981445,0.10970482476162635,-0.38741456596357293,-0.008814438918886301,-0.3829167444377026,-0.033733242951111846,-0.3566874947973864,10.211232582931757,18.941362380981445,0.0030236843710875535,-0.00024105247101770998,0.49935105244335376,0.0,0.0,0.0,1.0,0.0,1.402386978473882e-18,-9.568369488545757e-19,0.11551157894736841,0.0011257894736842117,0.00705578947368421,0.0,0.0,0.0,18.92882442474365,3.700000047683716,False,True,False,True,True,False,False,1618.6209759989733,2621356.0715408917,1888.8919260914001,3571614.667877182,1836.253921068797,3371317.290027317,1613.7863823875632,2607706.21457891,0.07213410796607371,-0.25673806671216404,10.160653568135707,0,0.0,0.007881569249144132,-0.003281481105024997,-0.004468592023576459
10,249,0.10000000000000066,0.006805274238851085,0.03390165593860311,0.5773996105607364,0.006382992059593669,0.007903449932275685,-0.0020818707168670765,0.9999462279072078,-0.010915408933318643,0.01701921474195587,0.008593604396572127,-0.014698202222012525,0.003762096334667846,0.008101113685652665,0.20111281337478762,1.931412879339264,0.05952119335943607,18.955955028533936,0.0059887003153562,0.03804262727499,0.5609351396560669,,,,,,,,0.6327457379068131,0.533013275479246,0.6305919827525381,0.6880895261418025,94300.0,103100.0,104900.0,95200.0,18.948410034179688,0.16295775940570717,-0.22398235996117294,-0.0021991759695862423,-0.32966380979362153,0.35652829442944545,-0.35664095799219653,10.136932125629507,18.948410034179688,0.009023684371087554,-0.00024105247101770998,0.49935105244335376,0.0,0.0,0.0,1.0,0.0,1.402386978473882e-18,-9.568369488545757e-19,0.2435115789473684,0.0011257894736842117,0.00705578947368421,0.0,0.0,0.0,18.96847248077393,3.684000015258789,False,True,False,True,True,False,False,1650.291184526855,2723974.8444288024,1813.6844541962632,3291178.9689712706,1824.9985026013956,3330841.860807253,1663.9080820704494,2769494.866411888,0.24456210433561337,-0.15066858568401223,10.19327265457522,0,0.0,0.01618370520640022,0.021622777397566816,-0.00446894826302001
11,250,0.11000000000000044,0.006951318515012614,0.03374037161707557,0.5768559824629685,0.007494073570355445,0.017866163670746837,-0.0017047770549165786,0.9998108485069589,-0.00996356877392666,0.03694131189485378,0.01088941967274057,-0.012386022590261336,0.001903018641047613,0.01584081788163352,0.09440851159632288,2.683682176579894,0.06758281821785062,18.955955028533936,0.0059887003153562,0.03804262727499,0.5609351396560669,,,,,,,,0.592561681426464,0.6261645893934332,0.6675853359981156,0.6147958521143784,94300.0,103100.0,104900.0,95200.0,18.948410034179688,0.27463312556206576,-0.08808346817477382,0.0046558404917155,-0.2179884436372631,0.8889958302155124,-0.3347923492593922,10.218255292478332,18.948410034179688,0.009023684371087554,-0.00024105247101770998,0.49935105244335376,0.0,0.0,0.0,1.0,0.0,1.402386978473882e-18,-9.568369488545757e-19,0.2435115789473684,0.0011257894736842117,0.00705578947368421,0.0,0.0,0.0,18.96847248077393,3.684000015258789,False,True,False,True,True,False,False,1670.935957797341,2791242.6145139355,1783.8816829869284,3179400.174126323,1823.6892694260496,3326159.198062947,1683.7243095791368,2833090.283595612,0.24456210433561337,-0.15066858568401223,10.19327265457522,0,0.0,0.01618370520640022,0.021622777397566816,-0.00446894826302001
12,251,0.12000000000000023,0.007208452966984775,0.03355918951870775,0.5763080344339219,0.008382322599734468,0.03093244669208373,-0.0011940108658542049,0.9994856150778397,-0.008635627377271934,0.0630999893782144,0.012796176304909075,-0.006847614124439491,-0.00041088945623134513,0.021429904935853148,0.09881191513236506,3.0331635925893616,0.05127443595643769,18.980124950408936,0.0074353842064738,0.0379150062799453,0.5602357387542725,,,,,,,,0.598529121543708,0.6719367561590535,0.6666068197147537,0.5868773807820449,98000.0,104200.0,104500.0,97100.0,18.98101043701172,0.4165592391069278,-0.004119208627720488,0.0083931133153311,-0.07606233009240192,1.38297544725045,-0.3076827738379393,10.336643127901054,18.98101043701172,0.020023684371087553,-0.00024105247101770998,0.49935105244335376,0.0,0.0,0.0,1.0,0.0,1.402386978473882e-18,-9.568369488545757e-19,0.40351157894736844,0.0011257894736842117,0.00705578947368421,0.0,0.0,0.0,19.009472370147705,3.684000015258789,False,True,False,True,True,False,False,1685.3007986865287,2839494.4149490055,1802.6439774919468,3248255.172095646,1826.6512110766596,3336609.7746835747,1680.6087669292672,2822616.3894637045,0.8255892103945348,-0.11604503826038556,10.462281112686433,0,0.0,0.01617714532200938,0.07693495493262673,-0.001701089487649009
13,252,0.13000000000000045,0.007616310101276219,0.033373240072493586,0.5758708638625999,0.009163703616716166,0.046264762587430716,-0.0006206826678708846,0.9988869871170509,-0.007070348445909079,0.09385350353419233,0.014553625678506224,0.002731057057709456,-0.002879417313903247,0.0208789207133073,0.16698248917735423,3.084641178245669,0.031073330708198066,18.980124950408936,0.0074353842064738,0.0379150062799453,0.5602357387542725,,,,,,,,0.6488391029825213,0.6627846650919929,0.6489706540130553,0.6248578595442031,98000.0,104200.0,104500.0,97100.0,18.98101043701172,0.528657244301447,0.05763165184003188,0.008528425735638199,0.03603567510211688,1.6234387883722154,-0.326906230467768,10.33142861328241,18.98101043701172,0.020023684371087553,-0.00024105247101770998,0.49935105244335376,0.0,0.0,0.0,1.0,0.0,1.402386978473882e-18,-9.568369488545757e-19,0.40351157894736844,0.0011257894736842117,0.00705578947368421,0.0,0.0,0.0,19.009472370147705,3.684000015258789,False,True,False,True,True,False,False,1706.0632952882552,2911555.699541095,1833.3091898737564,3361584.3842643425,1826.3933340591793,3335584.674359858,1682.6491092730312,2831181.6756580826,0.8255892103945348,-0.11604503826038556,10.462281112686433,0,0.0,0.01617714532200938,0.07693495493262673,-0.001701089487649009
14,253,0.14000000000000024,0.008216060945382369,0.03319083677497796,0.5756456248392497,0.009930375407460557,0.06281438678046952,-6.602922188156708e-05,0.997975819395341,-0.005445023365114856,0.12714512494357655,0.016347043621491364,0.01606402098153983,-0.005389560806422245,0.015082103795079911,0.21770568113221603,3.0927619237301887,0.024612545015034425,18.99560308456421,0.0084521081298589,0.0377892591059207,0.5601529479026794,,,,,,,,0.7026864944597515,0.6352911560609472,0.6451278658295941,0.6901334106527928,97400.0,106400.0,106000.0,96200.0,18.988357543945312,0.5691679707305783,0.07720143518216895,0.006091557774738729,0.07654640153124949,1.8136711509251262,-0.393898674050219,10.31124978733636,18.988357543945312,0.020023684371087553,-0.00024105247101770998,0.49935105244335376,0.0,0.0,0.0,1.0,0.0,1.402386978473882e-18,-9.568369488545757e-19,0.40351157894736844,0.0011257894736842117,0.00705578947368421,0.0,0.0,0.0,19.009472370147705,3.684000015258789,False,True,False,True,True,False,False,1738.30810498447,3024233.3158629034,1847.0140696780607,3411972.4926459272,1826.9271934332407,3338221.8640673906,1709.4658133186385,2924900.7841844438,0.2665501253800784,-0.16488753991126764,10.456144471359503,0,0.0,0.018922669870236757,0.13763873081390302,0.0010638038957688028
15,254,0.15000000000000047,0.009046221702049955,0.03301166411943419,0.5756953623809753,0.010692285537231276,0.07967510966226,0.0004129305296562078,0.9967634530913916,-0.003903010023039802,0.16120260666581643,0.01819237711822717,0.032771478858477365,-0.008062969061603349,0.010226841735297072,0.2051275873543357,3.205776948112856,0.03126764205275367,19.002950191497803,0.0097531666979193,0.037781499326229,0.560230553150177,,,,,,,,0.720187903951899,0.6303974913864352,0.6618447304298318,0.7229298795430686,103400.0,104900.0,102700.0,101000.0,19.00486850738525,0.5517538220658087,0.001798964962763736,0.002442694240246663,0.05913225286648173,2.328953234224442,-0.43277780485395057,10.476849820088876,19.00486850738525,0.020023684371087553,-0.00024105247101770998,0.49935105244335376,0.0,0.0,0.0,1.0,0.0,1.402386978473882e-18,-9.568369488545757e-19,0.40351157894736844,0.0011257894736842117,0.00705578947368421,0.0,0.0,0.0,19.009472370147705,3.684000015258789,False,True,False,True,True,False,False,1773.391713835562,3146703.217822144,1843.9492368611523,3400120.9905698467,1838.0929736978378,3380264.015113782,1754.478763390098,3081216.6634866465,0.33987121537074305,-0.22189164202256906,10.603372641394008,0,0.0,0.021670477881082163,0.1651530849287766,0.0010630561901340907
16,255,0.1600000000000007,0.010139908280032483,0.03283083165032693,0.5760229301821718,0.011379713826957847,0.09631650151322782,0.000801308961398143,0.9952853819651012,-0.0025075706527341716,0.1949985072975268,0.01994470591933308,0.05359776701489812,-0.010989104207355858,0.01300956345768269,0.14697826069647307,3.3698225993180135,0.03684672388266251,19.019461154937744,0.0124773867428302,0.0377669781446456,0.5602826476097107,,,,,,,,0.7059566015518619,0.653004862784132,0.6799920170246478,0.708509779404723,103400.0,106000.0,108300.0,103800.0,19.022010326385494,0.5347087175329928,-0.14131147480688164,-0.0005810479683986112,0.04208714833366524,3.0142208553612866,-0.39172704189304886,10.755826459793743,19.022010326385494,0.03602368437108756,-0.00024105247101770998,0.49935105244335376,0.0,0.0,0.0,1.0,0.0,1.402386978473882e-18,-9.568369488545757e-19,0.5785115789473684,0.0011257894736842117,0.00705578947368421,0.0,0.0,0.0,19.02841305732727,3.67300009727478,False,True,False,True,True,False,False,1799.2747319403215,3236956.140167577,1841.0691830182418,3389263.914503175,1860.815518460337,3464520.1508346894,1793.9265466627467,3218090.323139363,1.0776918539036475,-0.05595531933718029,11.313463355947535,0,0.0,0.02440693893773233,0.19808633166715325,0.0010619836823598115
17,256,0.17000000000000048,0.01152597197962549,0.03264589821038138,0.5765647430284662,0.011899522065896659,0.1125947745706762,0.0011202404941659772,0.9935691033718878,-0.0012415743933725408,0.22827142813133555,0.021414135118996685,0.07958098174288816,-0.013985906382785029,0.024374540217793103,0.09434942301064218,3.4532473846716725,0.030449622724894716,19.019461154937744,0.0124773867428302,0.0377669781446456,0.5602826476097107,,,,,,,,0.6981090309854525,0.6748837442713896,0.6819827077477352,0.68779499587988,103400.0,106000.0,108300.0,103800.0,19.022010326385494,0.5738636094613705,-0.23335515198811646,-0.00120951563740502,0.08124204026203835,3.425444252577372,-0.32041205728526645,10.902641335417918,19.022010326385494,0.03602368437108756,-0.00024105247101770998,0.49935105244335376,0.0,0.0,0.0,1.0,0.0,1.402386978473882e-18,-9.568369488545757e-19,0.5785115789473684,0.0011257894736842117,0.00705578947368421,0.0,0.0,0.0,19.02841305732727,3.67300009727478,False,True,False,True,True,False,False,1816.212602492954,3297396.5825610263,1850.8273851042297,3425817.036252859,1884.6767296877827,3552646.00158932,1814.4926481399232,3290149.291147091,1.0776918539036475,-0.05595531933718029,11.313463355947535,0,0.0,0.02440693893773233,0.19808633166715325,0.0010619836823598115
18,257,0.18000000000000027,0.013233922119409859,0.03246195117094725,0.5772114080882614,0.01219959454988956,0.1285993295529003,0.0014067762101811472,0.991620594437236,-3.848330737060064e-05,0.2612251104658289,0.022498088382744485,0.10986273170787485,-0.01668142505171343,0.03873803090992438,0.07918706042340534,3.4143728831264815,0.014407209595124468,19.03660297393799,0.0147075448185205,0.0376367196440696,0.5602813363075256,,,,,,,,0.7161016599969414,0.6754161361599218,0.6736725520915112,0.6988868476682433,104900.0,106800.0,108300.0,104500.0,19.02847194671631,0.675700261076247,-0.197478312007644,0.0005889937998613904,0.1830786918769117,3.631494667683172,-0.307977018024818,10.910254305371186,19.02847194671631,0.03602368437108756,-0.00024105247101770998,0.49935105244335376,0.0,0.0,0.0,1.0,0.0,1.402386978473882e-18,-9.568369488545757e-19,0.5785115789473684,0.0011257894736842117,0.00705578947368421,0.0,0.0,0.0,19.02841305732727,3.67300009727478,False,True,False,True,True,False,False,1836.0222552525997,3371137.912098577,1870.9907382718409,3501177.3136725854,1900.7631895955299,3612376.447976184,1827.6064969658614,3339246.3965483964,0.48018865443375525,-0.013039617045958185,11.548699072217634,0,0.0,0.02433920165737217,0.26905393632295005,0.0038097043520015257
19,258,0.1900000000000005,0.015299379642903723,0.03229159758518072,0.5778508980104815,0.012297730645934453,0.14449680415285224,0.001695781673971859,0.9894273918459539,0.0011838233236246296,0.29422726589006243,0.023242193696806187,0.14210938704156223,-0.018879205090132432,0.049891410874902134,0.09046549099039138,3.3250483048273662,-0.0013238477308149953,19.0430645942688,0.01707099750638,0.0376355350017547,0.5605767369270325,,,,,,,,0.7413884374568351,0.6661829850025295,0.6742169944426958,0.7319262273141426,106800.0,108300.0,109100.0,104900.0,19.040951013565063,0.7878375544404821,-0.08851735342624018,0.0028277909420420483,0.29521598524115344,4.041052627485169,-0.3758492538791159,10.995118737691232,19.040951013565063,0.03602368437108756,-0.00024105247101770998,0.49935105244335376,0.0,0.0,0.0,1.0,0.0,1.402386978473882e-18,-9.568369488545757e-19,0.5785115789473684,0.0011257894736842117,0.00705578947368421,0.0,0.0,0.0,19.02841305732727,3.67300009727478,False,True,False,True,True,False,False,1864.6061960888132,3478276.80636666,1890.1963130644353,3572719.6151878675,1911.174653076531,3652030.988657479,1851.4269769914583,3429723.730020012,0.45508162320481116,-0.07260971064806998,11.506753190289643,0,0.0,0.024304554557274583,0.29888520916341516,0.0038042811992669325
20,259,0.2000000000000003,0.017765160570946365,0.03215066762302503,0.5784133686311544,0.012263680428715798,0.16045667235645195,0.0020107413316125494,0.9869646474711917,0.0024982960513853475,0.32766988519888524,0.023803739384420413,0.17622224737007725,-0.020846606047934757,0.05683619261212357,0.0959300606864564,3.263874578299764,-0.010805897966603802,19.055543661117557,0.0263519510626792,0.037832923233509,0.5616567134857178,,,,,,,,0.7507982353118505,0.6720167641461058,0.6916509757424842,0.7518102529341724,109100.0,109900.0,111100.0,109100.0,19.05855107307434,0.8371325320036547,-0.013290986232477875,0.0036560687240677335,0.34451096280433896,4.648921756427223,-0.45940491554761653,11.191210090725725,19.05855107307434,0.059023684371087556,-0.00024105247101770998,0.49935105244335376,0.0,0.0,0.0,1.0,0.0,1.402386978473882e-18,-9.568369488545757e-19,0.7705115789473684,0.0011257894736842117,0.00705578947368421,0.0,0.0,0.0,19.06592011451721,3.641999959945679,False,True,False,True,True,False,False,1893.071912318569,3584460.7901381324,1902.3318549630496,3618239.862498181,1924.0771802949407,3702128.1242468758,1884.588554612673,3553978.281230566,0.886707775128889,-0.17856084080153667,12.333025860824186,0,0.0,0.024262781473408733,0.3312759009751466,0.0037977426487573246
21,260,0.21000000000000052,0.020674569116467905,0.0320531355297182,0.5788947573510503,0.01217498294475553,0.17659618534694144,0.0023601540772410197,0.9842052564297425,0.003946587144879641,0.3618559468762158,0.024354989387815256,0.21586866935537652,-0.023116787214769882,0.06330351012314056,0.07929387307418298,3.235675859366554,-0.016038980767419938,19.055543661117557,0.0263519510626792,0.037832923233509,0.5616567134857178,,,,,,,,0.7475783775932141,0.6965276895573401,0.7153093613575017,0.7481164940563615,109100.0,109900.0,111100.0,109100.0,19.05855107307434,0.7782573378466437,-0.004396641659924756,0.0032047285309308262,0.28563576864732665,5.125299403342696,-0.4851921150377266,11.310378289620441,19.05855107307434,0.059023684371087556,-0.00024105247101770998,0.49935105244335376,0.0,0.0,0.0,1.0,0.0,1.402386978473882e-18,-9.568369488545757e-19,0.7705115789473684,0.0011257894736842117,0.00705578947368421,0.0,0.0,0.0,19.06592011451721,3.641999959945679,False,True,False,True,True,False,False,1910.6279946308237,3649630.508260375,1914.0089124601664,3663738.495224176,1943.5592517566379,3777930.093339646,1908.3333620422382,3641685.996222997,0.886707775128889,-0.17856084080153667,12.333025860824186,0,0.0,0.024262781473408733,0.3312759009751466,0.0037977426487573246
22,261,0.2200000000000003,0.024058637393530743,0.03200826604304117,0.5793505030780741,0.01207774695934418,0.19288338110212191,0.002736195836832965,0.9811435382018995,0.00551861881533607,0.39678434664115453,0.024990750415583095,0.2645929083105846,-0.025887777204340365,0.0727764093267528,0.051114085441447535,3.1985962538811403,-0.02159460527590146,19.07314372062683,0.0263519510626792,0.037832923233509,0.5616567134857178,,,,,,,,0.7491142119333203,0.7172322329371658,0.7307664735495853,0.743863653009521,110700.0,108300.0,111900.0,110700.0,19.06860566139221,0.6097808712993796,-0.01786395367469493,0.0027652267383240703,0.11715930210003345,5.427208981174667,-0.4475152558738993,11.300245422135871,19.06860566139221,0.059023684371087556,-0.00024105247101770998,0.49935105244335376,0.0,0.0,0.0,1.0,0.0,1.402386978473882e-18,-9.568369488545757e-19,0.7705115789473684,0.0011257894736842117,0.00705578947368421,0.0,0.0,0.0,19.06592011451721,3.641999959945679,False,True,False,True,True,False,False,1920.696093676173,3688023.8440867835,1933.7135761172642,3741079.5259530093,1965.6555055748545,3864197.30122245,1914.1789327497013,3662698.89196295,0.5287975387983268,-0.15324539286790884,12.464160488722278,0,0.0,0.024167048571399556,0.3955178698795033,0.006513970346187026
23,262,0.23000000000000054,0.02792481415056523,0.03202050923201826,0.5798674230857978,0.011973385576048092,0.20906134398301043,0.0031166461461469884,0.9778242577307358,0.007146667413211008,0.4319668908496502,0.025691374430181192,0.321746883187005,-0.02868699208274934,0.08557638074164989,0.02760467968982283,3.1305292659126827,-0.029142305549091432,19.083198308944706,0.0307616032660007,0.0378223024308681,0.5626480579376221,,,,,,,,0.7567747570712648,0.7182326841285482,0.737456561484739,0.7567643596071272,110300.0,113600.0,114100.0,109100.0,19.078458070755005,0.36896191476943063,-0.02407929432176218,0.00296484708804588,-0.12365965442994065,5.789040476051898,-0.4008575985641427,11.294109040451216,19.078458070755005,0.08902368437108756,-0.00024105247101770998,0.49935105244335376,0.0,0.0,0.0,1.0,0.0,1.402386978473882e-18,-9.568369488545757e-19,0.9635115789473684,0.0011257894736842117,0.00705578947368421,0.0,0.0,0.0,19.096267461776733,3.615000009536743,False,True,False,True,True,False,False,1936.9120081860056,3752055.929657348,1956.296724734955,3828917.2829046776,1982.6757743505545,3931117.61095128,1917.7184677129057,3677470.3262268933,0.5131892130397775,-0.10484654858124925,12.714993310614451,0,0.0,0.024117945551352018,0.42469654029416803,0.006500735150521618
24,263,0.24000000000000032,0.03225574727777051,0.03209077375896069,0.5805289772963633,0.011833883968224922,0.22469077307551913,0.0034709035404344025,0.9743520762607145,0.008723428249314165,0.466485897152921,0.02635470196297056,0.38390760569586935,-0.030756044018254318,0.10029122277721564,0.011782736803876813,3.0429343604640593,-0.03780959478722394,19.09305071830749,0.03547865152359,0.0381254665553569,0.563515841960907,,,,,,,,0.7557578922148772,0.7122822825647881,0.7434527527671764,0.7723837728775133,111500.0,114100.0,115400.0,109500.0,19.088647603988647,0.13674214394028283,-0.03795062823369952,0.0035267048455217614,-0.35587942525905064,6.283554026713749,-0.38764520060972296,11.32379481920836,19.088647603988647,0.08902368437108756,-0.00024105247101770998,0.49935105244335376,0.0,0.0,0.0,1.0,0.0,1.402386978473882e-18,-9.568369488545757e-19,0.9635115789473684,0.0011257894736842117,0.00705578947368421,0.0,0.0,0.0,19.096267461776733,3.615000009536743,False,True,False,True,True,False,False,1963.2656345668138,3855976.792682222,1968.6836854995677,3876355.0329663316,1991.7579650945218,3967412.828739371,1937.7609969246957,3757003.511882955,0.4173240753095042,-0.098248455781688,12.95949009233016,0,0.0,0.024065643512472874,0.45369281672589734,0.006486637693428447
25,264,0.25000000000000056,0.03702213350889018,0.03221763259754358,0.5813877787164976,0.011632246346942729,0.23930326718431774,0.0037694988320227402,0.9708678736256496,0.010140675703539333,0.4992873917963332,0.026871564377652077,0.44882973946959226,-0.03175801290687071,0.11581859109120562,0.0019553896356555916,2.9473064718039446,-0.04701436839591422,19.103240251541138,0.0405875369906425,0.0380501970648765,0.5644098520278931,,,,,,,,0.7429673693103294,0.714818302055646,0.7429860945401103,0.7685187580553907,115400.0,112400.0,112400.0,114500.0,19.09899139404297,0.03142126951096379,-0.05974029361642757,0.004029735267905226,-0.46120029968827914,6.752490614396149,-0.39184802166264754,11.289820603162937,19.09899139404297,0.08902368437108756,-0.00024105247101770998,0.49935105244335376,0.0,0.0,0.0,1.0,0.0,1.402386978473882e-18,-9.568369488545757e-19,0.9635115789473684,0.0011257894736842117,0.00705578947368421,0.0,0.0,0.0,19.096267461776733,3.615000009536743,False,True,False,True,True,False,False,1985.5586770979758,3943440.0890798876,1970.8116737273879,3884322.6768966885,1998.017491377629,3992919.1002404173,1969.1736200830992,3879735.3147957716,0.4911902017702783,-0.07426858708831297,13.203225158981303,0,0.0,0.024010220308686863,0.4824963330776572,0.006471698959603085
26,265,0.26000000000000034,0.04220655568642526,0.032398087992606336,0.5824550070841152,0.011367349297307254,0.2525722462739566,0.003997959366736544,0.9675030026325411,0.011339934478395588,0.5295293543867479,0.02719866846524642,0.5157635532501331,-0.03204455454192602,0.13114571848617657,0.006945247515104032,2.8408102308542578,-0.05653050086955372,19.11358404159546,0.0467728301882743,0.0385030284523963,0.5655645132064819,,,,,,,,0.7339904776366138,0.7132412773163064,0.7187157483546089,0.7504540268834694,114100.0,111100.0,115400.0,114100.0,19.108805418014526,0.14448201452464132,-0.04849515447269654,0.0038662285886024847,-0.3481395546745947,7.078554722143057,-0.37355181839674223,11.156748666963836,19.108805418014526,0.08902368437108756,-0.00024105247101770998,0.49935105244335376,0.0,0.0,0.0,1.0,0.0,1.402386978473882e-18,-9.568369488545757e-19,0.9635115789473684,0.0011257894736842117,0.00705578947368421,0.0,0.0,0.0,19.096267461776733,3.615000009536743,False,True,False,True,True,False,False,1987.6211247428455,3951091.4532537023,1976.560826280153,3907573.774410774,2006.5221069182296,4027109.665640186,1987.9352800933755,3952127.9732928374,0.5345532230582748,-0.10423521295351462,13.11184442053057,0,0.0,0.0239571120305123,0.5085039401641024,0.009164869864074016
27,266,0.2700000000000006,0.04782861170200738,0.03262828757704873,0.5837094220766923,0.011066903602891082,0.2644264460378559,0.004173645217334369,0.9643333235795769,0.012360897577750291,0.5568406957842862,0.02738757941429759,0.5827257486939131,-0.03224884581061848,0.1445649042727012,0.03616557547542563,2.7265891217057527,-0.06448926400765408,19.123398065567017,0.0536154098808765,0.0388875640928745,0.5671795010566711,,,,,,,,0.7357931944646098,0.6880996172910259,0.6753384804975546,0.7412296796672146,111500.0,115400.0,116700.0,113200.0,19.118369102478027,0.441722283443888,0.016263594847905176,0.0021001770554998646,-0.0508992857555355,7.316493552194405,-0.3384950190204375,10.94149943278939,19.118369102478027,0.12302368437108756,-0.00024105247101770998,0.49935105244335376,0.0,0.0,0.0,1.0,0.0,1.402386978473882e-18,-9.568369488545757e-19,1.1465115789473685,0.0011257894736842117,0.00705578947368421,0.0,0.0,0.0,19.126288414001465,3.6050000190734863,False,True,False,True,True,False,False,1971.3560499874907,3886738.7380516864,1990.142968704768,3961702.243585891,2013.7508170632827,4055612.2942158217,1981.9484584170998,3927845.3463769145,0.3594663948408874,-0.11521187361580698,13.190219602086163,0,0.0,0.02119559443512812,0.5369176228124487,0.009141566919607292
28,267,0.28000000000000036,0.053957215201138053,0.032904143598279825,0.585118376250169,0.010768162817776289,0.2750792311565197,0.0043549714064393475,0.9613513912612375,0.013359433285390718,0.5814374842955047,0.02755688808312623,0.6464717919234371,-0.032670127870079925,0.15455715116383664,0.07613517703456098,2.620839321808442,-0.06751689606733223,19.13296175003052,0.0606484487652778,0.0390337072312831,0.5686067938804626,,,,,,,,0.7332157842653138,0.6527236216033052,0.6471994329195285,0.7448252695572122,112800.0,115400.0,114100.0,112400.0,19.13043975830078,0.7393305470559374,0.08664176662300527,-0.0012469876949265212,0.24670897785631704,7.562912680714224,-0.33005296219383,10.63013806989768,19.13043975830078,0.12302368437108756,-0.00024105247101770998,0.49935105244335376,0.0,0.0,0.0,1.0,0.0,1.402386978473882e-18,-9.568369488545757e-19,1.1465115789473685,0.0011257894736842117,0.00705578947368421,0.0,0.0,0.0,19.126288414001465,3.6050000190734863,False,True,False,True,True,False,False,1954.106021772552,3818627.080158094,1996.2696003805825,3985817.319776428,2011.1947782296634,4044865.843281389,1965.7842574421268,3864210.221491382,0.28753086270796313,-0.041985758416568875,13.114397451472204,0,0.0,0.021149311145773377,0.5599975560229815,0.009121605139899206
29,268,0.2900000000000006,0.06069749578971829,0.03322089817752911,0.5866561041452455,0.010494000532279687,0.28496202984907426,0.004628516971542884,0.9584701843707858,0.014567223469220444,0.6040546290405601,0.027832756257490113,0.7065661719397301,-0.0330538964797131,0.1613115097795081,0.09469876535585281,2.5282555387293533,-0.06348056770977223,19.14503240585327,0.0775067210197448,0.0401731319725513,0.5716637969017029,,,,,,,,0.7141620704420485,0.6414422353894216,0.6555055428022305,0.7409306813262214,111500.0,112400.0,114100.0,112400.0,19.1504020690918,0.8348695427702042,0.0972282798794055,-0.004060650113259043,0.34224797357079456,7.810404798030557,-0.3400730762087144,10.265462238237436,19.1504020690918,0.16502368437108755,-0.00024105247101770998,0.49935105244335376,0.0,0.0,0.0,1.0,0.0,1.402386978473882e-18,-9.568369488545757e-19,1.3235115789473686,0.0011257894736842117,0.00705578947368421,0.0,0.0,0.0,19.16006064414978,3.6050000190734863,False,True,False,True,True,False,False,1948.3962119299865,3795928.820064782,1981.3211776930993,3926596.8051502006,1995.172917134811,3980941.67591062,1961.0745745216616,3845609.601189048,0.6614561252965219,-0.12466825329989123,12.800785296106913,0,0.0,0.0211194705712592,0.583425571334724,0.009108735030986916
30,269,0.3000000000000004,0.06815081230853465,0.03357110318702162,0.5883079291754427,0.010246225367430934,0.29456274601238835,0.005072600697944513,0.9555637457802175,0.01619910678445884,0.6256602529844156,0.02830368311731755,0.768005224136705,-0.03291973894453108,0.16650846487568965,0.07778564393487203,2.4278506967139344,-0.053189618785415387,19.14503240585327,0.0775067210197448,0.0401731319725513,0.5716637969017029,,,,,,,,0.6909739249346442,0.659867350860952,0.6767205764811861,0.7169321990687443,111500.0,112400.0,114100.0,112400.0,19.1504020690918,0.700031601830845,0.04655490794615681,-0.003924008037316325,0.20741003263206256,7.9808926608282835,-0.30480889785467535,9.94504699542695,19.1504020690918,0.16502368437108755,-0.00024105247101770998,0.49935105244335376,0.0,0.0,0.0,1.0,0.0,1.402386978473882e-18,-9.568369488545757e-19,1.3235115789473686,0.0011257894736842117,0.00705578947368421,0.0,0.0,0.0,19.16006064414978,3.6050000190734863,False,True,False,True,True,False,False,1949.965705028007,3802087.58111232,1953.457188870154,3816666.921053718,1970.0805993694144,3881775.607591603,1969.3209842776887,3877889.189465765,0.6614561252965219,-0.12466825329989123,12.800785296106913,0,0.0,0.0211194705712592,0.583425571334724,0.009108735030986916
31,270,0.3100000000000006,0.07636398628830093,0.03394254428369482,0.5900606740765638,0.010022177983124717,0.30421947221966505,0.005717513792916101,0.9525320880195537,0.01835973582244109,0.6470273085751065,0.029019051384294236,0.8378587803072621,-0.03205385036380591,0.17128740240572463,0.05145149164787362,2.2938869311638945,-0.039299691477585066,19.164994716644287,0.0973646938800811,0.041340421885252,0.5752389430999756,,,,,,,,0.6836555153533739,0.672967271837442,0.6719959232915218,0.6878250316026637,111500.0,110300.0,110300.0,113200.0,19.172598600387573,0.5154118934059967,-0.001044764429369148,-0.001233067809320572,0.022790324207371954,8.040839322392294,-0.2237003296071088,9.655331105081334,19.172598600387573,0.16502368437108755,-0.00024105247101770998,0.49935105244335376,0.0,0.0,0.0,1.0,0.0,1.402386978473882e-18,-9.568369488545757e-19,1.3235115789473686,0.0011257894736842117,0.00705578947368421,0.0,0.0,0.0,19.16006064414978,3.625999927520752,False,True,False,True,True,False,False,1945.4735013662498,3785127.6460816334,1932.860160097261,3735438.379139063,1943.9251529978865,3779139.495066731,1970.7172542790186,3883969.052560044,0.5329489176553937,0.0193666729806799,12.459569369735362,0,0.0,0.021174844323217132,0.6281225946009655,0.01183057698143517
32,271,0.3200000000000004,0.08529645623792369,0.03431904976995634,0.5918894032372555,0.009838198823406296,0.31397044594802154,0.006531907599838416,0.9493593119036747,0.02101438156636713,0.6683707214038279,0.030021265733493025,0.9188493089410044,-0.030683059621735675,0.17472941384208793,0.05494098718896825,2.120236903214127,-0.024635568194081737,19.164994716644287,0.0973646938800811,0.041340421885252,0.5752389430999756,,,,,,,,0.6928090367759148,0.6506117236570058,0.6368936604949372,0.6770154180347021,111500.0,110300.0,110300.0,113200.0,19.172598600387573,0.47480845055571463,0.009900313216324716,0.0010478828659937147,-0.017813118644101972,8.021031600093247,-0.18304739078249133,9.302081741012357,19.172598600387573,0.16502368437108755,-0.00024105247101770998,0.49935105244335376,0.0,0.0,0.0,1.0,0.0,1.402386978473882e-18,-9.568369488545757e-19,1.3235115789473686,0.0011257894736842117,0.00705578947368421,0.0,0.0,0.0,19.16006064414978,3.625999927520752,False,True,False,True,True,False,False,1928.3120061086386,3719244.8083860492,1927.0488128906043,3712578.5581914526,1922.067950894912,3694247.7648910256,1948.8742866788878,3800023.83612253,0.5329489176553937,0.0193666729806799,12.459569369735362,0,0.0,0.021174844323217132,0.6281225946009655,0.01183057698143517
33,272,0.3300000000000006,0.09482999727437418,0.03468579972533893,0.593751382775199,0.009735976833740001,0.32354398878731755,0.0074509174930709665,0.9461337019170157,0.024052314720441732,0.6892538965835022,0.03137466918083769,1.006201631970921,-0.029213289242739495,0.17461155145920415,0.09587372938544021,1.9188219909239002,-0.011883376496656627,19.187191247940063,0.1085684448480606,0.0418834798038005,0.5770354270935059,,,,,,,,0.6999978734603454,0.6064317926276768,0.6043179299102583,0.6866436161176791,107900.0,110300.0,109100.0,107500.0,19.190088033676147,0.5826566056367886,0.07017871377544578,0.001117029640261952,0.0900350364354753,7.9568530350375894,-0.21756688215605263,8.903387659836289,19.190088033676147,0.21202368437108754,-0.00024105247101770998,0.49935105244335376,0.0,0.0,0.0,1.0,0.0,1.402386978473882e-18,-9.568369488545757e-19,1.4835115789473685,0.0011257894736842117,0.00705578947368421,0.0,0.0,0.0,19.19905018806457,3.625999927520752,False,True,False,True,True,False,False,1904.8139386080566,3628905.165428237,1923.5920241274898,3700122.1976715038,1904.4426369899472,3626931.8162741014,1910.311813491362,3651315.7719841474,0.40660077343605305,-0.10664765050937403,11.723796787124128,0,0.0,0.018525981256683154,0.670368441908263,0.017272264548922847
34,273,0.3400000000000004,0.10482479185373682,0.035037608553925306,0.5955914001103494,0.00976335156943228,0.3324866657200617,0.008432882889180763,0.9430197137762629,0.027409375946303337,0.708800436209754,0.03316468719386771,1.090635474174697,-0.027813384732593763,0.16954862278121782,0.1437704322443471,1.7037970627834653,-0.0036828335700054577,19.187191247940063,0.1085684448480606,0.0418834798038005,0.5770354270935059,,,,,,,,0.6904842469164841,0.5767796054325222,0.6002535337828804,0.6968367301711151,107900.0,110300.0,109100.0,107500.0,19.190088033676147,0.6943598034226911,0.12651181895129363,0.0003084609710208604,0.20173823422247925,7.860519157268173,-0.2510154484389879,8.562626947668827,19.190088033676147,0.21202368437108754,-0.00024105247101770998,0.49935105244335376,0.0,0.0,0.0,1.0,0.0,1.402386978473882e-18,-9.568369488545757e-19,1.4835115789473685,0.0011257894736842117,0.00705578947368421,0.0,0.0,0.0,19.19905018806457,3.625999927520752,False,True,False,True,True,False,False,1885.3754283475198,3554529.7822985877,1907.5974411697496,3640265.72396829,1888.8420187090978,3568098.983090376,1875.9179795190034,3519073.820247707,0.40660077343605305,-0.10664765050937403,11.723796787124128,0,0.0,0.018525981256683154,0.670368441908263,0.017272264548922847
35,274,0.35000000000000064,0.11519953915815921,0.035386451535058455,0.5973548711431886,0.009945440659041772,0.34034760491720994,0.009508441965561875,0.9401990138096316,0.031171612864795504,0.7260633185766,0.035473466705208984,1.1656563969288007,-0.026195448418837003,0.16006413511350406,0.16697707162990805,1.4799918874261502,-0.0016587062646942303,19.20468068122864,0.1328781992197036,0.0435871519148349,0.5804706811904907,,,,,,,,0.6696574440282095,0.5726972365114871,0.6126057268643068,0.692347854039272,108300.0,107100.0,106400.0,107500.0,19.20294976234436,0.7203675400518718,0.13943429914476807,0.00075015191667096,0.22774597085593984,7.7465345544371225,-0.21856307426847332,8.30784606545308,19.20294976234436,0.21202368437108754,-0.00024105247101770998,0.49935105244335376,0.0,0.0,0.0,1.0,0.0,1.402386978473882e-18,-9.568369488545757e-19,1.4835115789473685,0.0011257894736842117,0.00705578947368421,0.0,0.0,0.0,19.19905018806457,3.678999900817871,False,True,False,True,True,False,False,1873.1516437665646,3508547.5229599536,1880.4118547412422,3537331.2665518355,1875.317514488285,3517089.2596843913,1858.4577246737201,3452860.839291177,0.13266437747085025,-0.09112496437922557,11.413540746846142,0,0.0,0.0212753186458226,0.7015828164276173,0.02001899306083325
36,275,0.36000000000000043,0.12599595266148672,0.0357647469835647,0.5990013411907553,0.010270598285094882,0.3468200320912465,0.010786212361461331,0.9378134344175212,0.035584377059383804,0.7403413894917781,0.03835498850289489,1.2333554825905075,-0.023739758917856898,0.14741942242590358,0.16441505368966908,1.2393401908955397,-0.004999677161155257,19.21754240989685,0.1599754989147186,0.0456816814839839,0.5833964943885803,,,,,,,,0.6566958653213049,0.5721595726676846,0.6120247240777412,0.6801250304043264,106400.0,105600.0,106800.0,106000.0,19.21847128868103,0.6996075139163784,0.1101280222382511,0.002396120543662595,0.2069859447222435,7.639844406057881,-0.1575479868092112,8.102089652555836,19.21847128868103,0.2630236843710876,-0.00024105247101770998,0.49935105244335376,0.0,0.0,0.0,1.0,0.0,1.402386978473882e-18,-9.568369488545757e-19,1.6155115789473686,0.0011257894736842117,0.00705578947368421,0.0,0.0,0.0,19.2382926940918,3.678999900817871,False,True,False,True,True,False,False,1864.337239097331,3476009.340184155,1855.5671878348103,3442811.287495718,1864.5089903215367,3476276.327519647,1854.6126240749193,3439323.301190779,0.15557587904654913,-0.007455916394006279,11.00825545357981,0,0.0,0.021287917414795007,0.7101353795149213,0.02274321256057309
37,276,0.3700000000000002,0.13739104641862862,0.03622273314456288,0.6005122971620497,0.010700852839663195,0.35178613222280064,0.012405034042801829,0.9359370299622849,0.040943531904445434,0.7513095819565545,0.041819239667975155,1.3015787253722668,-0.01987739907336953,0.1319248786986324,0.15812742035749155,0.970821147254213,-0.010391325604139587,19.21754240989685,0.1599754989147186,0.0456816814839839,0.5833964943885803,,,,,,,,0.6624141287765695,0.5559286584949106,0.5920197903582436,0.6760320156775028,106400.0,105600.0,106800.0,106000.0,19.21847128868103,0.6755712847831803,0.06473266018429633,0.0034254838769172983,0.18294971558161324,7.532914198114663,-0.13186986435130285,7.918760798258994,19.21847128868103,0.2630236843710876,-0.00024105247101770998,0.49935105244335376,0.0,0.0,0.0,1.0,0.0,1.402386978473882e-18,-9.568369488545757e-19,1.6155115789473686,0.0011257894736842117,0.00705578947368421,0.0,0.0,0.0,19.2382926940918,3.678999900817871,False,True,False,True,True,False,False,1855.542823814244,3443268.8259543427,1838.8518899162186,3380063.722128476,1853.6787324953518,3436050.81971499,1854.5047750889894,3439599.3721596855,0.15557587904654913,-0.007455916394006279,11.00825545357981,0,0.0,0.021287917414795007,0.7101353795149213,0.02274321256057309
38,277,0.38000000000000045,0.14964745263704604,0.03682005464103881,0.6018917157303667,0.011195621147104892,0.3552826143155962,0.014457224614933773,0.934580071844376,0.047420955197390625,0.7589798067718143,0.045820103434005804,1.3735642185573518,-0.014472205965650171,0.11324783675005123,0.1650041443828219,0.6808081523773816,-0.014127456922534212,19.23306393623352,0.1745824068784713,0.0466922745108604,0.5846710205078125,,,,,,,,0.6758041228564946,0.5305892308835569,0.5722792672492321,0.6809769652317947,105300.0,105300.0,105600.0,106000.0,19.229901790618896,0.6186419953657247,0.030729922340205964,0.0029454375677563974,0.1260204261530824,7.380238158168208,-0.1384391388485057,7.73058764784599,19.229901790618896,0.2630236843710876,-0.00024105247101770998,0.49935105244335376,0.0,0.0,0.0,1.0,0.0,1.402386978473882e-18,-9.568369488545757e-19,1.6155115789473686,0.0011257894736842117,0.00705578947368421,0.0,0.0,0.0,19.2382926940918,3.678999900817871,False,True,False,True,True,False,False,1845.2264814278383,3404624.338106221,1820.8546725309877,3315411.649032865,1838.8898697430836,3382015.331219515,1850.5583152165973,3424767.3404793744,-0.026973287504240773,-0.029364947659052565,10.698611734132154,0,0.0,0.024029874907351405,0.7273051450156989,0.030918383952531475
39,278,0.39000000000000024,0.16302548324650742,0.037612908313163836,0.6031608117600727,0.011730231306090516,0.3574507590445057,0.016927055240147707,0.9337048952066758,0.054926333237747274,0.7636189650894007,0.050246915254470836,1.4434966195815435,-0.00785526194150054,0.09217746191498728,0.18435401190930145,0.3930788635374315,-0.015167955084181534,19.244494438171387,0.1745824068784713,0.0466922745108604,0.5846710205078125,,,,,,,,0.6769504684893017,0.511532335772712,0.566170055392839,0.6797461724610644,104900.0,101700.0,103100.0,105300.0,19.239051818847656,0.528154699320831,0.0238014267512697,0.002194953576338446,0.03553313011336448,7.175759338746274,-0.13815556939380697,7.523107486535313,19.239051818847656,0.2630236843710876,-0.00024105247101770998,0.49935105244335376,0.0,0.0,0.0,1.0,0.0,1.402386978473882e-18,-9.568369488545757e-19,1.6155115789473686,0.0011257894736842117,0.00705578947368421,0.0,0.0,0.0,19.2382926940918,3.688999891281128,False,True,False,True,True,False,False,1830.3375027504198,3349823.78625531,1791.3005930577676,3210569.1921024974,1820.0458101717159,3313355.207153223,1838.5510435890367,3380095.4587954893,-0.06645354138643533,-0.019006077148828293,10.33848882051766,0,0.0,0.024039559382361096,0.7330318542762467,0.030930844621506356
40,279,0.40000000000000047,0.17769327509625887,0.03863921922010168,0.6043472883655009,0.012298868571261785,0.358512663711887,0.019679075942830113,0.9332363804310838,0.06308683154705536,0.7657113523269459,0.05492796705510998,1.5066070353535956,-0.0003633621437398988,0.07065438437441976,0.20922384010320608,0.1134893963721542,-0.016348095971245015,19.253644466400143,0.2222758382558822,0.050210140645504,0.5872451663017273,,,,,,,,0.661495179040973,0.4985997159084239,0.5630924841746896,0.6631092650996455,104500.0,101400.0,104500.0,104900.0,19.25083065032959,0.5055562001961578,0.04110658468175945,0.0029596185250262996,0.012934631017470853,6.977655143636729,-0.12736508852291017,7.33245390566447,19.25083065032959,0.3190236843710876,-0.00024105247101770998,0.49935105244335376,0.0,0.0,0.0,1.0,0.0,1.402386978473882e-18,-9.568369488545757e-19,1.7265115789473686,0.0011257894736842117,0.00705578947368421,0.0,0.0,0.0,19.265864610672,3.688999891281128,False,True,False,True,True,False,False,1808.8337106852541,3272100.9177686777,1753.2497409790192,3075424.2247193996,1799.7190252757628,3239261.4958058516,1817.8457157124808,3304538.002204298,-0.10780480494161804,-0.045160808393421126,10.204284091572362,0,0.0,0.024046283779531722,0.7359544847868917,0.04452731691289785
41,280,0.4100000000000007,0.1936619360230851,0.03990527467296272,0.6054684353457453,0.01290578586286321,0.3587433948815446,0.02249725653585814,0.9330758226256245,0.0713419755471079,0.7658981962641208,0.05964818373343395,1.5706452029494613,0.008141104956589694,0.049434567042001026,0.23930417834310824,-0.1941961707260896,-0.021910932828350424,19.26542329788208,0.2395854443311691,0.051463458687067,0.5880410671234131,,,,,,,,0.6444939040118319,0.47903572444040976,0.5468841647090803,0.6406519413066807,101700.0,97100.0,100700.0,101700.0,19.269107580184937,0.6215269940954538,0.0643769738462425,0.005504821190955787,0.12890542493363227,6.8074240878011825,-0.12892059070890471,7.197477006359341,19.269107580184937,0.3190236843710876,-0.00024105247101770998,0.49935105244335376,0.0,0.0,0.0,1.0,0.0,1.402386978473882e-18,-9.568369488545757e-19,1.7265115789473686,0.0011257894736842117,0.00705578947368421,0.0,0.0,0.0,19.265864610672,3.688999891281128,False,True,False,True,True,False,False,1786.480980871146,3192110.9121246664,1717.3858233002966,2948762.8982380033,1777.2530363589538,3158305.961202848,1792.8277532730465,3214703.0043656286,-0.1946672990136573,-0.059869602436375124,9.795533551037373,0,0.0,0.026764564172365272,0.7359742029640296,0.04724614604705663
42,281,0.4200000000000005,0.21076739927585214,0.04137771282004765,0.6065122413925296,0.013559085680649273,0.35836824533084144,0.02514451632226732,0.9331431322326269,0.07907454574321238,0.7647381144129511,0.06417495998209552,1.6495308619190223,0.017930989340362576,0.02717821298388255,0.27771456154216356,-0.5706180501443496,-0.03334598311945323,19.26542329788208,0.2395854443311691,0.051463458687067,0.5880410671234131,,,,,,,,0.6380617697134785,0.4494013738669883,0.5189998361260058,0.6252433596588415,101700.0,97100.0,100700.0,101700.0,19.269107580184937,0.7732842699614182,0.0771573392382679,0.008528876710323362,0.28066270075426886,6.604322379508488,-0.14417872286622008,7.101838072943494,19.269107580184937,0.3190236843710876,-0.00024105247101770998,0.49935105244335376,0.0,0.0,0.0,1.0,0.0,1.402386978473882e-18,-9.568369488545757e-19,1.7265115789473686,0.0011257894736842117,0.00705578947368421,0.0,0.0,0.0,19.265864610672,3.688999891281128,False,True,False,True,True,False,False,1774.941793286074,3151016.6775468728,1686.0858552035552,2841498.98381055,1747.4326232833328,3053578.342860329,1770.9602759700738,3137099.47140463,-0.1946672990136573,-0.059869602436375124,9.795533551037373,0,0.0,0.026764564172365272,0.7359742029640296,0.04724614604705663
43,282,0.43000000000000027,0.22872381347833962,0.04298467716223975,0.6074271903040418,0.014279629942076018,0.3573622571872631,0.027410042720040495,0.9334543367861264,0.08570195647783975,0.7622390890093451,0.06829043850645092,1.744166391065246,0.02838026851337993,0.003301133912283675,0.32022561083839973,-0.9991408631385812,-0.04807196879140997,19.283700227737427,0.2574497759342193,0.0527724660933017,0.5884748697280884,,,,,,,,0.63313955631563,0.4265834715416321,0.49825161117573313,0.6116512585674938,101700.0,94900.0,97400.0,101700.0,19.27840256690979,0.7845312663714233,0.08146325037738339,0.010873801836086348,0.2919096970840631,6.3523397276804,-0.15091432647923292,7.006791347761867,19.27840256690979,0.3790236843710876,-0.00024105247101770998,0.49935105244335376,0.0,0.0,0.0,1.0,0.0,1.402386978473882e-18,-9.568369488545757e-19,1.8085115789473685,0.0011257894736842117,0.00705578947368421,0.0,0.0,0.0,19.300090074539185,3.700000047683716,False,True,False,True,True,False,False,1778.9552630353392,3164907.851715741,1651.0061846974247,2726225.625037534,1707.7351438123567,2917071.7498842375,1757.2733745850624,3088435.335282635,-0.2528141361248437,-0.06519363835458541,9.429934092993097,0,0.0,0.02946692140591836,0.7274441001712957,0.05808657209049308
44,283,0.4400000000000005,0.24724977786423813,0.044628293595571474,0.6081299020741919,0.015122234885084346,0.3552402430662605,0.02913417753771886,0.9341985267690723,0.09071952374095003,0.7573623328320214,0.07183331489456836,1.8363266059710832,0.03771673591530687,-0.01954030845626598,0.35569840117632223,-1.4145443537721416,-0.06276345842031172,19.29299521446228,0.2757763564586639,0.0540765672922134,0.5886175036430359,,,,,,,,0.610933393174117,0.43523326684393393,0.5042056635248214,0.5812529467515466,103100.0,92300.0,96500.0,99000.0,19.288593292236328,0.6274374780659926,0.0935331496066002,0.01275226875316389,0.13481590879789518,6.13560048442395,-0.13859568857475935,6.905036768825988,19.288593292236328,0.3790236843710876,-0.00024105247101770998,0.49935105244335376,0.0,0.0,0.0,1.0,0.0,1.402386978473882e-18,-9.568369488545757e-19,1.8085115789473685,0.0011257894736842117,0.00705578947368421,0.0,0.0,0.0,19.300090074539185,3.700000047683716,False,True,False,True,True,False,False,1787.3275311198277,3193692.469323986,1608.990847742712,2590215.0196801294,1668.0050666024738,2782053.6477283426,1749.0600567320998,3058447.3328996706,-0.27849961736409323,-0.04621129233730553,9.218777916605244,0,0.0,0.032164937287146374,0.7188883735110855,0.06076839263410598
45,284,0.4500000000000003,0.2662048318089803,0.04620602618423751,0.6085295625731467,0.01618753971955539,0.3510158782093915,0.03021726173071667,0.9357418094197859,0.09373117233257378,0.7479075672430916,0.07473843625385808,1.9062051320635796,0.044313287639082224,-0.03850178933239122,0.3782394860642562,-1.790621953160525,-0.07769829334876326,19.30318593978882,0.2947600483894348,0.0554775260388851,0.5885935425758362,,,,,,,,0.570289338982429,0.4840543033011323,0.5412750246367283,0.5285399173431609,101000.0,90100.0,94300.0,99000.0,19.302284240722656,0.4594459860991987,0.11919063665492115,0.015171040872218877,-0.03317558297817538,5.954125795856079,-0.13373170158025321,6.82500139626638,19.302284240722656,0.3790236843710876,-0.00024105247101770998,0.49935105244335376,0.0,0.0,0.0,1.0,0.0,1.402386978473882e-18,-9.568369488545757e-19,1.8085115789473685,0.0011257894736842117,0.00705578947368421,0.0,0.0,0.0,19.300090074539185,3.700000047683716,False,True,False,True,True,False,False,1779.906482530875,3167146.321420557,1575.1982661611555,2480632.0686386125,1649.7190520143395,2720631.069935286,1734.4104967343733,3006985.4315500683,-0.31006960458070587,-0.029846765721820046,8.998343269012976,0,0.0,0.03485266766867897,0.7074822927162248,0.06072141519738211
