,Unnamed: 0,t,x,y,z,qx,qy,qz,qw,yaw,pitch,roll,vx,vy,vz,wx,wy,wz,ros_timestamp,x_poses,y_poses,z_poses,qx_poses,qy_poses,qz_poses,qw_poses,yaw_poses,pitch_poses,roll_poses,m1_thrust,m2_thrust,m3_thrust,m4_thrust,m1_erpm,m2_erpm,m3_erpm,m4_erpm,ros_timestamp_motors,thrust,torque_roll,torque_pitch,torque_yaw,ax,ay,az,ros_timestamp_image_accel,x_r,y_r,z_r,qx_r,qy_r,qz_r,qw_r,yaw_r,pitch_r,roll_r,vx_r,vy_r,vz_r,wx_r,wy_r,wz_r,ros_timestamp_r,Vbat,can_be_armed,is_armed,auto_arm,can_fly,is_flying,is_tumbled,is_locked,m1_rads,m1_rads2,m2_rads,m2_rads2,m3_rads,m3_rads2,m4_rads,m4_rads2,rx,ry,rz
0,239,5.684825782629363e-16,0.006725644269241651,0.034100253538542465,0.5797502796181538,-0.0029762295467811984,-0.0015635692639332168,-0.0022317553628005836,0.9999918582552773,-0.011355890468406314,-0.0018813112660022106,-0.010149795267083716,-0.017599628885556846,0.005632327604664773,0.021977594684005022,0.05740104366649893,-0.004584448482144899,-0.0269002514128553,18.857027053833008,0.0046727340668439,0.0385377816855907,0.5618120431900024,,,,,,,,0.6056530906526272,0.5811412994549947,0.6271095154724831,0.6176797723198384,96800.0,95500.0,98000.0,94600.0,18.86169934272766,0.3642957198235216,0.011976722060273098,0.0005016811191134373,-0.12832584937580765,0.09521978820073722,-0.10197932572196328,9.553306744475758,18.86169934272766,0.0010236843710875537,-0.00024105247101770998,0.49935105244335376,0.0,0.0,0.0,1.0,0.0,1.402386978473882e-18,-9.568369488545757e-19,-0.002488421052631579,0.0011257894736842117,0.00705578947368421,0.0,0.0,0.0,18.86616539955139,3.7260000705718994,False,True,False,True,True,False,False,1689.4749001686214,2854324.1137400586,1666.7869444104863,2778178.44327767,1710.4042425528805,2925478.3192603635,1651.0729258077545,2726039.490617334,-0.005952958049265237,-0.0032813627720753727,-0.004468430882415534
1,240,0.010000000000000356,0.006738807660764126,0.03408792746481577,0.5785718556366996,-0.003201370502102799,-0.0012436082101206182,-0.002220231076075845,0.9999916375847835,-0.011330638215089648,-0.001243016729059399,-0.010600906544229679,-0.0174676131431422,0.005594066818028419,0.01226479320516325,0.02505545942088021,-0.015630540256230868,-0.01911479654996378,18.857027053833008,0.0046727340668439,0.0385377816855907,0.5618120431900024,,,,,,,,0.5767529923206811,0.5933611664289016,0.6596461736359054,0.6172898773094488,96800.0,95500.0,98000.0,94600.0,18.86169934272766,0.5706950578110397,-0.017531936138402697,0.0007051774999119097,0.07807348861171037,0.11548123279341214,-0.11239075364719106,9.505772073105216,18.86169934272766,0.0010236843710875537,-0.00024105247101770998,0.49935105244335376,0.0,0.0,0.0,1.0,0.0,1.402386978473882e-18,-9.568369488545757e-19,-0.002488421052631579,0.0011257894736842117,0.00705578947368421,0.0,0.0,0.0,18.86616539955139,3.7260000705718994,False,True,False,True,True,False,False,1689.6192359061843,2854567.151913603,1669.4501897302966,2786035.769997468,1702.254991601986,2896858.9313394185,1660.0397416996898,2755618.967469466,-0.005952958049265237,-0.0032813627720753727,-0.004468430882415534
2,241,0.020000000000000587,0.006748925707201475,0.03408281418445221,0.5776716832231985,-0.003281363679084276,-0.001038489230994684,-0.0022072687460778003,0.9999916410436666,-0.011303145140025936,-0.000834896970176368,-0.010760938590534187,-0.01726355649657525,0.005577120133835802,0.008127194235747325,0.0072334542516165005,0.01103349434049394,-0.01176921542422674,18.87629199028015,0.0046530188992619,0.0385277196764946,0.5618569254875183,,,,,,,,0.5672246426438405,0.5440432641469711,0.6498270414662293,0.6526481761748255,95800.0,96800.0,98700.0,96800.0,18.870307445526123,0.6949289382095007,-0.01719998757254218,0.001405861196659845,0.20230736901017163,0.11105702845223445,-0.09143320535481034,9.59900679123317,18.870307445526123,0.0010236843710875537,-0.00024105247101770998,0.49935105244335376,0.0,0.0,0.0,1.0,0.0,1.402386978473882e-18,-9.568369488545757e-19,-0.002488421052631579,0.0011257894736842117,0.00705578947368421,0.0,0.0,0.0,18.86616539955139,3.7260000705718994,False,True,False,True,True,False,False,1672.2857939748324,2796715.3958103023,1681.2275745803815,2825808.2286333432,1733.4661993448344,3005380.1513050357,1678.247129181675,2816857.443928657,-0.005952958049265237,-0.0032813627720753727,-0.004468430882415534
3,242,0.030000000000000374,0.006753602656804074,0.03408926672289339,0.5772106335376216,-0.003078773936158049,-0.0010444461903598645,-0.0021960994780176667,0.9999923036855275,-0.011279711782802735,-0.0008486886884608445,-0.010354163216536951,-0.017009140087713193,0.005618366163429226,0.011668188623619706,0.0345367110070607,0.0667611680787345,-0.007656387342430926,18.884900093078613,0.0046392260119318,0.038467664271593,0.5618627667427063,,,,,,,,0.6051934257658287,0.4919965869181561,0.5717385592636488,0.6613948343614652,95200.0,95200.0,100700.0,97100.0,18.878703355789185,0.6838009549709715,0.02279196330913133,0.0030334338510824427,0.19117938577164253,0.12292828538220266,-0.03729972064587187,9.736161082659105,18.878703355789185,0.0010236843710875537,-0.00024105247101770998,0.49935105244335376,0.0,0.0,0.0,1.0,0.0,1.402386978473882e-18,-9.568369488545757e-19,0.030511578947368424,0.0011257894736842117,0.00705578947368421,0.0,0.0,0.0,18.88657307624817,3.7260000705718994,False,True,False,True,True,False,False,1658.9270566237333,2752154.7333792737,1677.0724521465163,2816309.350601063,1755.7593950791188,3082835.5780427437,1700.6673375203154,2892746.1336376616,-0.005952958049265237,-0.0032813627720753727,-0.004468430882415534
4,243,0.040000000000000605,0.006751587137706016,0.03410708406506547,0.5771869795100382,-0.002488241985196029,-0.0013681617999855432,-0.0021970505882768347,0.9999935548561425,-0.011282521404757958,-0.0014972436093789669,-0.00917074884530042,-0.01677744862308832,0.005740714589123762,0.019452770797830227,0.13748538508897498,0.08570032209473778,-0.01133757669188928,18.893296003341675,0.0046005146577954,0.0384363234043121,0.5617607831954956,,,,,,,,0.540410352980514,0.6305210665182135,0.5953363692844464,0.5034378717108208,95200.0,94900.0,100000.0,98000.0,18.888407468795776,0.5488200565850323,0.06131873381964339,0.004833208021243289,0.05619848738570335,0.1693764266924817,-0.005137505625349814,9.730841107371495,18.888407468795776,0.0010236843710875537,-0.00024105247101770998,0.49935105244335376,0.0,0.0,0.0,1.0,0.0,1.402386978473882e-18,-9.568369488545757e-19,0.030511578947368424,0.0011257894736842117,0.00705578947368421,0.0,0.0,0.0,18.896915435791016,3.7260000705718994,False,True,False,True,True,False,False,1667.4620065591607,2780092.629875986,1640.067941339054,2687985.1732777553,1729.6007101068485,2991282.3965750304,1711.8245592656672,2929167.1249536714,-0.005952958049265237,-0.0032813627720753727,-0.004468430882415534
5,244,0.05000000000000039,0.0067428731639665165,0.03413046667278969,0.5774552387828648,-0.0014675882569952202,-0.0020238688355632924,-0.0022221641772606254,0.9999944060473607,-0.011337751360456576,-0.0028089563107553672,-0.007128582703849988,-0.016550458892425478,0.005899450045522314,0.02453828209715509,0.308790469141705,0.0017939289603383472,-0.024335039816875022,18.903000116348267,0.0044892104342579,0.0383238941431045,0.5617963075637817,,,,,,,,0.37157377584429774,0.8673753914228697,0.758275453265562,0.3042208169569807,95500.0,94300.0,97400.0,96500.0,18.89911103248596,0.36496997179462637,0.01490867802748414,0.004421372594431836,-0.12765159740470272,0.14567036300412683,-0.060047046652446354,9.65104844402039,18.89911103248596,0.0010236843710875537,-0.00024105247101770998,0.49935105244335376,0.0,0.0,0.0,1.0,0.0,1.402386978473882e-18,-9.568369488545757e-19,0.030511578947368424,0.0011257894736842117,0.00705578947368421,0.0,0.0,0.0,18.896915435791016,3.7260000705718994,False,True,False,True,True,False,False,1660.1920644478214,2756403.577328938,1649.6166524812575,2713580.1618551183,1726.409816391405,2981595.3157090237,1679.1956512102015,2819994.0386027717,-0.003185903049909996,-0.0032811502190942163,-0.004468141436118028
6,245,0.06000000000000062,0.00672938725203236,0.03414823318524693,0.5778034331176229,-6.0436298515944415e-05,-0.002785449447200792,-0.0022742046931532884,0.9999935327850099,-0.011450860600275736,-0.004332172132803637,-0.004317144834014582,-0.016234682479746028,0.00599257529827049,0.022176465061189587,0.48641165866616387,-0.14513059275995932,-0.03914839546754047,18.91370368003845,0.0045187044888734,0.038225382566452,0.561754584312439,,,,,,,,0.42227764163280757,0.8055623071351921,0.7539642123520658,0.39838183980259034,91700.0,102000.0,104200.0,90900.0,18.90945339202881,0.2149844363824518,-0.15549164277596378,6.398779475045072e-06,-0.27763713281687735,-0.03653856501843892,-0.18578201565376048,9.757645162889371,18.90945339202881,0.0010236843710875537,-0.00024105247101770998,0.49935105244335376,0.0,0.0,0.0,1.0,0.0,1.402386978473882e-18,-9.568369488545757e-19,0.030511578947368424,0.0011257894736842117,0.00705578947368421,0.0,0.0,0.0,18.896915435791016,3.7260000705718994,False,True,False,True,True,False,False,1606.1864042363804,2580544.663495549,1792.6321176958472,3224910.7439725995,1797.7575238578956,3235538.9811904216,1592.9100129255871,2539080.1163279307,-0.00041921433653051396,-0.0032809989962448117,-0.004467935506783986
7,246,0.07000000000000041,0.0067162198581928526,0.034145755085306186,0.5780417179583598,0.0016060220387394016,-0.0030817648809078144,-0.002335091202050616,0.9999912353453445,-0.011580264205129077,-0.004926168144714179,-0.0009908713372165428,-0.015836298372085805,0.005928899446014736,0.013918653518767293,0.5823923943342512,-0.15884343862785497,-0.04020043344052034,18.9240460395813,0.0047995802015066,0.0381129384040832,0.5616047382354736,,,,,,,,0.6688672148277283,0.4980470395796846,0.5506159111661637,0.6813188030346329,90100.0,113200.0,106000.0,88200.0,18.928282260894772,0.13280949506816425,-0.36515523375420034,-0.006647429204802655,-0.359812074131165,-0.2424166211011734,-0.2961334395642775,10.059586212431466,18.928282260894772,0.0030236843710875535,-0.00024105247101770998,0.49935105244335376,0.0,0.0,0.0,1.0,0.0,1.402386978473882e-18,-9.568369488545757e-19,0.11551157894736841,0.0011257894736842117,0.00705578947368421,0.0,0.0,0.0,18.92882442474365,3.700000047683716,False,True,False,True,True,False,False,1563.1409574011473,2441851.9368970394,1962.5066440829219,3850265.4050433612,1858.7798828189439,3452899.3183040097,1527.7036381347464,2330766.7339716833,0.005114341505818884,-0.0032813020277111045,-0.004468348163127213
8,247,0.08000000000000064,0.006713061970109518,0.03410865417243786,0.5780583120035031,0.0033508342200564783,-0.002028125019033092,-0.0023615968300923058,0.9999895406849759,-0.011626114077544422,-0.0028236601316807765,0.002493004002419161,-0.015516035392616052,0.0056360811195509015,0.005928866488128461,0.5408934321741066,0.198530525703927,-0.016366581654440205,18.9240460395813,0.0047995802015066,0.0381129384040832,0.5616047382354736,,,,,,,,0.7133078128606258,0.40855299522722666,0.5037152560803835,0.7454082645221283,90100.0,113200.0,106000.0,88200.0,18.928282260894772,0.10331520210741911,-0.4629621588963855,-0.010734711905778781,-0.3893063670919101,-0.2530866328207302,-0.3443690922635704,10.256881024088557,18.928282260894772,0.0030236843710875535,-0.00024105247101770998,0.49935105244335376,0.0,0.0,0.0,1.0,0.0,1.402386978473882e-18,-9.568369488545757e-19,0.11551157894736841,0.0011257894736842117,0.00705578947368421,0.0,0.0,0.0,18.92882442474365,3.700000047683716,False,True,False,True,True,False,False,1589.4421011257025,2528269.9055542666,1973.0890269788533,3891007.285613902,1845.3546553113224,3404959.842812784,1558.6325840899344,2431909.2369900155,0.005114341505818884,-0.0032813020277111045,-0.004468348163127213
9,248,0.09000000000000043,0.0067354121231187015,0.0340274846122208,0.5778294294560502,0.004988252345453213,0.001370230952648392,-0.002294624091693568,0.9999839871247701,-0.011448401219893128,0.003963977490727217,0.005773122470466917,-0.015314325217095453,0.004979845875415804,0.0036552767579570095,0.38320307445289836,0.9776593543297499,0.0248735726911296,18.93670463562012,0.005001132376492,0.0380372181534767,0.5612744092941284,,,,,,,,0.6009566239639161,0.5306691117532807,0.6290924174141093,0.6584989814177384,94600.0,105600.0,103800.0,94600.0,18.941362380981445,0.10970482476162635,-0.38741456596357293,-0.008814438918886301,-0.3829167444377026,-0.033733242951111846,-0.3566874947973864,10.211232582931757,18.941362380981445,0.0030236843710875535,-0.00024105247101770998,0.49935105244335376,0.0,0.0,0.0,1.0,0.0,1.402386978473882e-18,-9.568369488545757e-19,0.11551157894736841,0.0011257894736842117,0.00705578947368421,0.0,0.0,0.0,18.92882442474365,3.700000047683716,False,True,False,True,True,False,False,1634.8414655618906,2673335.590920829,1857.7043427782212,3456382.796279288,1819.4606422599084,3311542.1393714333,1633.2471589153233,2669672.797298836,0.007881569249144132,-0.003281481105024997,-0.004468592023576459
10,249,0.10000000000000066,0.006805274238851085,0.03390165593860311,0.5773996105607364,0.006382992059593669,0.007903449932275685,-0.0020818707168670765,0.9999462279072078,-0.010915408933318643,0.01701921474195587,0.008593604396572127,-0.014698202222012525,0.003762096334667846,0.008101113685652665,0.20111281337478762,1.931412879339264,0.05952119335943607,18.955955028533936,0.0059887003153562,0.03804262727499,0.5609351396560669,,,,,,,,0.625837808177598,0.5544064457356637,0.6584919442639792,0.6901777484834822,94300.0,103100.0,104900.0,95200.0,18.948410034179688,0.16295775940570717,-0.22398235996117294,-0.0021991759695862423,-0.32966380979362153,0.35652829442944545,-0.35664095799219653,10.136932125629507,18.948410034179688,0.009023684371087554,-0.00024105247101770998,0.49935105244335376,0.0,0.0,0.0,1.0,0.0,1.402386978473882e-18,-9.568369488545757e-19,0.2435115789473684,0.0011257894736842117,0.00705578947368421,0.0,0.0,0.0,18.96847248077393,3.684000015258789,False,True,False,True,True,False,False,1646.5304594258641,2709628.2485850174,1789.2042890078924,3197256.7115762383,1824.4555622306939,3328505.349155686,1665.069955619306,2770286.0895334394,0.01618370520640022,0.021622777397566816,-0.00446894826302001
11,250,0.11000000000000044,0.006951318515012614,0.03374037161707557,0.5768559824629685,0.007494073570355445,0.017866163670746837,-0.0017047770549165786,0.9998108485069589,-0.00996356877392666,0.03694131189485378,0.01088941967274057,-0.012386022590261336,0.001903018641047613,0.01584081788163352,0.09440851159632288,2.683682176579894,0.06758281821785062,18.955955028533936,0.0059887003153562,0.03804262727499,0.5609351396560669,,,,,,,,0.657777761433008,0.566195677211423,0.6317531455983154,0.6879344732470936,94300.0,103100.0,104900.0,95200.0,18.948410034179688,0.27463312556206576,-0.08808346817477382,0.0046558404917155,-0.2179884436372631,0.8889958302155124,-0.3347923492593922,10.218255292478332,18.948410034179688,0.009023684371087554,-0.00024105247101770998,0.49935105244335376,0.0,0.0,0.0,1.0,0.0,1.402386978473882e-18,-9.568369488545757e-19,0.2435115789473684,0.0011257894736842117,0.00705578947368421,0.0,0.0,0.0,18.96847248077393,3.684000015258789,False,True,False,True,True,False,False,1662.5914919592535,2765788.217713428,1799.8232162482802,3238823.7650423525,1829.1685434668811,3345420.8094764417,1671.739920986723,2795087.4009109964,0.01618370520640022,0.021622777397566816,-0.00446894826302001
12,251,0.12000000000000023,0.007208452966984775,0.03355918951870775,0.5763080344339219,0.008382322599734468,0.03093244669208373,-0.0011940108658542049,0.9994856150778397,-0.008635627377271934,0.0630999893782144,0.012796176304909075,-0.006847614124439491,-0.00041088945623134513,0.021429904935853148,0.09881191513236506,3.0331635925893616,0.05127443595643769,18.980124950408936,0.0074353842064738,0.0379150062799453,0.5602357387542725,,,,,,,,0.5707935070810264,0.6865258808008234,0.6705762492328396,0.5539221154075002,98000.0,104200.0,104500.0,97100.0,18.98101043701172,0.4165592391069278,-0.004119208627720488,0.0083931133153311,-0.07606233009240192,1.38297544725045,-0.3076827738379393,10.336643127901054,18.98101043701172,0.020023684371087553,-0.00024105247101770998,0.49935105244335376,0.0,0.0,0.0,1.0,0.0,1.402386978473882e-18,-9.568369488545757e-19,0.40351157894736844,0.0011257894736842117,0.00705578947368421,0.0,0.0,0.0,19.009472370147705,3.684000015258789,False,True,False,True,True,False,False,1694.539838316418,2872594.1225388283,1818.2088595603936,3307511.8926023785,1828.3930257408665,3343363.50657669,1686.6799437284071,2846281.2502621934,0.01617714532200938,0.07693495493262673,-0.001701089487649009
13,252,0.13000000000000045,0.007616310101276219,0.033373240072493586,0.5758708638625999,0.009163703616716166,0.046264762587430716,-0.0006206826678708846,0.9988869871170509,-0.007070348445909079,0.09385350353419233,0.014553625678506224,0.002731057057709456,-0.002879417313903247,0.0208789207133073,0.16698248917735423,3.084641178245669,0.031073330708198066,18.980124950408936,0.0074353842064738,0.0379150062799453,0.5602357387542725,,,,,,,,0.5978553172273084,0.7055751430476587,0.6676670826585747,0.5645288191517477,98000.0,104200.0,104500.0,97100.0,18.98101043701172,0.528657244301447,0.05763165184003188,0.008528425735638199,0.03603567510211688,1.6234387883722154,-0.326906230467768,10.33142861328241,18.98101043701172,0.020023684371087553,-0.00024105247101770998,0.49935105244335376,0.0,0.0,0.0,1.0,0.0,1.402386978473882e-18,-9.568369488545757e-19,0.40351157894736844,0.0011257894736842117,0.00705578947368421,0.0,0.0,0.0,19.009472370147705,3.684000015258789,False,True,False,True,True,False,False,1705.4813493234374,2906934.0908307433,1828.5362121080268,3343380.315774532,1831.3133622976343,3353888.9210222615,1687.910750710786,2848052.6794645097,0.01617714532200938,0.07693495493262673,-0.001701089487649009
14,253,0.14000000000000024,0.008216060945382369,0.03319083677497796,0.5756456248392497,0.009930375407460557,0.06281438678046952,-6.602922188156708e-05,0.997975819395341,-0.005445023365114856,0.12714512494357655,0.016347043621491364,0.01606402098153983,-0.005389560806422245,0.015082103795079911,0.21770568113221603,3.0927619237301887,0.024612545015034425,18.99560308456421,0.0084521081298589,0.0377892591059207,0.5601529479026794,,,,,,,,0.7480303382622693,0.6021153157159287,0.6204598972071684,0.7348594425641812,97400.0,106400.0,106000.0,96200.0,18.988357543945312,0.5691679707305783,0.07720143518216895,0.006091557774738729,0.07654640153124949,1.8136711509251262,-0.393898674050219,10.31124978733636,18.988357543945312,0.020023684371087553,-0.00024105247101770998,0.49935105244335376,0.0,0.0,0.0,1.0,0.0,1.402386978473882e-18,-9.568369488545757e-19,0.40351157894736844,0.0011257894736842117,0.00705578947368421,0.0,0.0,0.0,19.009472370147705,3.684000015258789,False,True,False,True,True,False,False,1724.811139391389,2976519.8597556846,1840.1315455348774,3385784.5679437043,1823.3377764036622,3324477.732868162,1695.6259353466144,2875058.082024094,0.018922669870236757,0.13763873081390302,0.0010638038957688028
15,254,0.15000000000000047,0.009046221702049955,0.03301166411943419,0.5756953623809753,0.010692285537231276,0.07967510966226,0.0004129305296562078,0.9967634530913916,-0.003903010023039802,0.16120260666581643,0.01819237711822717,0.032771478858477365,-0.008062969061603349,0.010226841735297072,0.2051275873543357,3.205776948112856,0.03126764205275367,19.002950191497803,0.0097531666979193,0.037781499326229,0.560230553150177,,,,,,,,0.7567314016902505,0.6056926546102855,0.6580177628084473,0.7677712613977359,103400.0,104900.0,102700.0,101000.0,19.00486850738525,0.5517538220658087,0.001798964962763736,0.002442694240246663,0.05913225286648173,2.328953234224442,-0.43277780485395057,10.476849820088876,19.00486850738525,0.020023684371087553,-0.00024105247101770998,0.49935105244335376,0.0,0.0,0.0,1.0,0.0,1.402386978473882e-18,-9.568369488545757e-19,0.40351157894736844,0.0011257894736842117,0.00705578947368421,0.0,0.0,0.0,19.009472370147705,3.684000015258789,False,True,False,True,True,False,False,1779.9075259197039,3171051.108638077,1844.6209154535845,3403079.6794378776,1827.236773117137,3340468.880090607,1751.3934744288438,3070047.266251924,0.021670477881082163,0.1651530849287766,0.0010630561901340907
16,255,0.1600000000000007,0.010139908280032483,0.03283083165032693,0.5760229301821718,0.011379713826957847,0.09631650151322782,0.000801308961398143,0.9952853819651012,-0.0025075706527341716,0.1949985072975268,0.01994470591933308,0.05359776701489812,-0.010989104207355858,0.01300956345768269,0.14697826069647307,3.3698225993180135,0.03684672388266251,19.019461154937744,0.0124773867428302,0.0377669781446456,0.5602826476097107,,,,,,,,0.6645000590473957,0.682371546422065,0.7078461879239182,0.674040252280695,103400.0,106000.0,108300.0,103800.0,19.022010326385494,0.5347087175329928,-0.14131147480688164,-0.0005810479683986112,0.04208714833366524,3.0142208553612866,-0.39172704189304886,10.755826459793743,19.022010326385494,0.03602368437108756,-0.00024105247101770998,0.49935105244335376,0.0,0.0,0.0,1.0,0.0,1.402386978473882e-18,-9.568369488545757e-19,0.5785115789473684,0.0011257894736842117,0.00705578947368421,0.0,0.0,0.0,19.02841305732727,3.67300009727478,False,True,False,True,True,False,False,1813.3617080576746,3286768.482815736,1845.5255398388476,3406412.7486851653,1866.7949278345604,3487415.4964217274,1810.6473855853092,3277382.2133087553,0.02440693893773233,0.19808633166715325,0.0010619836823598115
17,256,0.17000000000000048,0.01152597197962549,0.03264589821038138,0.5765647430284662,0.011899522065896659,0.1125947745706762,0.0011202404941659772,0.9935691033718878,-0.0012415743933725408,0.22827142813133555,0.021414135118996685,0.07958098174288816,-0.013985906382785029,0.024374540217793103,0.09434942301064218,3.4532473846716725,0.030449622724894716,19.019461154937744,0.0124773867428302,0.0377669781446456,0.5602826476097107,,,,,,,,0.6754083013980414,0.6800985537739794,0.6744125935618484,0.6616016697372846,103400.0,106000.0,108300.0,103800.0,19.022010326385494,0.5738636094613705,-0.23335515198811646,-0.00120951563740502,0.08124204026203835,3.425444252577372,-0.32041205728526645,10.902641335417918,19.022010326385494,0.03602368437108756,-0.00024105247101770998,0.49935105244335376,0.0,0.0,0.0,1.0,0.0,1.402386978473882e-18,-9.568369488545757e-19,0.5785115789473684,0.0011257894736842117,0.00705578947368421,0.0,0.0,0.0,19.02841305732727,3.67300009727478,False,True,False,True,True,False,False,1809.2519259232508,3272662.6752702883,1849.0791443363364,3418719.8483003373,1895.145243248448,3590659.5990086608,1819.9876813639028,3311312.0501418374,0.02440693893773233,0.19808633166715325,0.0010619836823598115
18,257,0.18000000000000027,0.013233922119409859,0.03246195117094725,0.5772114080882614,0.01219959454988956,0.1285993295529003,0.0014067762101811472,0.991620594437236,-3.848330737060064e-05,0.2612251104658289,0.022498088382744485,0.10986273170787485,-0.01668142505171343,0.03873803090992438,0.07918706042340534,3.4143728831264815,0.014407209595124468,19.03660297393799,0.0147075448185205,0.0376367196440696,0.5602813363075256,,,,,,,,0.7382278652984967,0.666620063619314,0.6593828388308336,0.7100982144915053,104900.0,106800.0,108300.0,104500.0,19.02847194671631,0.675700261076247,-0.197478312007644,0.0005889937998613904,0.1830786918769117,3.631494667683172,-0.307977018024818,10.910254305371186,19.02847194671631,0.03602368437108756,-0.00024105247101770998,0.49935105244335376,0.0,0.0,0.0,1.0,0.0,1.402386978473882e-18,-9.568369488545757e-19,0.5785115789473684,0.0011257894736842117,0.00705578947368421,0.0,0.0,0.0,19.02841305732727,3.67300009727478,False,True,False,True,True,False,False,1825.027526542603,3332165.981330583,1862.3981902480546,3468002.4564126795,1892.7805866028432,3581665.056135229,1814.602092322859,3293655.4842595803,0.02433920165737217,0.26905393632295005,0.0038097043520015257
19,258,0.1900000000000005,0.015299379642903723,0.03229159758518072,0.5778508980104815,0.012297730645934453,0.14449680415285224,0.001695781673971859,0.9894273918459539,0.0011838233236246296,0.29422726589006243,0.023242193696806187,0.14210938704156223,-0.018879205090132432,0.049891410874902134,0.09046549099039138,3.3250483048273662,-0.0013238477308149953,19.0430645942688,0.01707099750638,0.0376355350017547,0.5605767369270325,,,,,,,,0.7532013664777266,0.6779261594785526,0.687456115695926,0.7398072709751757,106800.0,108300.0,109100.0,104900.0,19.040951013565063,0.7878375544404821,-0.08851735342624018,0.0028277909420420483,0.29521598524115344,4.041052627485169,-0.3758492538791159,10.995118737691232,19.040951013565063,0.03602368437108756,-0.00024105247101770998,0.49935105244335376,0.0,0.0,0.0,1.0,0.0,1.402386978473882e-18,-9.568369488545757e-19,0.5785115789473684,0.0011257894736842117,0.00705578947368421,0.0,0.0,0.0,19.02841305732727,3.67300009727478,False,True,False,True,True,False,False,1866.7684272426882,3484487.1026956914,1895.5325611975181,3593678.450391695,1906.6413440906717,3636606.5225119814,1841.303171139127,3390837.713384906,0.024304554557274583,0.29888520916341516,0.0038042811992669325
20,259,0.2000000000000003,0.017765160570946365,0.03215066762302503,0.5784133686311544,0.012263680428715798,0.16045667235645195,0.0020107413316125494,0.9869646474711917,0.0024982960513853475,0.32766988519888524,0.023803739384420413,0.17622224737007725,-0.020846606047934757,0.05683619261212357,0.0959300606864564,3.263874578299764,-0.010805897966603802,19.055543661117557,0.0263519510626792,0.037832923233509,0.5616567134857178,,,,,,,,0.7534556773311031,0.6538357450073493,0.6822620583707075,0.7649334531095178,109100.0,109900.0,111100.0,109100.0,19.05855107307434,0.8371325320036547,-0.013290986232477875,0.0036560687240677335,0.34451096280433896,4.648921756427223,-0.45940491554761653,11.191210090725725,19.05855107307434,0.059023684371087556,-0.00024105247101770998,0.49935105244335376,0.0,0.0,0.0,1.0,0.0,1.402386978473882e-18,-9.568369488545757e-19,0.7705115789473684,0.0011257894736842117,0.00705578947368421,0.0,0.0,0.0,19.06592011451721,3.641999959945679,False,True,False,True,True,False,False,1898.8087715022066,3604503.0014982834,1918.2797913953764,3679908.2172596552,1932.8041953703082,3735940.907302631,1889.1865744875827,3568739.4558213595,0.024262781473408733,0.3312759009751466,0.0037977426487573246
21,260,0.21000000000000052,0.020674569116467905,0.0320531355297182,0.5788947573510503,0.01217498294475553,0.17659618534694144,0.0023601540772410197,0.9842052564297425,0.003946587144879641,0.3618559468762158,0.024354989387815256,0.21586866935537652,-0.023116787214769882,0.06330351012314056,0.07929387307418298,3.235675859366554,-0.016038980767419938,19.055543661117557,0.0263519510626792,0.037832923233509,0.5616567134857178,,,,,,,,0.741038602656005,0.6753237309473772,0.7046330951692208,0.7538708200346496,109100.0,109900.0,111100.0,109100.0,19.05855107307434,0.7782573378466437,-0.004396641659924756,0.0032047285309308262,0.28563576864732665,5.125299403342696,-0.4851921150377266,11.310378289620441,19.05855107307434,0.059023684371087556,-0.00024105247101770998,0.49935105244335376,0.0,0.0,0.0,1.0,0.0,1.402386978473882e-18,-9.568369488545757e-19,0.7705115789473684,0.0011257894736842117,0.00705578947368421,0.0,0.0,0.0,19.06592011451721,3.641999959945679,False,True,False,True,True,False,False,1915.9762547637304,3672031.199243258,1904.4226529094328,3626115.134950959,1939.6331061171018,3760975.8887947225,1922.4353291303466,3695872.949798206,0.024262781473408733,0.3312759009751466,0.0037977426487573246
22,261,0.2200000000000003,0.024058637393530743,0.03200826604304117,0.5793505030780741,0.01207774695934418,0.19288338110212191,0.002736195836832965,0.9811435382018995,0.00551861881533607,0.39678434664115453,0.024990750415583095,0.2645929083105846,-0.025887777204340365,0.0727764093267528,0.051114085441447535,3.1985962538811403,-0.02159460527590146,19.07314372062683,0.0263519510626792,0.037832923233509,0.5616567134857178,,,,,,,,0.7248051852271276,0.7578602121744495,0.7640593188964856,0.7139831457444907,110700.0,108300.0,111900.0,110700.0,19.06860566139221,0.6097808712993796,-0.01786395367469493,0.0027652267383240703,0.11715930210003345,5.427208981174667,-0.4475152558738993,11.300245422135871,19.06860566139221,0.059023684371087556,-0.00024105247101770998,0.49935105244335376,0.0,0.0,0.0,1.0,0.0,1.402386978473882e-18,-9.568369488545757e-19,0.7705115789473684,0.0011257894736842117,0.00705578947368421,0.0,0.0,0.0,19.06592011451721,3.641999959945679,False,True,False,True,True,False,False,1920.4191660990218,3688091.8955553737,1911.0933877031628,3653281.915488124,1958.0093608336642,3834372.9536152547,1918.8837685142585,3682470.4517155895,0.024167048571399556,0.3955178698795033,0.006513970346187026
23,262,0.23000000000000054,0.02792481415056523,0.03202050923201826,0.5798674230857978,0.011973385576048092,0.20906134398301043,0.0031166461461469884,0.9778242577307358,0.007146667413211008,0.4319668908496502,0.025691374430181192,0.321746883187005,-0.02868699208274934,0.08557638074164989,0.02760467968982283,3.1305292659126827,-0.029142305549091432,19.083198308944706,0.0307616032660007,0.0378223024308681,0.5626480579376221,,,,,,,,0.7637745100222735,0.7406802814300371,0.7385549339060355,0.7436588444769987,110300.0,113600.0,114100.0,109100.0,19.078458070755005,0.36896191476943063,-0.02407929432176218,0.00296484708804588,-0.12365965442994065,5.789040476051898,-0.4008575985641427,11.294109040451216,19.078458070755005,0.08902368437108756,-0.00024105247101770998,0.49935105244335376,0.0,0.0,0.0,1.0,0.0,1.402386978473882e-18,-9.568369488545757e-19,0.9635115789473684,0.0011257894736842117,0.00705578947368421,0.0,0.0,0.0,19.096267461776733,3.615000009536743,False,True,False,True,True,False,False,1925.0231309158562,3704631.936504572,1969.1872535673842,3879697.4531820565,1993.7944537273042,3975866.613788294,1902.7286674060529,3619636.0341886953,0.024117945551352018,0.42469654029416803,0.006500735150521618
24,263,0.24000000000000032,0.03225574727777051,0.03209077375896069,0.5805289772963633,0.011833883968224922,0.22469077307551913,0.0034709035404344025,0.9743520762607145,0.008723428249314165,0.466485897152921,0.02635470196297056,0.38390760569586935,-0.030756044018254318,0.10029122277721564,0.011782736803876813,3.0429343604640593,-0.03780959478722394,19.09305071830749,0.03547865152359,0.0381254665553569,0.563515841960907,,,,,,,,0.7934623251359143,0.6617145812919969,0.694680499079148,0.807697908236547,111500.0,114100.0,115400.0,109500.0,19.088647603988647,0.13674214394028283,-0.03795062823369952,0.0035267048455217614,-0.35587942525905064,6.283554026713749,-0.38764520060972296,11.32379481920836,19.088647603988647,0.08902368437108756,-0.00024105247101770998,0.49935105244335376,0.0,0.0,0.0,1.0,0.0,1.402386978473882e-18,-9.568369488545757e-19,0.9635115789473684,0.0011257894736842117,0.00705578947368421,0.0,0.0,0.0,19.096267461776733,3.615000009536743,False,True,False,True,True,False,False,1959.89355313431,3842300.1629638895,1994.3890871652914,3976616.2584421393,1996.2650683320528,3985065.7473369986,1926.9937116044675,3714579.53373185,0.024065643512472874,0.45369281672589734,0.006486637693428447
25,264,0.25000000000000056,0.03702213350889018,0.03221763259754358,0.5813877787164976,0.011632246346942729,0.23930326718431774,0.0037694988320227402,0.9708678736256496,0.010140675703539333,0.4992873917963332,0.026871564377652077,0.44882973946959226,-0.03175801290687071,0.11581859109120562,0.0019553896356555916,2.9473064718039446,-0.04701436839591422,19.103240251541138,0.0405875369906425,0.0380501970648765,0.5644098520278931,,,,,,,,0.7326916974610609,0.6948010599170826,0.7520250921806342,0.7840404168889534,115400.0,112400.0,112400.0,114500.0,19.09899139404297,0.03142126951096379,-0.05974029361642757,0.004029735267905226,-0.46120029968827914,6.752490614396149,-0.39184802166264754,11.289820603162937,19.09899139404297,0.08902368437108756,-0.00024105247101770998,0.49935105244335376,0.0,0.0,0.0,1.0,0.0,1.402386978473882e-18,-9.568369488545757e-19,0.9635115789473684,0.0011257894736842117,0.00705578947368421,0.0,0.0,0.0,19.096267461776733,3.615000009536743,False,True,False,True,True,False,False,1999.5573949835139,3998888.523556332,1957.2484890009778,3830629.534074505,1984.0956618236023,3937238.9278401183,1980.5527886991324,3923864.5882588765,0.024010220308686863,0.4824963330776572,0.006471698959603085
26,265,0.26000000000000034,0.04220655568642526,0.032398087992606336,0.5824550070841152,0.011367349297307254,0.2525722462739566,0.003997959366736544,0.9675030026325411,0.011339934478395588,0.5295293543867479,0.02719866846524642,0.5157635532501331,-0.03204455454192602,0.13114571848617657,0.006945247515104032,2.8408102308542578,-0.05653050086955372,19.11358404159546,0.0467728301882743,0.0385030284523963,0.5655645132064819,,,,,,,,0.6928705875180986,0.7587451769055273,0.7703283592568062,0.7204050217756393,114100.0,111100.0,115400.0,114100.0,19.108805418014526,0.14448201452464132,-0.04849515447269654,0.0038662285886024847,-0.3481395546745947,7.078554722143057,-0.37355181839674223,11.156748666963836,19.108805418014526,0.08902368437108756,-0.00024105247101770998,0.49935105244335376,0.0,0.0,0.0,1.0,0.0,1.402386978473882e-18,-9.568369488545757e-19,0.9635115789473684,0.0011257894736842117,0.00705578947368421,0.0,0.0,0.0,19.096267461776733,3.615000009536743,False,True,False,True,True,False,False,1991.4212269005486,3966207.0643405668,1952.8309747503133,3814498.3666463653,2006.6133428347775,4027489.6210487103,1998.8476561234002,3994785.042546373,0.0239571120305123,0.5085039401641024,0.009164869864074016
27,266,0.2700000000000006,0.04782861170200738,0.03262828757704873,0.5837094220766923,0.011066903602891082,0.2644264460378559,0.004173645217334369,0.9643333235795769,0.012360897577750291,0.5568406957842862,0.02738757941429759,0.5827257486939131,-0.03224884581061848,0.1445649042727012,0.03616557547542563,2.7265891217057527,-0.06448926400765408,19.123398065567017,0.0536154098808765,0.0388875640928745,0.5671795010566711,,,,,,,,0.7484459688307525,0.7075153637519496,0.6630604835854463,0.7260655945765824,111500.0,115400.0,116700.0,113200.0,19.118369102478027,0.441722283443888,0.016263594847905176,0.0021001770554998646,-0.0508992857555355,7.316493552194405,-0.3384950190204375,10.94149943278939,19.118369102478027,0.12302368437108756,-0.00024105247101770998,0.49935105244335376,0.0,0.0,0.0,1.0,0.0,1.402386978473882e-18,-9.568369488545757e-19,1.1465115789473685,0.0011257894736842117,0.00705578947368421,0.0,0.0,0.0,19.126288414001465,3.6050000190734863,False,True,False,True,True,False,False,1960.969090890424,3845454.545916862,2000.7545476211517,4004060.9333483926,2024.980051654673,4100756.968356518,1978.105111865365,3912764.485310262,0.02119559443512812,0.5369176228124487,0.009141566919607292
28,267,0.28000000000000036,0.053957215201138053,0.032904143598279825,0.585118376250169,0.010768162817776289,0.2750792311565197,0.0043549714064393475,0.9613513912612375,0.013359433285390718,0.5814374842955047,0.02755688808312623,0.6464717919234371,-0.032670127870079925,0.15455715116383664,0.07613517703456098,2.620839321808442,-0.06751689606733223,19.13296175003052,0.0606484487652778,0.0390337072312831,0.5686067938804626,,,,,,,,0.7686277296035855,0.6241489605646318,0.6051402701050859,0.7627488578559504,112800.0,115400.0,114100.0,112400.0,19.13043975830078,0.7393305470559374,0.08664176662300527,-0.0012469876949265212,0.24670897785631704,7.562912680714224,-0.33005296219383,10.63013806989768,19.13043975830078,0.12302368437108756,-0.00024105247101770998,0.49935105244335376,0.0,0.0,0.0,1.0,0.0,1.402386978473882e-18,-9.568369488545757e-19,1.1465115789473685,0.0011257894736842117,0.00705578947368421,0.0,0.0,0.0,19.126288414001465,3.6050000190734863,False,True,False,True,True,False,False,1952.8956283536475,3813664.3116413383,2013.1048818659715,4052394.345473006,2006.6096688679004,4026837.2268319903,1960.2290726489791,3842446.2517489092,0.021149311145773377,0.5599975560229815,0.009121605139899206
29,268,0.2900000000000006,0.06069749578971829,0.03322089817752911,0.5866561041452455,0.010494000532279687,0.28496202984907426,0.004628516971542884,0.9584701843707858,0.014567223469220444,0.6040546290405601,0.027832756257490113,0.7065661719397301,-0.0330538964797131,0.1613115097795081,0.09469876535585281,2.5282555387293533,-0.06348056770977223,19.14503240585327,0.0775067210197448,0.0401731319725513,0.5716637969017029,,,,,,,,0.7019178873820409,0.6193049249681213,0.6616819311191551,0.7540045435590221,111500.0,112400.0,114100.0,112400.0,19.1504020690918,0.8348695427702042,0.0972282798794055,-0.004060650113259043,0.34224797357079456,7.810404798030557,-0.3400730762087144,10.265462238237436,19.1504020690918,0.16502368437108755,-0.00024105247101770998,0.49935105244335376,0.0,0.0,0.0,1.0,0.0,1.402386978473882e-18,-9.568369488545757e-19,1.3235115789473686,0.0011257894736842117,0.00705578947368421,0.0,0.0,0.0,19.16006064414978,3.6050000190734863,False,True,False,True,True,False,False,1951.4799324116661,3808710.105868044,1976.5341382942147,3906911.1690755407,1990.4445034428284,3961295.800447958,1956.2585228029084,3827185.0058948826,0.0211194705712592,0.583425571334724,0.009108735030986916
30,269,0.3000000000000004,0.06815081230853465,0.03357110318702162,0.5883079291754427,0.010246225367430934,0.29456274601238835,0.005072600697944513,0.9555637457802175,0.01619910678445884,0.6256602529844156,0.02830368311731755,0.768005224136705,-0.03291973894453108,0.16650846487568965,0.07778564393487203,2.4278506967139344,-0.053189618785415387,19.14503240585327,0.0775067210197448,0.0401731319725513,0.5716637969017029,,,,,,,,0.6676666951506323,0.6668632257154548,0.7006633984956357,0.7125333595061203,111500.0,112400.0,114100.0,112400.0,19.1504020690918,0.700031601830845,0.04655490794615681,-0.003924008037316325,0.20741003263206256,7.9808926608282835,-0.30480889785467535,9.94504699542695,19.1504020690918,0.16502368437108755,-0.00024105247101770998,0.49935105244335376,0.0,0.0,0.0,1.0,0.0,1.402386978473882e-18,-9.568369488545757e-19,1.3235115789473686,0.0011257894736842117,0.00705578947368421,0.0,0.0,0.0,19.16006064414978,3.6050000190734863,False,True,False,True,True,False,False,1947.4933512140428,3792691.9619812975,1946.5429384357526,3788524.848462061,1977.3973272232024,3910465.818293456,1967.455579717795,3870781.5905780476,0.0211194705712592,0.583425571334724,0.009108735030986916
31,270,0.3100000000000006,0.07636398628830093,0.03394254428369482,0.5900606740765638,0.010022177983124717,0.30421947221966505,0.005717513792916101,0.9525320880195537,0.01835973582244109,0.6470273085751065,0.029019051384294236,0.8378587803072621,-0.03205385036380591,0.17128740240572463,0.05145149164787362,2.2938869311638945,-0.039299691477585066,19.164994716644287,0.0973646938800811,0.041340421885252,0.5752389430999756,,,,,,,,0.6936165257888367,0.6980263834938831,0.6771464339781302,0.6788291869578945,111500.0,110300.0,110300.0,113200.0,19.172598600387573,0.5154118934059967,-0.001044764429369148,-0.001233067809320572,0.022790324207371954,8.040839322392294,-0.2237003296071088,9.655331105081334,19.172598600387573,0.16502368437108755,-0.00024105247101770998,0.49935105244335376,0.0,0.0,0.0,1.0,0.0,1.402386978473882e-18,-9.568369488545757e-19,1.3235115789473686,0.0011257894736842117,0.00705578947368421,0.0,0.0,0.0,19.16006064414978,3.625999927520752,False,True,False,True,True,False,False,1949.4774093925844,3799933.459317947,1931.4125524864314,3730777.4125716267,1941.6289092616798,3771328.814769521,1981.806561010304,3926608.509724432,0.021174844323217132,0.6281225946009655,0.01183057698143517
32,271,0.3200000000000004,0.08529645623792369,0.03431904976995634,0.5918894032372555,0.009838198823406296,0.31397044594802154,0.006531907599838416,0.9493593119036747,0.02101438156636713,0.6683707214038279,0.030021265733493025,0.9188493089410044,-0.030683059621735675,0.17472941384208793,0.05494098718896825,2.120236903214127,-0.024635568194081737,19.164994716644287,0.0973646938800811,0.041340421885252,0.5752389430999756,,,,,,,,0.7016931209266044,0.6615965645218878,0.6332621675659684,0.6714410937390165,111500.0,110300.0,110300.0,113200.0,19.172598600387573,0.47480845055571463,0.009900313216324716,0.0010478828659937147,-0.017813118644101972,8.021031600093247,-0.18304739078249133,9.302081741012357,19.172598600387573,0.16502368437108755,-0.00024105247101770998,0.49935105244335376,0.0,0.0,0.0,1.0,0.0,1.402386978473882e-18,-9.568369488545757e-19,1.3235115789473686,0.0011257894736842117,0.00705578947368421,0.0,0.0,0.0,19.16006064414978,3.625999927520752,False,True,False,True,True,False,False,1933.3288951533548,3738520.002069439,1924.1670937058407,3702779.344265829,1914.4974326220972,3664677.165849273,1955.945138829108,3827415.0489905365,0.021174844323217132,0.6281225946009655,0.01183057698143517
33,272,0.3300000000000006,0.09482999727437418,0.03468579972533893,0.593751382775199,0.009735976833740001,0.32354398878731755,0.0074509174930709665,0.9461337019170157,0.024052314720441732,0.6892538965835022,0.03137466918083769,1.006201631970921,-0.029213289242739495,0.17461155145920415,0.09587372938544021,1.9188219909239002,-0.011883376496656627,19.187191247940063,0.1085684448480606,0.0418834798038005,0.5770354270935059,,,,,,,,0.6917856981865274,0.5822629131122089,0.5893710905459197,0.6894310763442167,107900.0,110300.0,109100.0,107500.0,19.190088033676147,0.5826566056367886,0.07017871377544578,0.001117029640261952,0.0900350364354753,7.9568530350375894,-0.21756688215605263,8.903387659836289,19.190088033676147,0.21202368437108754,-0.00024105247101770998,0.49935105244335376,0.0,0.0,0.0,1.0,0.0,1.402386978473882e-18,-9.568369488545757e-19,1.4835115789473685,0.0011257894736842117,0.00705578947368421,0.0,0.0,0.0,19.19905018806457,3.625999927520752,False,True,False,True,True,False,False,1896.8010231225255,3598584.431959982,1929.017750257764,3720428.8294651583,1911.7903241850308,3654256.401772552,1897.141410638742,3600849.344126542,0.018525981256683154,0.670368441908263,0.017272264548922847
34,273,0.3400000000000004,0.10482479185373682,0.035037608553925306,0.5955914001103494,0.00976335156943228,0.3324866657200617,0.008432882889180763,0.9430197137762629,0.027409375946303337,0.708800436209754,0.03316468719386771,1.090635474174697,-0.027813384732593763,0.16954862278121782,0.1437704322443471,1.7037970627834653,-0.0036828335700054577,19.187191247940063,0.1085684448480606,0.0418834798038005,0.5770354270935059,,,,,,,,0.6937606165345644,0.5565639509935962,0.5876743131985331,0.7063456768232877,107900.0,110300.0,109100.0,107500.0,19.190088033676147,0.6943598034226911,0.12651181895129363,0.0003084609710208604,0.20173823422247925,7.860519157268173,-0.2510154484389879,8.562626947668827,19.190088033676147,0.21202368437108754,-0.00024105247101770998,0.49935105244335376,0.0,0.0,0.0,1.0,0.0,1.402386978473882e-18,-9.568369488545757e-19,1.4835115789473685,0.0011257894736842117,0.00705578947368421,0.0,0.0,0.0,19.19905018806457,3.625999927520752,False,True,False,True,True,False,False,1879.7033949461825,3532855.2583892653,1917.1494508533651,3675773.121331064,1894.6305627091283,3590612.938307502,1868.000986263501,3488348.5717530474,0.018525981256683154,0.670368441908263,0.017272264548922847
35,274,0.35000000000000064,0.11519953915815921,0.035386451535058455,0.5973548711431886,0.009945440659041772,0.34034760491720994,0.009508441965561875,0.9401990138096316,0.031171612864795504,0.7260633185766,0.035473466705208984,1.1656563969288007,-0.026195448418837003,0.16006413511350406,0.16697707162990805,1.4799918874261502,-0.0016587062646942303,19.20468068122864,0.1328781992197036,0.0435871519148349,0.5804706811904907,,,,,,,,0.6781828138327617,0.5911176123824805,0.6315557552427028,0.6967775253899133,108300.0,107100.0,106400.0,107500.0,19.20294976234436,0.7203675400518718,0.13943429914476807,0.00075015191667096,0.22774597085593984,7.7465345544371225,-0.21856307426847332,8.30784606545308,19.20294976234436,0.21202368437108754,-0.00024105247101770998,0.49935105244335376,0.0,0.0,0.0,1.0,0.0,1.402386978473882e-18,-9.568369488545757e-19,1.4835115789473685,0.0011257894736842117,0.00705578947368421,0.0,0.0,0.0,19.19905018806457,3.678999900817871,False,True,False,True,True,False,False,1881.8713709658066,3541465.2679960486,1874.572708715467,3514942.5343682803,1865.7330045027645,3481307.911817995,1870.5438257873175,3498725.1096463995,0.0212753186458226,0.7015828164276173,0.02001899306083325
36,275,0.36000000000000043,0.12599595266148672,0.0357647469835647,0.5990013411907553,0.010270598285094882,0.3468200320912465,0.010786212361461331,0.9378134344175212,0.035584377059383804,0.7403413894917781,0.03835498850289489,1.2333554825905075,-0.023739758917856898,0.14741942242590358,0.16441505368966908,1.2393401908955397,-0.004999677161155257,19.21754240989685,0.1599754989147186,0.0456816814839839,0.5833964943885803,,,,,,,,0.6471597411035408,0.592866480558923,0.6332525832996503,0.6722808496158362,106400.0,105600.0,106800.0,106000.0,19.21847128868103,0.6996075139163784,0.1101280222382511,0.002396120543662595,0.2069859447222435,7.639844406057881,-0.1575479868092112,8.102089652555836,19.21847128868103,0.2630236843710876,-0.00024105247101770998,0.49935105244335376,0.0,0.0,0.0,1.0,0.0,1.402386978473882e-18,-9.568369488545757e-19,1.6155115789473686,0.0011257894736842117,0.00705578947368421,0.0,0.0,0.0,19.2382926940918,3.678999900817871,False,True,False,True,True,False,False,1869.8502351166921,3496683.689418355,1843.8904077677848,3399182.6209419183,1861.5221635188047,3464651.157967861,1860.1749245287156,3460938.5814122693,0.021287917414795007,0.7101353795149213,0.02274321256057309
37,276,0.3700000000000002,0.13739104641862862,0.03622273314456288,0.6005122971620497,0.010700852839663195,0.35178613222280064,0.012405034042801829,0.9359370299622849,0.040943531904445434,0.7513095819565545,0.041819239667975155,1.3015787253722668,-0.01987739907336953,0.1319248786986324,0.15812742035749155,0.970821147254213,-0.010391325604139587,19.21754240989685,0.1599754989147186,0.0456816814839839,0.5833964943885803,,,,,,,,0.6520028959228041,0.545766632273435,0.5746584019716596,0.6653089937489307,106400.0,105600.0,106800.0,106000.0,19.21847128868103,0.6755712847831803,0.06473266018429633,0.0034254838769172983,0.18294971558161324,7.532914198114663,-0.13186986435130285,7.918760798258994,19.21847128868103,0.2630236843710876,-0.00024105247101770998,0.49935105244335376,0.0,0.0,0.0,1.0,0.0,1.402386978473882e-18,-9.568369488545757e-19,1.6155115789473686,0.0011257894736842117,0.00705578947368421,0.0,0.0,0.0,19.2382926940918,3.678999900817871,False,True,False,True,True,False,False,1847.8923887266487,3414682.1998755718,1841.8983833932334,3392670.1674973043,1862.6484985349846,3469530.953921971,1844.2861676385287,3401456.790777158,0.021287917414795007,0.7101353795149213,0.02274321256057309
38,277,0.38000000000000045,0.14964745263704604,0.03682005464103881,0.6018917157303667,0.011195621147104892,0.3552826143155962,0.014457224614933773,0.934580071844376,0.047420955197390625,0.7589798067718143,0.045820103434005804,1.3735642185573518,-0.014472205965650171,0.11324783675005123,0.1650041443828219,0.6808081523773816,-0.014127456922534212,19.23306393623352,0.1745824068784713,0.0466922745108604,0.5846710205078125,,,,,,,,0.6846765337230483,0.5148120517382287,0.5500660626962932,0.6839252915726504,105300.0,105300.0,105600.0,106000.0,19.229901790618896,0.6186419953657247,0.030729922340205964,0.0029454375677563974,0.1260204261530824,7.380238158168208,-0.1384391388485057,7.73058764784599,19.229901790618896,0.2630236843710876,-0.00024105247101770998,0.49935105244335376,0.0,0.0,0.0,1.0,0.0,1.402386978473882e-18,-9.568369488545757e-19,1.6155115789473686,0.0011257894736842117,0.00705578947368421,0.0,0.0,0.0,19.2382926940918,3.678999900817871,False,True,False,True,True,False,False,1839.3962451596435,3383256.86138722,1830.6608187604352,3351985.9162075957,1838.9362850835548,3382457.1733009266,1848.2409262109386,3415485.7215173524,0.024029874907351405,0.7273051450156989,0.030918383952531475
39,278,0.39000000000000024,0.16302548324650742,0.037612908313163836,0.6031608117600727,0.011730231306090516,0.3574507590445057,0.016927055240147707,0.9337048952066758,0.054926333237747274,0.7636189650894007,0.050246915254470836,1.4434966195815435,-0.00785526194150054,0.09217746191498728,0.18435401190930145,0.3930788635374315,-0.015167955084181534,19.244494438171387,0.1745824068784713,0.0466922745108604,0.5846710205078125,,,,,,,,0.6889996751384921,0.5144393979997757,0.5794092637152264,0.6939738032526706,104900.0,101700.0,103100.0,105300.0,19.239051818847656,0.528154699320831,0.0238014267512697,0.002194953576338446,0.03553313011336448,7.175759338746274,-0.13815556939380697,7.523107486535313,19.239051818847656,0.2630236843710876,-0.00024105247101770998,0.49935105244335376,0.0,0.0,0.0,1.0,0.0,1.402386978473882e-18,-9.568369488545757e-19,1.6155115789473686,0.0011257894736842117,0.00705578947368421,0.0,0.0,0.0,19.2382926940918,3.688999891281128,False,True,False,True,True,False,False,1836.390603714462,3372149.3432801194,1792.657286583044,3213439.364057951,1814.3233777790542,3291635.692283611,1847.3064447885988,3412234.50089099,0.024039559382361096,0.7330318542762467,0.030930844621506356
40,279,0.40000000000000047,0.17769327509625887,0.03863921922010168,0.6043472883655009,0.012298868571261785,0.358512663711887,0.019679075942830113,0.9332363804310838,0.06308683154705536,0.7657113523269459,0.05492796705510998,1.5066070353535956,-0.0003633621437398988,0.07065438437441976,0.20922384010320608,0.1134893963721542,-0.016348095971245015,19.253644466400143,0.2222758382558822,0.050210140645504,0.5872451663017273,,,,,,,,0.6579283418437631,0.5078352832953761,0.5809680693535888,0.6652740771974694,104500.0,101400.0,104500.0,104900.0,19.25083065032959,0.5055562001961578,0.04110658468175945,0.0029596185250262996,0.012934631017470853,6.977655143636729,-0.12736508852291017,7.33245390566447,19.25083065032959,0.3190236843710876,-0.00024105247101770998,0.49935105244335376,0.0,0.0,0.0,1.0,0.0,1.402386978473882e-18,-9.568369488545757e-19,1.7265115789473686,0.0011257894736842117,0.00705578947368421,0.0,0.0,0.0,19.265864610672,3.688999891281128,False,True,False,True,True,False,False,1815.0468644643452,3294744.8382640127,1747.6475559092787,3054346.2928194646,1802.5616863701828,3249352.7450763257,1816.6437212957999,3301171.0912769106,0.024046283779531722,0.7359544847868917,0.04452731691289785
41,280,0.4100000000000007,0.1936619360230851,0.03990527467296272,0.6054684353457453,0.01290578586286321,0.3587433948815446,0.02249725653585814,0.9330758226256245,0.0713419755471079,0.7658981962641208,0.05964818373343395,1.5706452029494613,0.008141104956589694,0.049434567042001026,0.23930417834310824,-0.1941961707260896,-0.021910932828350424,19.26542329788208,0.2395854443311691,0.051463458687067,0.5880410671234131,,,,,,,,0.6332986326965205,0.47925239694340926,0.536545896610105,0.6274539311700325,101700.0,97100.0,100700.0,101700.0,19.269107580184937,0.6215269940954538,0.0643769738462425,0.005504821190955787,0.12890542493363227,6.8074240878011825,-0.12892059070890471,7.197477006359341,19.269107580184937,0.3190236843710876,-0.00024105247101770998,0.49935105244335376,0.0,0.0,0.0,1.0,0.0,1.402386978473882e-18,-9.568369488545757e-19,1.7265115789473686,0.0011257894736842117,0.00705578947368421,0.0,0.0,0.0,19.265864610672,3.688999891281128,False,True,False,True,True,False,False,1782.3241258966948,3176976.678515518,1712.4550817700733,2933471.168681,1777.8505457204515,3161880.0692716455,1785.6897575187975,3188769.573186027,0.026764564172365272,0.7359742029640296,0.04724614604705663
42,281,0.4200000000000005,0.21076739927585214,0.04137771282004765,0.6065122413925296,0.013559085680649273,0.35836824533084144,0.02514451632226732,0.9331431322326269,0.07907454574321238,0.7647381144129511,0.06417495998209552,1.6495308619190223,0.017930989340362576,0.02717821298388255,0.27771456154216356,-0.5706180501443496,-0.03334598311945323,19.26542329788208,0.2395854443311691,0.051463458687067,0.5880410671234131,,,,,,,,0.6358492687581592,0.44501231301750194,0.5069227511231409,0.6202309234630912,101700.0,97100.0,100700.0,101700.0,19.269107580184937,0.7732842699614182,0.0771573392382679,0.008528876710323362,0.28066270075426886,6.604322379508488,-0.14417872286622008,7.101838072943494,19.269107580184937,0.3190236843710876,-0.00024105247101770998,0.49935105244335376,0.0,0.0,0.0,1.0,0.0,1.402386978473882e-18,-9.568369488545757e-19,1.7265115789473686,0.0011257894736842117,0.00705578947368421,0.0,0.0,0.0,19.265864610672,3.688999891281128,False,True,False,True,True,False,False,1770.2648775367695,3133494.8847374786,1686.6382358951585,2844664.127189018,1741.116386663922,3031491.6407308364,1776.662303280048,3155907.7791216103,0.026764564172365272,0.7359742029640296,0.04724614604705663
43,282,0.43000000000000027,0.22872381347833962,0.04298467716223975,0.6074271903040418,0.014279629942076018,0.3573622571872631,0.027410042720040495,0.9334543367861264,0.08570195647783975,0.7622390890093451,0.06829043850645092,1.744166391065246,0.02838026851337993,0.003301133912283675,0.32022561083839973,-0.9991408631385812,-0.04807196879140997,19.283700227737427,0.2574497759342193,0.0527724660933017,0.5884748697280884,,,,,,,,0.6391737600747531,0.4292760533960136,0.5097166191451228,0.6183058483838357,101700.0,94900.0,97400.0,101700.0,19.27840256690979,0.7845312663714233,0.08146325037738339,0.010873801836086348,0.2919096970840631,6.3523397276804,-0.15091432647923292,7.006791347761867,19.27840256690979,0.3790236843710876,-0.00024105247101770998,0.49935105244335376,0.0,0.0,0.0,1.0,0.0,1.402386978473882e-18,-9.568369488545757e-19,1.8085115789473685,0.0011257894736842117,0.00705578947368421,0.0,0.0,0.0,19.300090074539185,3.700000047683716,False,True,False,True,True,False,False,1781.2947519904942,3173108.699262172,1656.1494711637579,2742341.663106502,1712.4799217863872,2932104.633699912,1762.194001817689,3106073.6188994274,0.02946692140591836,0.7274441001712957,0.05808657209049308
44,283,0.4400000000000005,0.24724977786423813,0.044628293595571474,0.6081299020741919,0.015122234885084346,0.3552402430662605,0.02913417753771886,0.9341985267690723,0.09071952374095003,0.7573623328320214,0.07183331489456836,1.8363266059710832,0.03771673591530687,-0.01954030845626598,0.35569840117632223,-1.4145443537721416,-0.06276345842031172,19.29299521446228,0.2757763564586639,0.0540765672922134,0.5886175036430359,,,,,,,,0.6159547027047039,0.43846491140919397,0.5126425250714799,0.585949845520726,103100.0,92300.0,96500.0,99000.0,19.288593292236328,0.6274374780659926,0.0935331496066002,0.01275226875316389,0.13481590879789518,6.13560048442395,-0.13859568857475935,6.905036768825988,19.288593292236328,0.3790236843710876,-0.00024105247101770998,0.49935105244335376,0.0,0.0,0.0,1.0,0.0,1.402386978473882e-18,-9.568369488545757e-19,1.8085115789473685,0.0011257894736842117,0.00705578947368421,0.0,0.0,0.0,19.300090074539185,3.700000047683716,False,True,False,True,True,False,False,1787.5360126123146,3195917.175375676,1613.1342640301532,2603006.466821326,1678.4674836162148,2818082.7776276637,1738.611614312488,3023479.032342471,0.032164937287146374,0.7188883735110855,0.06076839263410598
45,284,0.4500000000000003,0.2662048318089803,0.04620602618423751,0.6085295625731467,0.01618753971955539,0.3510158782093915,0.03021726173071667,0.9357418094197859,0.09373117233257378,0.7479075672430916,0.07473843625385808,1.9062051320635796,0.044313287639082224,-0.03850178933239122,0.3782394860642562,-1.790621953160525,-0.07769829334876326,19.30318593978882,0.2947600483894348,0.0554775260388851,0.5885935425758362,,,,,,,,0.5731264733626731,0.47387476698934516,0.5251297102710475,0.5319113678733101,101000.0,90100.0,94300.0,99000.0,19.302284240722656,0.4594459860991987,0.11919063665492115,0.015171040872218877,-0.03317558297817538,5.954125795856079,-0.13373170158025321,6.82500139626638,19.302284240722656,0.3790236843710876,-0.00024105247101770998,0.49935105244335376,0.0,0.0,0.0,1.0,0.0,1.402386978473882e-18,-9.568369488545757e-19,1.8085115789473685,0.0011257894736842117,0.00705578947368421,0.0,0.0,0.0,19.300090074539185,3.700000047683716,False,True,False,True,True,False,False,1778.1715019915646,3161754.492189327,1574.0216573270327,2477687.313090033,1641.537033644684,2693654.5430079433,1731.4081758105863,2996804.0674175117,0.03485266766867897,0.7074822927162248,0.06072141519738211
46,285,0.4600000000000005,0.2856283461093535,0.047633034327142505,0.6085590182068827,0.017598271986606503,0.34348357815949404,0.030619389583277406,0.9384944247779972,0.09449326198568408,0.7311415473906809,0.07704303925039266,1.9526738055372719,0.04802117953229747,-0.05616795044837563,0.3933522671407286,-2.1882489226716375,-0.09707991784384624,19.30318593978882,0.2947600483894348,0.0554775260388851,0.5885935425758362,,,,,,,,0.5318552422798852,0.5483283077905492,0.5841438514505952,0.47305747291770367,101000.0,90100.0,94300.0,99000.0,19.302284240722656,0.43244967817590396,0.13499351059804604,0.018500297587107403,-0.060171890757455576,5.652037690538888,-0.18214850178134329,6.821328360376906,19.302284240722656,0.3790236843710876,-0.00024105247101770998,0.49935105244335376,0.0,0.0,0.0,1.0,0.0,1.402386978473882e-18,-9.568369488545757e-19,1.8085115789473685,0.0011257894736842117,0.00705578947368421,0.0,0.0,0.0,19.300090074539185,3.700000047683716,False,True,False,True,True,False,False,1750.385187488709,3063391.704392248,1566.5888290529585,2452889.3793337736,1655.5877657220178,2741130.2332756,1712.2945710029335,2932384.023328769,0.03485266766867897,0.7074822927162248,0.06072141519738211
47,286,0.4700000000000003,0.3056213332973445,0.04885666077462861,0.6082009133243992,0.01943505123749516,0.33179714015577505,0.030358191755150078,0.9426618252380874,0.09297616528983933,0.7051185772914527,0.07884337773070708,1.9923352940179662,0.04986768685012368,-0.08002634701099604,0.4087401638948933,-2.6763927617280117,-0.12480909851645605,19.316876888275143,0.2947600483894348,0.0554775260388851,0.5885935425758362,,,,,,,,0.5234355558453201,0.6206580390299345,0.6453685110665428,0.4435552329813446,96800.0,91700.0,99000.0,93500.0,19.31858205795288,0.5269964954069238,0.10322456284765352,0.021945376174561933,0.03437492620450856,5.174562981222647,-0.2925773929634677,6.961922896614074,19.31858205795288,0.4390236843710876,-0.00024105247101770998,0.49935105244335376,0.0,0.0,0.0,1.0,0.0,1.402386978473882e-18,-9.568369488545757e-19,1.8555115789473686,0.0011257894736842117,0.00705578947368421,0.0,0.0,0.0,19.32601809501648,3.7309999465942383,False,True,False,True,True,False,False,1696.36613747091,2878616.256655409,1606.43045545404,2581144.5560597153,1724.596538383539,2976375.2570820926,1646.0640632863092,2711936.720292016,0.03751627213915922,0.6875962697334613,0.06335128510374727
48,287,0.48000000000000054,0.32613651860447235,0.04985933250518018,0.607499544748459,0.02166412266244863,0.31607176035530105,0.02951286137404612,0.9480286383378319,0.08942993196965629,0.6700546246089629,0.08022978153218563,2.0411122482581003,0.050701397176024496,-0.11419556347485996,0.4214212272868447,-3.2134263107751275,-0.16016940355587989,19.327220678329468,0.2947600483894348,0.0554775260388851,0.5885935425758362,,,,,,,,0.5675072117831637,0.6137294908440466,0.6306875838846426,0.48151277435949325,94600.0,95800.0,102000.0,90400.0,19.32904028892517,0.6045286586318794,0.014716445750036337,0.024347060148874777,0.11190708885919959,4.689228985360386,-0.41677442111216195,7.271132143545455,19.32904028892517,0.4390236843710876,-0.00024105247101770998,0.49935105244335376,0.0,0.0,0.0,1.0,0.0,1.402386978473882e-18,-9.568369488545757e-19,1.8555115789473686,0.0011257894736842117,0.00705578947368421,0.0,0.0,0.0,19.32601809501648,3.7309999465942383,False,True,False,True,True,False,False,1644.1034683451894,2703019.80786464,1671.1249605990126,2793624.434504809,1770.9354055685278,3135406.768175206,1574.7036510754608,2478232.610771192,0.04286344531320822,0.6621190512326193,0.060542037394871136
