,Unnamed: 0,t,x,y,z,qx,qy,qz,qw,yaw,pitch,roll,vx,vy,vz,wx,wy,wz,ros_timestamp,x_poses,y_poses,z_poses,qx_poses,qy_poses,qz_poses,qw_poses,yaw_poses,pitch_poses,roll_poses,m1_thrust,m2_thrust,m3_thrust,m4_thrust,m1_erpm,m2_erpm,m3_erpm,m4_erpm,ros_timestamp_motors,thrust,torque_roll,torque_pitch,torque_yaw,ax,ay,az,ros_timestamp_image_accel,x_r,y_r,z_r,qx_r,qy_r,qz_r,qw_r,yaw_r,pitch_r,roll_r,vx_r,vy_r,vz_r,wx_r,wy_r,wz_r,ros_timestamp_r,Vbat,can_be_armed,is_armed,auto_arm,can_fly,is_flying,is_tumbled,is_locked,m1_rads,m1_rads2,m2_rads,m2_rads2,m3_rads,m3_rads2,m4_rads,m4_rads2,ax_body,ay_body,az_body,lag_samples,lag_seconds,rx,ry,rz
0,4906,1.9680647827798707e-15,0.043304102472800435,0.0058428129703769986,0.5783582481807112,-0.0044953372564006285,-0.002266945112620537,-0.0009679262616888372,0.9999868579244228,-0.007078649410484962,-0.003685671856164612,-0.013812962398096167,-0.007428682384332455,0.008690610600344978,-0.003313791915105319,0.029301144518128618,-0.012271052425681888,-0.015098815382921443,55.01944446563721,0.0454313308000564,0.0105177871882915,0.5722134709358215,,,,,,,,0.6151322754038915,0.47590620004488643,0.5466309773628732,0.6701165530263904,96500.0,98000.0,98000.0,95200.0,55.024317264556885,0.10485026361686156,-0.0017120881406121574,0.0017364651797465067,-0.3877219948485489,0.06815184421335993,-0.008959985187575749,9.67821128985479,55.01944446563721,4.736858161386911e-05,2.4737002666500644e-05,0.4998921050749327,0.0,0.0,0.0,1.0,0.0,1.402386978473882e-18,-9.568369488545757e-19,-0.00020210526315789473,0.00025210526315789427,-0.00018052631578947424,0.0,0.0,0.0,55.01944446563721,3.8949999809265137,False,True,False,True,True,False,False,1684.2567916559096,2836723.2507798686,1710.385721254116,2925411.4695240525,1710.4097986856725,2925499.2558701355,1661.577449435268,2760846.290598099,0.09468500972814002,-0.06279383300762242,9.67776618644866,3,0.03,-0.00899693096024226,-0.004688315809556178,-0.0019361308448459257
1,4907,0.00999999999999998,0.04333026642842027,0.00584363143240016,0.5791750292932845,-0.004680264899971549,-0.0021756958619810413,-0.00097110206818464,0.9999862091192836,-0.007079633209299439,-0.0035051509318557985,-0.01418190368797758,-0.007930425138537995,0.009323383694345209,0.003439477176033495,0.05775816414587656,-0.11105448150786089,-0.004937789467663986,55.02929663658142,0.0454313308000564,0.0105177871882915,0.5722134709358215,,,,,,,,0.5987113911641087,0.4883260773987368,0.5438029082114056,0.6254083932970693,98000.0,95800.0,98000.0,100700.0,55.03046154975891,0.6032268025825296,-0.0016874993084563476,0.003542054962627941,0.11065454411711914,0.07896550892387896,-0.058178904233155,9.831511945242024,55.02929663658142,4.736858161386911e-05,2.4737002666500644e-05,0.4998921050749327,0.0,0.0,0.0,1.0,0.0,1.402386978473882e-18,-9.568369488545757e-19,-0.00020210526315789473,0.00025210526315789427,-0.00018052631578947424,0.0,0.0,0.0,55.01944446563721,3.874000072479248,False,True,False,True,True,False,False,1721.3502041602928,2961761.173074232,1655.2664458565341,2734552.378533129,1693.5720952632798,2863897.1959367516,1745.8362648663367,3047364.6202762923,0.08375864529163429,-0.12626076735801595,9.767446523225255,3,0.03,-0.00899693096024226,-0.004688315809556178,-0.0019361308448459257
2,4908,0.019999999999997988,0.04334298457757813,0.005842312321165694,0.579871679032162,-0.004690742871501083,-0.0028233849830283865,-0.0009917173259244175,0.9999845208428461,-0.007118579034058557,-0.0048034853770677725,-0.014205723584764853,-0.008140337916076714,0.009865311389934931,0.005713663246547386,0.11031127899800117,-0.30731280690365864,0.000892348971342047,55.03972506523132,0.0451913923025131,0.0105570582672953,0.5722377300262451,,,,,,,,0.5495584841362389,0.5585659218375186,0.5870799606482524,0.5465327258638697,99000.0,94600.0,98000.0,101000.0,55.04122185707092,0.8662373177035674,0.038766854214341305,0.006191741145667843,0.37366505923815707,0.14568781989376792,-0.06334900923677442,9.896036786437948,55.03972506523132,4.736858161386911e-05,2.4737002666500644e-05,0.4998921050749327,0.0,0.0,0.0,1.0,0.0,1.402386978473882e-18,-9.568369488545757e-19,0.03279789473684211,0.00025210526315789427,-0.00018052631578947424,0.0,0.0,0.0,55.058841943740845,3.874000072479248,False,True,False,True,True,False,False,1734.8723832641335,3007210.077353202,1644.2558365647276,2696183.840231381,1696.679679379904,2873278.861351709,1777.9280192871747,3155900.8695584307,0.18622176662450604,-0.11138448984062549,9.919249043408389,3,0.03,-0.00899693096024226,-0.004688315809556178,-0.0019361308448459257
3,4909,0.030000000000003104,0.04333411823701702,0.005838275909273625,0.5803602268633166,-0.004403379690391019,-0.004440120771863227,-0.001029082188645035,0.9999799180806995,-0.007195139701025243,-0.008039226892211326,-0.013637947437336952,-0.007993531166532945,0.010256422544925476,0.0032471383912063933,0.17862933068422615,-0.5241743549737243,0.004702279046801948,55.05269765853882,0.0451913923025131,0.0105570582672953,0.5722377300262451,,,,,,,,0.47791780590425825,0.6665588071653443,0.6668174729037672,0.4521919378169827,99000.0,96200.0,98400.0,100300.0,55.05193758010864,0.8898532742866397,0.07620936662598454,0.008922156709688024,0.3972810158212295,0.16916308007841854,-0.04152602886819144,9.879799050679686,55.05269765853882,4.736858161386911e-05,2.4737002666500644e-05,0.4998921050749327,0.0,0.0,0.0,1.0,0.0,1.402386978473882e-18,-9.568369488545757e-19,0.03279789473684211,0.00025210526315789427,-0.00018052631578947424,0.0,0.0,0.0,55.058841943740845,3.874000072479248,False,True,False,True,True,False,False,1708.8553701003098,2921083.084975291,1701.9572857455887,2900826.801666721,1740.5066425739165,3031135.254735792,1737.3833297812673,3019937.6953900456,0.18936830759579162,-0.09258145517954101,9.953345160012045,3,0.03,-0.00899693096024226,-0.004688315809556178,-0.0019361308448459257
4,4910,0.04000000000000112,0.04330500241483197,0.005831953546313822,0.5806068352663168,-0.003790620932926054,-0.006548801100037358,-0.0010590280142248772,0.9999708110023813,-0.007260820913645895,-0.012257506833664384,-0.012420691888400502,-0.0077827405619159745,0.010497144003041439,6.97174272132116e-05,0.22475696608044654,-0.510718145697347,0.01266553631996302,55.058841943740845,0.0452416017651557,0.0104389544576406,0.5723125338554382,,,,,,,,0.4307334809798703,0.7276558489814031,0.7221110233823851,0.402514335887555,94600.0,103100.0,103400.0,94600.0,55.06108713150024,0.8301247236421483,0.017028962844951964,0.00988246575300256,0.3375524651767379,0.003379090574828922,-0.0456719969956713,9.940701287018607,55.058841943740845,4.736858161386911e-05,2.4737002666500644e-05,0.4998921050749327,0.0,0.0,0.0,1.0,0.0,1.402386978473882e-18,-9.568369488545757e-19,0.03279789473684211,0.00025210526315789427,-0.00018052631578947424,0.0,0.0,0.0,55.058841943740845,3.874000072479248,False,True,False,True,True,False,False,1648.49310092194,2722531.5617018826,1811.8844541806607,3295978.424988688,1825.7457927717437,3342991.4478884516,1647.8290711693437,2723027.829719865,0.09065453775761434,-0.1027132978574325,9.859359186545909,3,0.03,-0.00899730290102408,-0.010222705515419282,-0.001936210886142599
5,4911,0.04999999999999913,0.043268210619468304,0.005825165821690795,0.5806275359299605,-0.0029346142196451964,-0.008002164726305385,-0.0010398448054817777,0.9999631353814277,-0.007230068515868257,-0.015164458661265966,-0.010712716264784664,-0.007932703412555798,0.010639805790643088,0.00040111194293232966,0.21693789187970172,-0.03468047552998875,0.026288695356862336,55.069602251052856,0.045272059738636,0.0105533143505454,0.5721834301948547,,,,,,,,0.4435614838156881,0.6848046707123301,0.703342766784041,0.4350354747133938,90100.0,111500.0,111500.0,88800.0,55.071014165878296,0.7684035574223573,-0.15910376300975032,0.008554657702852768,0.2758312989569469,-0.3118813545747744,-0.09963290651307036,10.193172971328096,55.069602251052856,0.002047368581613869,2.4737002666500644e-05,0.4998921050749327,0.0,0.0,0.0,1.0,0.0,1.402386978473882e-18,-9.568369488545757e-19,0.1177978947368421,0.00025210526315789427,-0.00018052631578947424,0.0,0.0,0.0,55.08946752548218,3.8320000171661377,False,True,False,True,True,False,False,1584.4040864627286,2512513.768721061,1916.9635031863731,3677687.703604346,1915.5511617448929,3673607.397027146,1561.3739181917265,2439291.1895322064,-0.14264416497065513,-0.13755066985177547,10.168792483452652,3,0.03,-0.00623032724197714,-0.01575721166634627,-0.0019362489256236457
6,4912,0.060000000000004244,0.04324740317313474,0.005821034510733648,0.5804733887345392,-0.001997943196513104,-0.00732504915580477,-0.0009311264435661001,0.9999707420126824,-0.007017540854761533,-0.013811163120677861,-0.00883252448839379,-0.008559058319746661,0.010738295233914636,0.004877005984058968,0.16131598356459356,0.898633078390236,0.03937550911911057,55.080317974090576,0.0457207411527633,0.0105412416160106,0.5720989108085632,,,,,,,,0.510362057720213,0.5691896617409773,0.6204162988562415,0.5271427387822599,88200.0,112800.0,112800.0,86700.0,55.08083415031433,0.647673511534958,-0.34171809555230837,0.006868947251648385,0.15510125306954756,-0.5439178489032763,-0.17461537007886263,10.47490677408589,55.080317974090576,0.002047368581613869,2.4737002666500644e-05,0.4998921050749327,0.0,0.0,0.0,1.0,0.0,1.402386978473882e-18,-9.568369488545757e-19,0.1177978947368421,0.00025210526315789427,-0.00018052631578947424,0.0,0.0,0.0,55.08946752548218,3.8320000171661377,False,True,False,True,True,False,False,1553.890014819409,2411666.50142913,1957.729331770249,3825855.467515271,1956.8635085113765,3824804.837572243,1524.888057415224,2319856.5835446664,-0.425967773524658,-0.15557886186557227,10.57071682856745,3,0.03,-0.0034631956866293897,-0.0185244750125205,-0.0019362605927829306
7,4913,0.07000000000000225,0.04327486306199925,0.005823196198803572,0.5802176594953284,-0.00115645294503834,-0.0032325134958642926,-0.0007180166613744661,0.9999938489436618,-0.0065873282256930735,-0.005628721396011886,-0.007126629776445494,-0.009146694193475371,0.01078868759433282,0.011221778711208797,0.09767717601040743,2.0019768130919653,0.04382044060855185,55.08946752548218,0.0457207411527633,0.0105412416160106,0.5720989108085632,,,,,,,,0.5985363318719527,0.4618439633122805,0.525226987584657,0.6240577631371816,92000.0,107900.0,108700.0,90900.0,55.08083415031433,0.4232488148602909,-0.3854062974365473,0.007000717381152204,-0.06932344360511947,-0.5062417148195039,-0.21807887031316672,10.525420895883045,55.08946752548218,0.002047368581613869,2.4737002666500644e-05,0.4998921050749327,0.0,0.0,0.0,1.0,0.0,1.402386978473882e-18,-9.568369488545757e-19,0.1177978947368421,0.00025210526315789427,-0.00018052631578947424,0.0,0.0,0.0,55.08946752548218,3.8320000171661377,False,True,False,True,True,False,False,1574.4131535485074,2476825.195591776,1917.1532229786183,3674648.519319392,1925.2045921731485,3705124.750846536,1552.881881614701,2409673.545933743,-0.407493545150698,-0.19272528264042177,10.49050769468245,3,0.03,-0.0006959811086898588,-0.010222299949388822,-0.0019361340707279278
8,4914,0.08000000000000027,0.04338686585396656,0.005834288258382399,0.5799455211291996,-0.0005265759393759624,0.004904511960120507,-0.0004270816224031789,0.9999877429656331,-0.005985966399392782,0.010644421326237944,-0.005825531175067695,-0.008600734669167168,0.010714111174859157,0.017808582268115408,0.06521481387405367,2.883076687902085,0.03692200790734336,55.09939455986023,0.0459116175770759,0.0104057602584362,0.5720369815826416,,,,,,,,0.6696138144882854,0.41959686991011547,0.46619888773286866,0.6810378450790955,92600.0,105600.0,106400.0,91500.0,55.09524655342102,0.1807981642403672,-0.24788057319209808,0.008771669104082728,-0.3117740942250431,-0.19874737218515331,-0.20699760427759936,10.35559892417542,55.09939455986023,0.002047368581613869,2.4737002666500644e-05,0.4998921050749327,0.0,0.0,0.0,1.0,0.0,1.402386978473882e-18,-9.568369488545757e-19,0.1177978947368421,0.00025210526315789427,-0.00018052631578947424,0.0,0.0,0.0,55.08946752548218,3.8320000171661377,False,True,False,True,True,False,False,1634.1997349734138,2672400.34178673,1829.1833748613453,3350022.5089182435,1844.8838390833566,3407071.5281234533,1624.2855367145705,2641917.4850009372,-0.225634880718873,-0.1978130792874408,10.363264121036664,3,0.03,-0.0006959106820438914,0.006378983711001763,-0.0019359381524378448
9,4915,0.08999999999999828,0.04361801935414316,0.0058540066378859985,0.579739020558772,-0.00012644230732420904,0.01686622457916413,-0.00011941334744180847,0.9998577399916653,-0.005331204529729778,0.03457370411404339,-0.0049672236189615806,-0.005657894064292698,0.010429871662215429,0.02494032513315099,0.0730438156753951,3.300834361443059,0.02329669106058952,55.109214544296265,0.0463229678571224,0.0102012455463409,0.572052001953125,,,,,,,,0.6873346778322225,0.44816292250661405,0.46585760947685784,0.677318627616545,98000.0,100300.0,101000.0,98000.0,55.11205863952637,0.06310288338365538,-0.014850012815064415,0.010255228137390705,-0.429469375081755,0.28293108406071454,-0.17058046277389652,10.212541558034967,55.109214544296265,0.008047368581613869,2.4737002666500644e-05,0.4998921050749327,0.0,0.0,0.0,1.0,0.0,1.402386978473882e-18,-9.568369488545757e-19,0.2457978947368421,0.00025210526315789427,-0.00018052631578947424,0.0,0.0,0.0,55.12362694740296,3.8529999256134033,False,True,False,True,True,False,False,1702.194637234444,2899328.771809625,1750.3225793491356,3062446.788341756,1768.0580749097146,3125909.949129192,1698.3636914338915,2886595.6073813597,-0.14152428934583186,-0.12009396702576203,10.166062938557344,3,0.03,-0.0006960126919144366,0.03405105582513703,0.0008308919135534091
10,4916,0.09999999999999629,0.04399651007474839,0.005877396894022998,0.5796570486915507,0.0001082330013865543,0.03173211444542376,0.00013905220833147414,0.9994963941220215,-0.004752426954174108,0.06434148008849448,-0.004425156520481726,0.0005984038262941145,0.009947846916765628,0.0325280539799656,0.10037531605085441,3.30563040198944,0.011591532201074643,55.12362694740296,0.0468601994216442,0.010336248204112,0.5717523694038391,,,,,,,,0.64409611030945,0.5149412114962519,0.5142153849683124,0.6252389799726852,98000.0,100300.0,101000.0,98000.0,55.12101745605469,0.11589003912503319,0.17736707891542874,0.010092228604140059,-0.37668221934037716,0.8198734884246514,-0.1438262495912695,10.231403114117239,55.12362694740296,0.008047368581613869,2.4737002666500644e-05,0.4998921050749327,0.0,0.0,0.0,1.0,0.0,1.402386978473882e-18,-9.568369488545757e-19,0.2457978947368421,0.00025210526315789427,-0.00018052631578947424,0.0,0.0,0.0,55.12362694740296,3.8529999256134033,False,True,False,True,True,False,False,1745.3172238968891,3046697.19784117,1723.8314524754333,2969269.3145961883,1737.2869141758383,3016584.747594222,1737.660410495415,3019462.883233379,0.0942780567007907,-0.10993973210095911,10.329797634969927,3,0.03,-0.0006958378218552082,0.06723952315984744,0.0008306831556962272
11,4917,0.1100000000000014,0.04454202568822071,0.005894271118616804,0.5797212825911214,0.0002732943571614319,0.04829307231166815,0.0003147229219270058,0.998833121910951,-0.004315133445489275,0.09756531184800925,-0.004006447104757549,0.010479898129528646,0.009406830605859163,0.038516818215503505,0.11884232933126157,3.166259221385778,0.009229176939507495,55.129718542099,0.0471915528178215,0.0102514214813709,0.5720946788787842,,,,,,,,0.5855227806058785,0.5702035750446435,0.5714064381635555,0.5750619521891993,103800.0,96800.0,97400.0,102700.0,55.13143229484558,0.2463689707947924,0.22245968879895928,0.008175622418491537,-0.246203287670618,1.2568645316805238,-0.12747870917507287,10.323551415341623,55.129718542099,0.008047368581613869,2.4737002666500644e-05,0.4998921050749327,0.0,0.0,0.0,1.0,0.0,1.402386978473882e-18,-9.568369488545757e-19,0.2457978947368421,0.00025210526315789427,-0.00018052631578947424,0.0,0.0,0.0,55.12362694740296,3.8529999256134033,False,True,False,True,True,False,False,1748.0175938353943,3057735.9315576563,1755.5748183465798,3086926.9201024203,1759.439827827164,3099304.3446558327,1731.105043474884,2998972.561485651,0.23374877679593098,-0.12957522444128539,10.381957279177053,3,0.03,-0.000695522204974772,0.10039098983964627,0.0008303063759093327
12,4918,0.11999999999999941,0.04526694809665742,0.005890550201045685,0.5799174339859671,0.0004471698519446634,0.06549556773306975,0.00042571019918255303,0.9978526691938409,-0.003979745512444742,0.13218421769565747,-0.00354711856000424,0.023862777108414022,0.00896018115593015,0.04107180353825762,0.11320419933772673,3.14691722291119,0.017507756697361057,55.1404390335083,0.0495713204145431,0.0101635055616498,0.5720147490501404,,,,,,,,0.5714744426111196,0.5812850508571167,0.5995178541845269,0.5761819641451607,97100.0,106400.0,106400.0,94900.0,55.14223766326904,0.33051432382314305,0.10470594861662923,0.005138467368616412,-0.16205793464226736,1.5096790557874062,-0.126630352808681,10.365517151014672,55.1404390335083,0.01904736858161387,2.4737002666500644e-05,0.4998921050749327,0.0,0.0,0.0,1.0,0.0,1.402386978473882e-18,-9.568369488545757e-19,0.40579789473684214,0.00025210526315789427,-0.00018052631578947424,0.0,0.0,0.0,55.15981268882752,3.8529999256134033,False,True,False,True,True,False,False,1725.550651905552,2980780.404282012,1811.105184005558,3286857.8275081962,1805.5821478668727,3265501.313917926,1703.520302781972,2905065.1216287683,0.10790744180096246,-0.07390204506315651,10.44038263321031,3,0.03,0.002068314427929748,0.13348730596145328,0.0008297739250175578
13,4919,0.12999999999999742,0.04618008802565047,0.005851773563823888,0.5802079503626203,0.0006704245204893108,0.08271190613818435,0.0005292188936307915,0.9965731338147307,-0.0036247219714139914,0.16699268746962376,-0.002953818345755797,0.04058612335948448,0.008597039396548416,0.04132856369409731,0.08771670982348839,3.3164909597137058,0.029947219191044705,55.14939785003662,0.0495713204145431,0.0101635055616498,0.5720147490501404,,,,,,,,0.6075074015692272,0.5620810946406007,0.5996366630160181,0.6229339646552852,96800.0,106400.0,105300.0,97100.0,55.15110802650452,0.33342773615022403,-0.07458670207681521,0.002416528310594154,-0.15914452231518633,1.7017665982162116,-0.16612247364347077,10.34801325193371,55.14939785003662,0.01904736858161387,2.4737002666500644e-05,0.4998921050749327,0.0,0.0,0.0,1.0,0.0,1.402386978473882e-18,-9.568369488545757e-19,0.40579789473684214,0.00025210526315789427,-0.00018052631578947424,0.0,0.0,0.0,55.15981268882752,3.884999990463257,False,True,False,True,True,False,False,1712.5014450381648,2934392.1181056574,1842.7455022334848,3397505.6007986865,1837.884433857012,3379173.4259074964,1695.105496112767,2874883.937565865,-0.08555772821852603,-0.08426889566565349,10.525814571066,3,0.03,0.002066765596982475,0.1637618795954673,0.0008291525593697856
14,4920,0.14000000000000254,0.04729152483401941,0.005768024915766959,0.5805453843203929,0.0009515669725821026,0.09974881875123663,0.0006850257043106369,0.9950119589320593,-0.0031207499210603585,0.2016519121403142,-0.0021973751317217157,0.060730560631906114,0.008078106452777803,0.042451684353376797,0.06038126938199706,3.54371627393959,0.03666280723791973,55.15981268882752,0.0522986203432083,0.0100290942937135,0.5720089077949524,,,,,,,,0.6461272666367366,0.5562279134842392,0.6023769615410932,0.6633590421141986,100300.0,103100.0,104200.0,99300.0,55.16393828392029,0.3164632583957372,-0.16802517365909445,0.0018773194224613512,-0.1761090000696732,2.038686518314624,-0.21996436011642706,10.345445132385127,55.15981268882752,0.01904736858161387,2.4737002666500644e-05,0.4998921050749327,0.0,0.0,0.0,1.0,0.0,1.402386978473882e-18,-9.568369488545757e-19,0.40579789473684214,0.00025210526315789427,-0.00018052631578947424,0.0,0.0,0.0,55.15981268882752,3.884999990463257,False,True,False,True,True,False,False,1730.261008361489,2994648.5193443447,1830.6475422396022,3350511.032329822,1841.526597414445,3389965.2797392663,1724.0520269422643,2973821.6628989014,-0.039724197994273514,-0.16644828699458117,10.556052582852658,3,0.03,0.0020647179237636417,0.19670264783104005,0.0008283310663603086
15,4921,0.15000000000000055,0.04861713373196789,0.005638399739160145,0.5808821516707467,0.0012787598110860512,0.11666317964791624,0.0009189291889976552,0.9931702889519647,-0.0024091605495458733,0.23631618128673113,-0.0012961740948225606,0.08459443685433841,0.007105272518222775,0.046291679931115985,0.049731783902950785,3.656574264462872,0.032352181574784734,55.17061805725098,0.0522986203432083,0.0100290942937135,0.5720089077949524,,,,,,,,0.6530914320751242,0.5882537731734458,0.6261030374488539,0.6632729455330555,101700.0,103800.0,105300.0,101700.0,55.17105174064636,0.35162070377131643,-0.11790769173636914,0.003992061981862673,-0.14095155469409398,2.5526893934289543,-0.21672926774545231,10.398765351080641,55.17061805725098,0.03504736858161387,2.4737002666500644e-05,0.4998921050749327,0.0,0.0,0.0,1.0,0.0,1.402386978473882e-18,-9.568369488545757e-19,0.5807978947368421,0.00025210526315789427,-0.00018052631578947424,0.0,0.0,0.0,55.19231867790222,3.884999990463257,False,True,False,True,True,False,False,1769.328386586902,3130691.328199466,1797.7543316595143,3230784.053063852,1830.8993612376448,3351409.756031227,1772.0754859350827,3140884.3836317686,0.08165694373381527,-0.21397579749157236,10.635004378829747,3,0.03,0.0020620835592728443,0.23226754447251163,0.0008272742024067734
16,4922,0.15999999999999856,0.05018186345580062,0.005472540516897858,0.5811800442718673,0.0016242597756039052,0.13353856794879737,0.0012092380164748777,0.9910415482681769,-0.0015355470314208305,0.2711822231743459,-0.0003112067373758102,0.1124626907525004,0.00561295585803733,0.05209017202791155,0.05947939505559641,3.597781893806471,0.020374074915712047,55.17948842048645,0.0563556551933288,0.0097873862832784,0.572235107421875,,,,,,,,0.6409165493874458,0.6414067203504582,0.6616129174004971,0.6399051367339688,103100.0,102400.0,105300.0,103400.0,55.18084263801575,0.45230438939513634,-0.004738239675621793,0.006811434160351053,-0.040267869070274034,3.0925332783670583,-0.16474062729923064,10.459769602731594,55.17948842048645,0.03504736858161387,2.4737002666500644e-05,0.4998921050749327,0.0,0.0,0.0,1.0,0.0,1.402386978473882e-18,-9.568369488545757e-19,0.5807978947368421,0.00025210526315789427,-0.00018052631578947424,0.0,0.0,0.0,55.19231867790222,3.884999990463257,False,True,False,True,True,False,False,1806.2831016109908,3261666.013589817,1783.3457064297172,3179882.7176128374,1828.4919095420014,3343796.2334870836,1808.5137373069235,3269353.558008153,0.1365339758504649,-0.08440897311121957,10.973193782796184,3,0.03,0.0020590208270735008,0.2676852245160673,0.0035770190666544583
17,4923,0.16999999999999657,0.052021213436875456,0.005287541749877479,0.5814209181095554,0.0019465404324115862,0.15035120684854292,0.0015025536403776157,0.9886295908539706,-0.0006207775415339795,0.306220658233748,0.0006598767570483347,0.14446311879754875,0.003882048357037221,0.05822663096847085,0.07342534417319294,3.443707899861454,0.00865967168242203,55.19231867790222,0.0563556551933288,0.0097873862832784,0.572235107421875,,,,,,,,0.6375870894801505,0.6820210879645797,0.6930390055201113,0.6316184524460314,105300.0,102000.0,104500.0,105300.0,55.1917028427124,0.5803750206238936,0.05194406180819792,0.00786022388562184,0.08780276215848318,3.5428971377391547,-0.15702302840844917,10.49398134678229,55.19231867790222,0.03504736858161387,2.4737002666500644e-05,0.4998921050749327,0.0,0.0,0.0,1.0,0.0,1.402386978473882e-18,-9.568369488545757e-19,0.5807978947368421,0.00025210526315789427,-0.00018052631578947424,0.0,0.0,0.0,55.19231867790222,3.805000066757202,False,True,False,True,True,False,False,1830.317491480021,3349316.0269670165,1805.0715037982777,3260305.3930381257,1844.1201073986338,3401542.8017479936,1823.1696661270114,3322619.3688638574,0.1883407796408334,-0.060895192915702334,11.097971375089417,3,0.03,0.004801857959531719,0.30293456387271267,0.0035709682828455997
18,4924,0.1800000000000017,0.05418026135888603,0.0051009860199104605,0.5816136672491875,0.0022008904172952887,0.16696053799500962,0.0017440942381333718,0.9859595797846262,0.00020400703899705886,0.3411618130686828,0.0015095545216255676,0.18069979685061366,0.00232314062723857,0.06406023176423636,0.07085572143300872,3.3063288854331647,0.0019675049292748547,55.199432134628296,0.0588639974594116,0.0097081251442432,0.5724758505821228,,,,,,,,0.6507397813069178,0.6963068736381229,0.7159115781920944,0.6523114966349282,105300.0,106800.0,108300.0,104200.0,55.20091223716736,0.6977758146733745,0.01952156655291776,0.006824807857699901,0.20520355620796407,3.9471248732267297,-0.21028109923731347,10.575728514028748,55.199432134628296,0.03504736858161387,2.4737002666500644e-05,0.4998921050749327,0.0,0.0,0.0,1.0,0.0,1.402386978473882e-18,-9.568369488545757e-19,0.5807978947368421,0.00025210526315789427,-0.00018052631578947424,0.0,0.0,0.0,55.19231867790222,3.805000066757202,False,True,False,True,True,False,False,1847.904353734685,3415329.523523071,1847.410807510659,3415163.3774095043,1873.5322430430056,3510303.724538817,1831.4620505229288,3354756.6969292895,0.16529075308315822,-0.16787752382176713,11.210170386753306,3,0.03,0.004792768419257842,0.3379956992286732,0.0035642087201310816
19,4925,0.1899999999999997,0.056709757901142015,0.004923704249583582,0.5817923235830432,0.002358104543125418,0.18317593536816942,0.0018995096877929105,0.9830754843387693,0.0008495520147846928,0.37563713405919585,0.002162402763294353,0.22145789666366214,0.0011611317514009668,0.06986564259960325,0.05026498786158962,3.2339089916900927,-0.0013898136001399288,55.20922303199768,0.0619346126914024,0.0094844456762075,0.5727216601371765,,,,,,,,0.671734253695019,0.6980614504948472,0.7304916521428381,0.6833506175623024,106400.0,109100.0,110300.0,104900.0,55.21129131317139,0.7941666845093259,-0.03428189123587851,0.0055224677329931485,0.3015944260439154,4.402293321542488,-0.23189849118951053,10.76484524496577,55.20922303199768,0.05804736858161387,2.4737002666500644e-05,0.4998921050749327,0.0,0.0,0.0,1.0,0.0,1.402386978473882e-18,-9.568369488545757e-19,0.7727978947368421,0.00025210526315789427,-0.00018052631578947424,0.0,0.0,0.0,55.220083236694336,3.805000066757202,False,True,False,True,True,False,False,1868.433356773559,3492035.158299677,1883.5180872251335,3547529.236736166,1908.9729328153044,3644293.6134122303,1850.9618474391216,3428051.436550007,0.1311159318913786,-0.15326529068490313,11.660012301844949,3,0.03,0.0047843418439269345,0.36750076603477216,0.003557942180493034
20,4926,0.1999999999999977,0.05966026841575188,0.004756535740683951,0.5820064095315964,0.002418893939841494,0.1988276015775057,0.001956366145440088,0.9800295436539397,0.0012780585305744005,0.4093264172204652,0.0026043132286230806,0.267122019027128,0.0003624560775552484,0.0759766110122295,0.03242659885668644,3.1945643624475166,-0.005740239301222598,55.220083236694336,0.0651081353425979,0.0096112042665481,0.5731348395347595,,,,,,,,0.695592859182798,0.7034970107122605,0.7311345763261375,0.7023667954556974,110300.0,107900.0,109100.0,109100.0,55.2209255695343,0.8652410493658236,-0.036596466747697495,0.00546061383004413,0.37266879090041294,4.908272495360666,-0.18515287434044375,10.976068558185457,55.220083236694336,0.05804736858161387,2.4737002666500644e-05,0.4998921050749327,0.0,0.0,0.0,1.0,0.0,1.402386978473882e-18,-9.568369488545757e-19,0.7727978947368421,0.00025210526315789427,-0.00018052631578947424,0.0,0.0,0.0,55.220083236694336,3.805000066757202,False,True,False,True,True,False,False,1894.5924785949214,3589684.6712502586,1902.863674458113,3619956.096544399,1944.4354476480248,3781813.1807539053,1881.159253964059,3540272.0858516907,0.0820176513255717,-0.107178649330591,12.054926114170035,3,0.03,0.0047743966926105715,0.3995042414392266,0.0035505463307577583
21,4927,0.21000000000000282,0.06307717012617009,0.0045927526100445855,0.5823092469593503,0.0024130780243621554,0.21380109970855657,0.0019124550183693585,0.9768723608198069,0.001480655571338524,0.4420227462939512,0.0028788524698473666,0.3178443392559501,-0.0002107807576374295,0.08271204896922257,0.03465392010707731,3.130677763880186,-0.012486865564038665,55.22929263114929,0.0691692680120468,0.0092181488871574,0.5738879442214966,,,,,,,,0.7187524850105185,0.7120577895980496,0.7178199849169802,0.7064822541183587,109900.0,108700.0,113600.0,110700.0,55.23212909698486,0.8884954574040806,0.011092524536701969,0.006309582066410836,0.3959231989386701,5.388417740842637,-0.15268828758613273,11.101515784006757,55.22929263114929,0.05804736858161387,2.4737002666500644e-05,0.4998921050749327,0.0,0.0,0.0,1.0,0.0,1.402386978473882e-18,-9.568369488545757e-19,0.7727978947368421,0.00025210526315789427,-0.00018052631578947424,0.0,0.0,0.0,55.220083236694336,3.7790000438690186,False,True,False,True,True,False,False,1925.292279177724,3706538.11389117,1914.3627695993705,3664911.759896174,1972.9510894991165,3893773.3413967583,1909.753371270607,3647195.029775568,0.16715095294553883,-0.06637658546779152,12.321998093812997,3,0.03,0.004763683998669265,0.43130168445050615,0.003542579687302114
22,4928,0.22000000000000083,0.06699913120264683,0.0044238695065373064,0.5827483879514246,0.0023839108594184153,0.2280380988442117,0.001767241535994941,0.9736476874629165,0.0014565757444018341,0.47361686302746064,0.0030562517267277286,0.3733844658713314,-0.0007220690418962871,0.09069264280818144,0.04750387998435184,3.0155070223442633,-0.019260062486941447,55.23967170715332,0.073505513370037,0.0092104040086269,0.5746878981590271,,,,,,,,0.7271687109404957,0.7166384477021741,0.7099401514835306,0.7054234255158168,110700.0,111500.0,115800.0,108300.0,55.24085640907288,0.8391629778875694,0.05597484020380454,0.00679921542440107,0.346590719422159,5.830010691438114,-0.19334064736075052,11.155910379925237,55.23967170715332,0.08804736858161387,2.4737002666500644e-05,0.4998921050749327,0.0,0.0,0.0,1.0,0.0,1.402386978473882e-18,-9.568369488545757e-19,0.9657978947368421,0.00025210526315789427,-0.00018052631578947424,0.0,0.0,0.0,55.2605094909668,3.7790000438690186,False,True,False,True,True,False,False,1957.3858616468397,3831606.050507011,1929.1825445941286,3722585.8807801525,1989.6248978054925,3959021.196942538,1930.2509094455102,3725690.6927654184,0.07820552476991605,-0.10884896004743864,12.579758615962874,3,0.03,0.0047532061520434744,0.46025649902369614,0.0035347876913104487
23,4929,0.22999999999999884,0.07146014870597692,0.004244599753090048,0.5833591362855954,0.00236683913418017,0.2415254459153565,0.001526160971010407,0.9703903997261059,0.0012172332902511897,0.504049176568344,0.003196245079843237,0.43332805840572003,-0.0014306453864950711,0.10043884705596753,0.0465210374127282,2.867803491633488,-0.02361069285294664,55.24930596351624,0.0782817378640174,0.0090595232322812,0.5753177404403687,,,,,,,,0.7117874016494941,0.7148301888166292,0.7234344299832274,0.7072582927556396,114100.0,113200.0,114100.0,111500.0,55.251343727111816,0.7194604954267994,0.06502145548161116,0.006365281984323215,0.22688823696138888,6.284961498306876,-0.2544595011405212,11.197467839222309,55.24930596351624,0.08804736858161387,2.4737002666500644e-05,0.4998921050749327,0.0,0.0,0.0,1.0,0.0,1.402386978473882e-18,-9.568369488545757e-19,0.9657978947368421,0.00025210526315789427,-0.00018052631578947424,0.0,0.0,0.0,55.2605094909668,3.7790000438690186,False,True,False,True,True,False,False,1981.2946673290799,3926101.811664508,1950.825673847682,3806386.5131981475,2001.3306465536757,4005235.5463118195,1944.0785929882989,3780055.2918040585,0.03590228808030815,-0.21274623668795506,12.83006184476855,3,0.03,0.004743148260478073,0.4864099902565376,0.003527308000725046
24,4930,0.23999999999999685,0.0764929459788751,0.004054240603996885,0.5841615955095426,0.0023732000109514097,0.2542890239619052,0.0012129275589120355,0.9671245984985318,0.0008081480337528633,0.533274727221865,0.0033228674887064488,0.49739668568004314,-0.0026429127597650537,0.11163628719149316,0.024702362349231143,2.7290250330463843,-0.02575492778334639,55.2605094909668,0.0840067714452743,0.008785487152636,0.5763400793075562,,,,,,,,0.6937983647598764,0.7018285063764036,0.7380587689830691,0.7181365640465083,114900.0,111100.0,114100.0,113200.0,55.251343727111816,0.5679511859877836,0.044463257091710374,0.0054986931533222835,0.07537892752237321,6.727096235770901,-0.2701492641239196,11.215862293575146,55.2605094909668,0.08804736858161387,2.4737002666500644e-05,0.4998921050749327,0.0,0.0,0.0,1.0,0.0,1.402386978473882e-18,-9.568369488545757e-19,0.9657978947368421,0.00025210526315789427,-0.00018052631578947424,0.0,0.0,0.0,55.2605094909668,3.7790000438690186,False,True,False,True,True,False,False,1985.707877125306,3943762.1903305934,1978.2870876984057,3914158.429760797,2021.7837719029098,4088125.0199139602,1951.9167376937849,3810818.684840831,0.10591689590560094,-0.1758860418866255,13.110017967475526,3,0.03,0.004731513675984326,0.5149838066501099,0.0035186557805716393
25,4931,0.25000000000000194,0.08213164016869079,0.0038551138092308484,0.5851615087093446,0.0023856080954870805,0.2663935069716335,0.0008756183763201498,0.9638610074122865,0.0003205792439167009,0.5612599530975502,0.003418287354993806,0.5654831288683947,-0.004422078258810258,0.12326399290387752,0.0006446337690641304,2.624074565920633,-0.027739813593566996,55.26923680305481,0.0902249962091445,0.0087515702471137,0.5775492191314697,,,,,,,,0.7056582880847463,0.6724676788066108,0.7194541401567044,0.7404696560862793,112800.0,115400.0,118100.0,111900.0,55.26576828956604,0.45803030555620095,0.012177630998750681,0.0048240288291943835,-0.03454195290920936,7.0667260474942974,-0.24627305532137544,11.163467415478898,55.26923680305481,0.12204736858161387,2.4737002666500644e-05,0.4998921050749327,0.0,0.0,0.0,1.0,0.0,1.402386978473882e-18,-9.568369488545757e-19,1.148797894736842,0.00025210526315789427,-0.00018052631578947424,0.0,0.0,0.0,55.29414868354797,3.7739999294281006,False,True,False,True,True,False,False,1973.5309284975388,3895458.758209851,2006.1131412847171,4024969.385023176,2049.662266823282,4201951.508144044,1954.490484794066,3820356.39307126,0.04491758824139769,-0.14633906283966386,13.209889118575289,3,0.03,0.004720435881528682,0.540775649800744,0.0008106651301731497
26,4932,0.25999999999999995,0.08841306473641557,0.003650595872566918,0.5863529746831748,0.0023667903859534954,0.2779355419753961,0.0005766239852319757,0.9605966376762368,-0.0001271093515562165,0.5879969701927944,0.0034355239101649003,0.6374014131183803,-0.006369193271431586,0.13441456685647712,-0.008398261784145385,2.532844812090839,-0.031349980895329393,55.27972412109375,0.1050333231687545,0.0083861351013183,0.5800654888153076,,,,,,,,0.7419569651307105,0.6397313921407042,0.6745852147598069,0.7617099396921738,111900.0,116300.0,118800.0,111500.0,55.28185939788818,0.47253897474607454,-0.014195546597517374,0.0044881743545182855,-0.020033283719335784,7.3218022544215735,-0.21391370850798005,11.012301041908305,55.27972412109375,0.12204736858161387,2.4737002666500644e-05,0.4998921050749327,0.0,0.0,0.0,1.0,0.0,1.402386978473882e-18,-9.568369488545757e-19,1.148797894736842,0.00025210526315789427,-0.00018052631578947424,0.0,0.0,0.0,55.29414868354797,3.7739999294281006,False,True,False,True,True,False,False,1963.9478038744805,3857258.307614101,2021.9698922975888,4088762.3245321945,2063.432275294116,4258751.673066691,1957.3879794530685,3831333.21520721,-0.08962691065901662,-0.14068022637262434,13.200554471191484,3,0.03,0.004710061283755377,0.5638314606991743,0.0008088834462639794
27,4933,0.26999999999999796,0.0953769049533513,0.0034442221809644125,0.587720118882217,0.002278611733616842,0.2890162799273683,0.00037068465181867296,0.9573213987258414,-0.00042936703725247205,0.6135014379830788,0.00332670806977158,0.7126318713678431,-0.007841243297224614,0.1445478678935384,-0.008223820608592471,2.4068018525722605,-0.03674325739848973,55.29414868354797,0.1050333231687545,0.0083861351013183,0.5800654888153076,,,,,,,,0.757573705815155,0.6307259384234287,0.6505810768012454,0.7590435757341439,111900.0,116300.0,118800.0,111500.0,55.29314088821411,0.6281676660985918,-0.01866299252479859,0.004497347477717064,0.1355954076331813,7.597375723542257,-0.18851882756378274,10.761696423874772,55.29414868354797,0.12204736858161387,2.4737002666500644e-05,0.4998921050749327,0.0,0.0,0.0,1.0,0.0,1.402386978473882e-18,-9.568369488545757e-19,1.148797894736842,0.00025210526315789427,-0.00018052631578947424,0.0,0.0,0.0,55.29414868354797,3.7739999294281006,False,True,False,True,True,False,False,1969.9429891891325,3880864.0801919983,2015.7159739708964,4064043.4144874006,2048.2233403237688,4197530.694769559,1964.0568978474075,3857718.8033255786,0.016918832321417554,-0.13375923225869268,13.189067575723405,3,0.03,0.00470052892181316,0.5841973531958681,0.000807246403916898
28,4934,0.2800000000000031,0.10306455161592895,0.0032392187147832876,0.5892375032752406,0.0021030573312268105,0.29969587574186535,0.0002848441250998146,0.9540324303067493,-0.0005280261158179789,0.6377762181820623,0.0030765949702345613,0.7903349847277804,-0.008502688476935402,0.15296563809558264,-0.013638910258705911,2.2254476905512632,-0.04211638812096223,55.299421310424805,0.1135169863700866,0.0081996712833642,0.5816692113876343,,,,,,,,0.7261618361133202,0.6527490641544011,0.6705632285565509,0.7261338818315186,114900.0,112800.0,113200.0,114500.0,55.300822496414185,0.8174522414781823,-0.005376050463002164,0.004881666874469165,0.3248799830127718,7.887728516605237,-0.18627667266073333,10.449471080215474,55.299421310424805,0.12204736858161387,2.4737002666500644e-05,0.4998921050749327,0.0,0.0,0.0,1.0,0.0,1.402386978473882e-18,-9.568369488545757e-19,1.148797894736842,0.00025210526315789427,-0.00018052631578947424,0.0,0.0,0.0,55.29414868354797,3.7739999294281006,False,True,False,True,True,False,False,1981.2347053167173,3925811.016067223,1992.2078810108137,3969929.2706250465,2017.815354227752,4073573.3087888537,1967.7110894308707,3872600.9014314283,0.12598193362895316,-0.07253119081078711,13.097007386989544,3,0.03,0.004701991299581753,0.6085818936845213,0.0008074975456957277
29,4935,0.2900000000000011,0.11151620786542879,0.003037449399282332,0.5908718117869134,0.0018536285681469544,0.30995377542216096,0.00031037244083671306,0.9507497698299106,-0.00042703939917514085,0.6607605030965001,0.002719729687553072,0.8696595537632377,-0.008673124911314308,0.1585876923285436,-0.023421126946582084,2.02586684100434,-0.04542941734720423,55.31023979187012,0.1228926926851272,0.0080338139086961,0.5832362174987793,,,,,,,,0.6765541002764396,0.677965636142509,0.700236092865363,0.6855247638027483,114100.0,113200.0,114900.0,112400.0,55.31100749969482,0.8787866062688793,0.0007123595867153027,0.0052043885241052565,0.38621434780346875,8.071816722781117,-0.19680463619708322,10.142485765752385,55.31023979187012,0.16404736858161387,2.4737002666500644e-05,0.4998921050749327,0.0,0.0,0.0,1.0,0.0,1.402386978473882e-18,-9.568369488545757e-19,1.325797894736842,0.00025210526315789427,-0.00018052631578947424,0.0,0.0,0.0,55.321521282196045,3.8420000076293945,False,True,False,True,True,False,False,1979.4214885807999,3919174.5819545467,1967.0832456206804,3869262.1466792114,1997.3115821072074,3988910.1093600085,1960.179388684805,3843381.1535478896,0.1299468575052547,-0.10260713218837127,12.960607935847323,3,0.03,0.004708274203645005,0.630937465618392,0.0008085765416546034
30,4936,0.2999999999999991,0.12076589973239196,0.0028383283288891032,0.592586121861198,0.0015681653817174405,0.31967997978840773,0.00040630963220308853,0.9475241877083147,-0.00019510695610394798,0.6822998202542198,0.002319343390020676,0.9500512096335054,-0.009058833245366658,0.16058021388502974,-0.023441529093025014,1.8582865164193305,-0.047561310473157314,55.321521282196045,0.1328754872083664,0.0078978259116411,0.5848788619041443,,,,,,,,0.653902691822446,0.6728007978256139,0.6928113499203935,0.6646705886299685,111500.0,111500.0,114100.0,110300.0,55.32135677337647,0.7571324461939244,-0.009089257276253804,0.004732128989865744,0.26456018772851386,8.103738432520142,-0.1662735271103709,9.872002220356205,55.321521282196045,0.16404736858161387,2.4737002666500644e-05,0.4998921050749327,0.0,0.0,0.0,1.0,0.0,1.402386978473882e-18,-9.568369488545757e-19,1.325797894736842,0.00025210526315789427,-0.00018052631578947424,0.0,0.0,0.0,55.321521282196045,3.8420000076293945,False,True,False,True,True,False,False,1963.9947225405326,3858311.005671583,1949.0820914444512,3797883.178016272,1990.3691630515664,3960124.152270576,1945.3266057781511,3784915.892459912,0.029420853163047767,-0.18128934926100052,12.767780446943146,3,0.03,0.0020179163174972505,0.6505734060361367,0.0008095550272801864
31,4937,0.3100000000000042,0.13083489508339255,0.00263919840245307,0.5943449015396166,0.001285265137018683,0.3287016154872648,0.0005092820247166081,0.9444328121689808,3.449152402729531e-05,0.7021536445045118,0.0019115194688790159,1.031230708379251,-0.010075151287027767,0.15904416075472055,-0.011045853898711096,1.717545403027255,-0.05254860963317457,55.32920289039612,0.1437559425830841,0.0076846610754728,0.5865980982780457,,,,,,,,0.660848414378485,0.6363985765766572,0.6485125033520718,0.6646672826830649,111500.0,110700.0,114100.0,111100.0,55.33065414428711,0.5675399409054627,-0.009665947235968132,0.0036135388922593336,0.0749676824400522,8.063540286023787,-0.08854720687784993,9.594913415067966,55.32920289039612,0.16404736858161387,2.4737002666500644e-05,0.4998921050749327,0.0,0.0,0.0,1.0,0.0,1.402386978473882e-18,-9.568369488545757e-19,1.325797894736842,0.00025210526315789427,-0.00018052631578947424,0.0,0.0,0.0,55.321521282196045,3.8420000076293945,False,True,False,True,True,False,False,1950.5683842959106,3804484.6511754026,1932.9164465317635,3735818.4632355496,1977.295879329872,3909740.627979778,1933.8752632734108,3739511.221412434,-0.04789415056619983,-0.02044280731364205,12.532213904098137,3,0.03,0.002020449812993782,0.6702862594558406,0.0008105714242427484
32,4938,0.3200000000000022,0.1417256525205656,0.0024374048947727687,0.5961170227755475,0.0010200520191482264,0.33682809776602257,0.0005471492000579335,0.9415654478988457,7.684888935965704e-05,0.7200322843465998,0.0014551480799263367,1.1128743224006348,-0.011465647937867352,0.15480674574451647,-0.0021713725536505243,1.539344040832026,-0.06289660373110005,55.33938789367676,0.1553173214197158,0.007507056929171,0.5882391333580017,,,,,,,,0.6592849326788136,0.6008898371947589,0.6106164800897553,0.6613689127808671,111100.0,110300.0,111500.0,110300.0,55.341081619262695,0.46487595215234845,0.021427157343630317,0.0030799042482209642,-0.027696306313062066,8.022268367494705,-0.04624105231092614,9.247490747935583,55.33938789367676,0.21104736858161385,2.4737002666500644e-05,0.4998921050749327,0.0,0.0,0.0,1.0,0.0,1.402386978473882e-18,-9.568369488545757e-19,1.484797894736842,0.00025210526315789427,-0.00018052631578947424,0.0,0.0,0.0,55.35903453826904,3.8420000076293945,False,True,False,True,True,False,False,1945.0233920248704,3781893.3088321523,1910.897595906728,3652540.549668177,1944.103148200292,3781720.759333932,1927.1196739301915,3713137.138534283,-0.06799199563010827,0.020997675063277987,12.248478581532982,3,0.03,0.002022692415919673,0.6872448771172568,0.000811471119862981
33,4939,0.33000000000000024,0.15341982292677606,0.002232368983747769,0.5978759200365887,0.0007574492853985176,0.343893248828846,0.00045792358203886936,0.9390083332891751,-0.0002579868868334433,0.735645005786357,0.0008364334859282523,1.1943503824029937,-0.012662202337025728,0.1484355740128329,-0.011234791068624513,1.2711457430898827,-0.0751635070377775,55.3497371673584,0.1676784306764602,0.0073242336511611,0.5898202657699585,,,,,,,,0.6259930749143511,0.5921605408165761,0.6076199252603782,0.6373114947745303,111900.0,107500.0,107900.0,110300.0,55.350908041000366,0.4766160528389757,0.06641906227232991,0.003761992690579408,-0.015956205626434843,7.960955089978469,-0.08605344651708552,8.830273491457696,55.3497371673584,0.21104736858161385,2.4737002666500644e-05,0.4998921050749327,0.0,0.0,0.0,1.0,0.0,1.402386978473882e-18,-9.568369488545757e-19,1.484797894736842,0.00025210526315789427,-0.00018052631578947424,0.0,0.0,0.0,55.35903453826904,3.878999948501587,False,True,False,True,True,False,False,1933.4530426546594,3737938.0311154695,1885.567826419532,3556509.3899542377,1900.52054081687,3613487.737198763,1915.48921848351,3669227.3926569344,-0.06332830246649479,-0.07184160518765827,11.883926790668596,3,0.03,0.002024612347040496,0.7014222648509936,0.0008122413648317227
34,4940,0.33999999999999825,0.16588301145388504,0.002025965913633021,0.5995979805033207,0.000466962611525826,0.34978005541740254,0.000213467664538966,0.9368317080509575,-0.0010835418503701282,0.7487422107891608,-6.332342902115704e-05,1.2747837626488367,-0.01346287684859362,0.1395222893120951,-0.03318945790279862,0.9334920313566828,-0.08196917247391625,55.35903453826904,0.1806758940219879,0.0071315262466669,0.5914327502250671,,,,,,,,0.5840239424990046,0.5993166630459137,0.6195322693976782,0.604130072333136,109100.0,106400.0,106800.0,108700.0,55.36021685600281,0.5106709552249382,0.08384411769962688,0.004497886092505832,0.018098696759527702,7.830594714370219,-0.1439430945595955,8.418432344927911,55.35903453826904,0.21104736858161385,2.4737002666500644e-05,0.4998921050749327,0.0,0.0,0.0,1.0,0.0,1.402386978473882e-18,-9.568369488545757e-19,1.484797894736842,0.00025210526315789427,-0.00018052631578947424,0.0,0.0,0.0,55.35903453826904,3.878999948501587,False,True,False,True,True,False,False,1903.130812662419,3623695.63090335,1865.6739790679387,3480624.0069917995,1865.4688275293354,3479144.0615947936,1893.8370303916738,3587542.9322968004,0.015912397670665435,-0.12620299638149313,11.512174518977929,3,0.03,0.002026579262653074,0.7156418373177832,0.0008130304592102118
35,4941,0.34999999999999626,0.17907519398420726,0.0018214355103206986,0.6012605560254322,0.00012524706840480625,0.3544223549981799,-0.00016025842963275454,0.9350854254601296,-0.0023572033296586064,0.7591356188484859,-0.0012828520442862462,1.3534036914737122,-0.014190251039552102,0.12706542068719348,-0.05064589457930536,0.5977164421068306,-0.07890205440683144,55.36946201324463,0.1945300996303558,0.0068981805816292,0.5929147005081177,,,,,,,,0.5702186104955955,0.5924358665962698,0.6097245498730792,0.5869068275021863,106400.0,106400.0,106400.0,106400.0,55.37371301651001,0.4937115157009356,0.058843893083975946,0.0037575403796959485,0.0011392572355251097,7.631193497524451,-0.15215037499000023,8.080925319485516,55.36946201324463,0.26204736858161387,2.4737002666500644e-05,0.4998921050749327,0.0,0.0,0.0,1.0,0.0,1.402386978473882e-18,-9.568369488545757e-19,1.617797894736842,0.00025210526315789427,-0.00018052631578947424,0.0,0.0,0.0,55.38859724998474,3.878999948501587,False,True,False,True,True,False,False,1863.5847289657986,3474734.610943514,1851.8039976758605,3428075.210469637,1844.080767827918,3399266.9260999933,1869.8199479723594,3496783.8805422904,-0.04522155513361348,-0.11598861660980135,11.08177544475019,3,0.03,-0.000681453257601115,0.7241924802973995,0.0008135110290129615
36,4942,0.3600000000000014,0.19296139931513637,0.0016223258582553622,0.6028397096682732,-0.00027107009103220054,0.35778320584961093,-0.0005806989564442995,0.9338044586109572,-0.003858755178951722,0.7666822104343054,-0.0027416748436455305,1.4298770592936636,-0.015150020873652633,0.11056434299274454,-0.05423173848363748,0.3063642372412616,-0.06872492115642034,55.3792884349823,0.2088029831647873,0.0066831987351179,0.5940285325050354,,,,,,,,0.5867839484105881,0.5629731951531523,0.5738110351740859,0.5917386685053188,104500.0,105300.0,104500.0,106000.0,55.38186454772949,0.4381859280097179,0.024345916716603237,0.0019030022259985111,-0.054386330455692605,7.411657645835495,-0.125784258815382,7.815828736338638,55.3792884349823,0.26204736858161387,2.4737002666500644e-05,0.4998921050749327,0.0,0.0,0.0,1.0,0.0,1.402386978473882e-18,-9.568369488545757e-19,1.617797894736842,0.00025210526315789427,-0.00018052631578947424,0.0,0.0,0.0,55.38859724998474,3.878999948501587,False,True,False,True,True,False,False,1837.279306699052,3375565.5811555893,1832.7228350918845,3358342.7746384474,1825.8027032576829,3333394.546518016,1853.496949054258,3435210.291615702,-0.12458094385224516,-0.11504269867821626,10.806342486799581,3,0.03,-0.0006818612361821006,0.7327586087867651,-0.0018968543174483204
37,4943,0.3699999999999994,0.20751648621604504,0.0014320194162039971,0.6043067753370663,-0.0007083713632154017,0.3598152328757644,-0.0009336917252006488,0.9330228424965454,-0.005259945605297127,0.7712287373709774,-0.004274034114750858,1.5042950110270854,-0.01609908490919222,0.09050085909130576,-0.051164946712543694,0.028821480875296207,-0.05849953478252438,55.38859724998474,0.224366083741188,0.0064892503432929,0.5951327085494995,,,,,,,,0.6008078724199531,0.5313602774609757,0.5403611899808094,0.599506688619702,105600.0,103100.0,103100.0,106400.0,55.393702268600464,0.4058859993062548,0.025689441510757006,0.00095588037000458,-0.08668625915915577,7.2147810393756595,-0.10692181530713007,7.584705264711523,55.38859724998474,0.26204736858161387,2.4737002666500644e-05,0.4998921050749327,0.0,0.0,0.0,1.0,0.0,1.402386978473882e-18,-9.568369488545757e-19,1.617797894736842,0.00025210526315789427,-0.00018052631578947424,0.0,0.0,0.0,55.38859724998474,3.900000095367432,False,True,False,True,True,False,False,1832.477891606166,3357074.739932026,1798.4251156788341,3235361.574200662,1800.0175976300907,3240886.5971921845,1844.1000795832845,3400308.0282880296,-0.10497426869390392,-0.10170258620727717,10.457267782885303,3,0.03,-0.0006819992237212325,0.7356183185664302,-0.0018972381818557207
38,4944,0.3799999999999974,0.22272175045923848,0.0012528309900347178,0.6056241571450491,-0.00116814325514056,0.3604176404545219,-0.0011199151576450248,0.9327896363492522,-0.0062625547270380106,0.7725384445870054,-0.005712331508866587,1.576771529837926,-0.016400802154540373,0.06762429993700086,-0.05480870901729825,-0.3017957482023276,-0.0534288388784582,55.40209341049194,0.2400012463331222,0.0063399393111467,0.5960417985916138,,,,,,,,0.5866250752651496,0.5176293155499434,0.5317028467327838,0.5913890959469146,105300.0,100300.0,100700.0,104900.0,55.40532159805298,0.4588037569656319,0.07053083969872644,0.001958451453488779,-0.03376850149977857,7.039703188319235,-0.10250114218131912,7.370108075011961,55.40209341049194,0.26204736858161387,2.4737002666500644e-05,0.4998921050749327,0.0,0.0,0.0,1.0,0.0,1.402386978473882e-18,-9.568369488545757e-19,1.617797894736842,0.00025210526315789427,-0.00018052631578947424,0.0,0.0,0.0,55.38859724998474,3.900000095367432,False,True,False,True,True,False,False,1833.5978638650197,3361268.186188384,1752.74362449931,3073416.9525506864,1766.5555766312652,3121364.666508457,1831.9394269352847,3355965.4408269194,-0.08751498325319051,-0.10937084080088193,10.171058655960486,3,0.03,-0.0033933939419081094,0.7356169613707021,-0.001897234681503037
39,4945,0.3900000000000025,0.238556782991102,0.001084033998428961,0.6067437372219054,-0.0016377073874088586,0.35941381108189263,-0.001100257259636591,0.9331761997351119,-0.006733722255440926,0.7702470823685323,-0.006967677927366251,1.6470708308562463,-0.015712608481174353,0.042149862215234826,-0.06872306146833944,-0.719170195586904,-0.05411706985999572,55.41024494171143,0.2561627924442291,0.0061964937485754,0.5967586636543274,,,,,,,,0.5535094442711737,0.5196069843286869,0.5408615465183534,0.5704102061247773,104200.0,97400.0,100000.0,103400.0,55.410250186920166,0.6011136678973392,0.1232150379691864,0.003571440730992124,0.10854140943192887,6.850303265349299,-0.09711921274410117,7.173229048207954,55.41024494171143,0.31804736858161387,2.4737002666500644e-05,0.4998921050749327,0.0,0.0,0.0,1.0,0.0,1.402386978473882e-18,-9.568369488545757e-19,1.728797894736842,0.00025210526315789427,-0.00018052631578947424,0.0,0.0,0.0,55.4220826625824,3.900000095367432,False,True,False,True,True,False,False,1819.0049162649284,3308886.142415321,1709.909350270022,2923706.1723675933,1732.8675780976996,3002750.015066399,1810.429084247853,3277948.1214358644,-0.11224802721209315,-0.085,9.944505433478682,3,0.03,-0.00339338567813193,0.7356151699565525,-0.004608619434773619
40,4946,0.4000000000000005,0.25499318223624534,0.0009203026375137621,0.6076118954438751,-0.0021127183501657145,0.35657080906572486,-0.0009128054355378896,0.9342654661977098,-0.006757391913982671,0.7638935546123388,-0.008058612300949461,1.7147373534852282,-0.01445208832750517,0.01413075527567116,-0.0815487955917543,-1.1971332921630529,-0.0585310712746859,55.4220826625824,0.2729337215423584,0.0060535441152751,0.5973137021064758,,,,,,,,0.5288207056744666,0.5226028929440386,0.5465402328454811,0.5534025886736004,101700.0,97100.0,97400.0,102000.0,55.42378830909729,0.7264562949771375,0.14412349929276164,0.003908576516694059,0.23388403651172712,6.610355148716238,-0.07942220186672912,7.00168595004353,55.4220826625824,0.31804736858161387,2.4737002666500644e-05,0.4998921050749327,0.0,0.0,0.0,1.0,0.0,1.402386978473882e-18,-9.568369488545757e-19,1.728797894736842,0.00025210526315789427,-0.00018052631578947424,0.0,0.0,0.0,55.4220826625824,3.900000095367432,False,True,False,True,True,False,False,1783.1160373034218,3180748.9102986986,1680.991944346363,2824805.4359845994,1706.754178637475,2912622.3595989007,1782.0700637432233,3176040.0569810243,-0.07924303738453098,-0.10474708937078767,9.622903938229584,3,0.03,-0.003392023783576257,0.7298992948589234,-0.0018964686307730474
41,4947,0.40999999999999853,0.2719953545715965,0.000753107047586677,0.6081810773479182,-0.002590840958355404,0.3516620649677556,-0.0006476944174648256,0.9361232077550925,-0.006563086131236591,0.7530299517694007,-0.009069941635454742,1.7795929743418186,-0.013510637704881751,-0.015527179599825058,-0.07698092193481446,-1.6819992660058605,-0.0644838939298328,55.43370199203491,0.2906263172626495,0.0058856401592493,0.597734272480011,,,,,,,,0.5242133079533766,0.5209605511589673,0.5396424480713804,0.5472292412262443,100300.0,95200.0,97100.0,101000.0,55.43066883087158,0.6824747254117121,0.12435904328702563,0.0028849185894123195,0.18990246694630172,6.3174627932606455,-0.05237102542897327,6.880355683318703,55.43370199203491,0.31804736858161387,2.4737002666500644e-05,0.4998921050749327,0.0,0.0,0.0,1.0,0.0,1.402386978473882e-18,-9.568369488545757e-19,1.728797894736842,0.00025210526315789427,-0.00018052631578947424,0.0,0.0,0.0,55.4220826625824,3.9159998893737793,False,True,False,True,True,False,False,1740.1985053715034,3029113.811507777,1666.1606194472615,2775754.440273091,1691.7897326037933,2862034.789212833,1754.7531174095877,3079184.8714111447,-0.09923704765549424,-0.08957987002162648,9.323694020685124,3,0.03,-0.0060974772270184835,0.7184868952282463,0.000813186042678809
42,4948,0.41999999999999654,0.2895291872797801,0.0005756878252586828,0.6084221133222734,-0.0030618723954255783,0.3445489241063484,-0.00039425850923562115,0.9387632866675282,-0.0063752806061194225,0.7373645594089477,-0.010070071536779161,1.8419096754924866,-0.013450547617515698,-0.0450116967232802,-0.04931503554582149,-2.137807944391676,-0.07010012301736399,55.4386305809021,0.3086993992328644,0.0057219648733735,0.597856879234314,,,,,,,,0.5266662369085766,0.523170777305652,0.5298921382521927,0.5406891383183448,97700.0,94600.0,96200.0,99300.0,55.43066883087158,0.4460461559472948,0.08492115223953223,0.0017403572042710672,-0.046526102518115536,6.007823855835127,-0.03469605364895777,6.836911185534344,55.4386305809021,0.37804736858161386,2.4737002666500644e-05,0.4998921050749327,0.0,0.0,0.0,1.0,0.0,1.402386978473882e-18,-9.568369488545757e-19,1.810797894736842,0.00025210526315789427,-0.00018052631578947424,0.0,0.0,0.0,55.45904922485352,3.9159998893737793,False,True,False,True,True,False,False,1709.9679070376574,2923507.389521528,1658.065825676595,2749662.8902768223,1685.5135220480527,2841189.448792015,1735.6305558844385,3012281.5089479727,-0.17096896476437795,-0.07207144882085836,9.123029507540371,3,0.03,-0.0060915318004216065,0.7042587982625976,0.0008123931347684804
43,4949,0.43000000000000166,0.30757485566261916,0.0003888885456732186,0.6083302425171248,-0.0035018918504480696,0.335244354838677,-0.00019765444199444234,0.9421246840174545,-0.006290663247890161,0.7168715478995161,-0.011046842175581738,1.9019410350331247,-0.013982723181992607,-0.0728516087869518,-0.010266029011050072,-2.5586446329284143,-0.07388637002112775,55.45216870307922,0.3272505104541778,0.0054659186862409,0.5979771614074707,,,,,,,,0.5200683934485512,0.536650797401782,0.5293931416588904,0.5222547573366986,97100.0,95200.0,96800.0,98700.0,55.446062088012695,0.18933793845583985,0.05154004293177611,0.0009295284104018759,-0.30323432000957057,5.720250614208354,-0.04180519231202663,6.872154761111525,55.45216870307922,0.37804736858161386,2.4737002666500644e-05,0.4998921050749327,0.0,0.0,0.0,1.0,0.0,1.402386978473882e-18,-9.568369488545757e-19,1.810797894736842,0.00025210526315789427,-0.00018052631578947424,0.0,0.0,0.0,55.45904922485352,3.9159998893737793,False,True,False,True,True,False,False,1699.561176802935,2887601.946458583,1650.0261959431477,2723126.1915663355,1680.9519408388871,2825892.276888807,1726.3749246525485,2980180.2861664966,-0.21646682180510268,-0.07644089680222566,8.920710473973118,3,0.03,-0.006083427444984601,0.6844084437987699,-0.0018905956937701497
44,4950,0.43999999999999967,0.32613744363799585,0.00020359879390886498,0.607922737795755,-0.0038768379093740385,0.3239291478675686,-5.4089738829506937e-05,0.946073397979203,-0.00626726480198354,0.6918221103613659,-0.011908632823175313,1.9594467885985412,-0.014258724097253123,-0.09899743488823823,0.019386194178473856,-2.947822845158618,-0.07556033599299612,55.45904922485352,0.346118301153183,0.0054122349247336,0.5975914597511292,,,,,,,,0.5055676279104817,0.5547383879816054,0.5376990399952067,0.49904996797733536,97100.0,93800.0,95500.0,98400.0,55.46109509468079,0.10434303928115461,0.032124974733831094,-0.0001724043815175874,-0.38822921918425574,5.453224707705976,-0.06364012726582871,6.966435465317952,55.45904922485352,0.37804736858161386,2.4737002666500644e-05,0.4998921050749327,0.0,0.0,0.0,1.0,0.0,1.402386978473882e-18,-9.568369488545757e-19,1.810797894736842,0.00025210526315789427,-0.00018052631578947424,0.0,0.0,0.0,55.45904922485352,3.9159998893737793,False,True,False,True,True,False,False,1696.9682017231285,2879224.9406546587,1641.8525940294537,2695640.0187197663,1672.5641794698654,2797519.93375393,1720.8779705677618,2961259.5224195593,-0.24220899537892215,-0.11721162921360657,8.84962117113691,3,0.03,-0.008770896957916241,0.6590064704331332,-0.00188748854606412
45,4951,0.4499999999999977,0.34524908919245134,3.751693399070006e-05,0.6072314941200049,-0.004155479086856123,0.31091044833568826,6.1493845040214e-05,0.9504301243793607,-0.006209797613415078,0.6627304439412967,-0.01254613546002714,2.014030718987122,-0.013649093395698945,-0.1243873950263662,0.026037844647016143,-3.2968190637304984,-0.07609062623768616,55.47444248199463,0.3654927015304565,0.0053506148979067,0.5971288681030273,,,,,,,,0.4956588730866894,0.5649522894445568,0.5476403512611434,0.48952649395468284,97100.0,93800.0,95500.0,98400.0,55.47377920150757,0.18940923636312595,0.016181055754491976,-0.0017135726239365665,-0.30316302210228435,5.169314804765071,-0.0762230630931645,7.104470242034114,55.47444248199463,0.43804736858161386,2.4737002666500644e-05,0.4998921050749327,0.0,0.0,0.0,1.0,0.0,1.402386978473882e-18,-9.568369488545757e-19,1.857797894736842,0.00025210526315789427,-0.00018052631578947424,0.0,0.0,0.0,55.48947548866272,3.9159998893737793,False,True,False,True,True,False,False,1682.896323611993,2832802.111738851,1639.4162934100743,2687237.4498230685,1662.4647670429817,2763447.4502497334,1709.3156377348307,2921961.787754872,-0.32125582415386145,-0.13872831593426982,8.782875282383626,3,0.03,-0.00875712482452038,0.6337325904805032,0.0008087070953654971
